{"type":"FeatureCollection","features":[{"type":"Feature","properties":{"title":"Bibliothèque Centre Socioculturel Pilotière","Code postal":44300,"Site Internet":null,"Téléphone":"02 40 50 32 44","Adresse":"31 Rue des Platanes","Commune":"NANTES","icon":"default"},"geometry":{"type":"Point","coordinates":[-1.52412551040272,47.2448690657194]}},{"type":"Feature","properties":{"title":"Bibliothèque Maison Enfance Bellevue","Code postal":44100,"Site Internet":null,"Téléphone":"02 40 48 56 56","Adresse":"20 Rue Firmin Colas","Commune":"NANTES","icon":"default"},"geometry":{"type":"Point","coordinates":[-1.60743349009795,47.2035647244328]}},{"type":"Feature","properties":{"title":"Bibliothèque Breil Malville","Code postal":44100,"Site Internet":null,"Téléphone":"02 40 76 06 56","Adresse":"37B Rue des Plantes","Commune":"NANTES","icon":"default"},"geometry":{"type":"Point","coordinates":[-1.58610757121275,47.2330348517548]}},{"type":"Feature","properties":{"title":"Bibliothèque Chantenay","Code postal":44100,"Site Internet":null,"Téléphone":"02 40 46 26 96","Adresse":"8 Rue de la Constitution","Commune":"NANTES","icon":"default"},"geometry":{"type":"Point","coordinates":[-1.58979457477487,47.2064963595484]}},{"type":"Feature","properties":{"title":"Bibliothèque de La Halvêque","Code postal":44300,"Site Internet":"www.bm.nantes.fr","Téléphone":"02 40 50 62 64","Adresse":"23 Rue Léon Serpollet","Commune":"NANTES","icon":"default"},"geometry":{"type":"Point","coordinates":[-1.51899981108424,47.2541505546046]}},{"type":"Feature","properties":{"title":"Bibliothèque de la Manufacture","Code postal":44000,"Site Internet":"www.bm.nantes.fr","Téléphone":"02 40 41 95 65","Adresse":"6 Cour Jules Durand","Commune":"NANTES","icon":"default"},"geometry":{"type":"Point","coordinates":[-1.53621501258436,47.2199674721399]}},{"type":"Feature","properties":{"title":"Médiathèque Espace Jacques Demy","Code postal":44000,"Site Internet":"www.nantes.fr/mairie/services/responsabilites/dgc/biblios","Téléphone":"02 40 41 95 95","Adresse":"24 Quai de la Fosse","Commune":"NANTES","icon":"default"},"geometry":{"type":"Point","coordinates":[-1.56215521908497,47.2111500141088]}},{"type":"Feature","properties":{"title":"Médiathèque Nord Luce Courville","Code postal":44300,"Site Internet":"www.bm.nantes.fr","Téléphone":"02 40 16 05 50","Adresse":"1 Rue Eugène Thomas","Commune":"NANTES","icon":"default"},"geometry":{"type":"Point","coordinates":[-1.57421098702047,47.2619113578198]}},{"type":"Feature","properties":{"title":"Musée Jules Verne","Code postal":44100,"Site Internet":"www.nantes.fr/mairie/services/responsabilites/dgc/musees","Téléphone":"02 40 69 72 52","Adresse":"3 Rue de l'Hermitage","Commune":"NANTES","icon":"default"},"geometry":{"type":"Point","coordinates":[-1.57737270098168,47.201601357171]}},{"type":"Feature","properties":{"title":"Manoir de La Hautière","Code postal":44100,"Site Internet":null,"Téléphone":"02 40 69 30 55","Adresse":"14 Rue Claude Guillon Verne","Commune":"NANTES","icon":"default"},"geometry":{"type":"Point","coordinates":[-1.58279541240163,47.2029654450222]}},{"type":"Feature","properties":{"title":"Château du Parc du Grand Blottereau","Code postal":44300,"Site Internet":null,"Téléphone":"02 40 49 39 98","Adresse":"Boulevard Auguste Péneau","Commune":"NANTES","icon":"default"},"geometry":{"type":"Point","coordinates":[-1.51067077954986,47.2261904412571]}},{"type":"Feature","properties":{"title":"Musée départemental Dobrée","Code postal":44000,"Site Internet":"www.loire-atlantique.fr","Téléphone":"02 40 71 03 50","Adresse":"18 Rue Voltaire","Commune":"NANTES","icon":"default"},"geometry":{"type":"Point","coordinates":[-1.56657545527101,47.2126357902393]}},{"type":"Feature","properties":{"title":"Muséum d'Histoire Naturelle","Code postal":44000,"Site Internet":"www.museum.nantes.fr","Téléphone":"02 40 99 26 20","Adresse":"12 Rue Voltaire","Commune":"NANTES","icon":"default"},"geometry":{"type":"Point","coordinates":[-1.56483323576428,47.2126627103977]}},{"type":"Feature","properties":{"title":"Musée des Beaux Arts","Code postal":44000,"Site Internet":"www.nantes.fr/mairie/services/responsabilites/dgc/musees","Téléphone":"02 51 17 45 00","Adresse":"10 Rue Georges Clemenceau","Commune":"NANTES","icon":"default"},"geometry":{"type":"Point","coordinates":[-1.54738925275446,47.2195914348402]}},{"type":"Feature","properties":{"title":"Château des Ducs de Bretagne","Code postal":44000,"Site Internet":"www.chateau-nantes.fr","Téléphone":"08 11 46 46 44","Adresse":"4 Place Marc Elder","Commune":"NANTES","icon":"default"},"geometry":{"type":"Point","coordinates":[-1.54960343720158,47.2163485862643]}},{"type":"Feature","properties":{"title":"Musée  de l'Imprimerie","Code postal":44000,"Site Internet":"musee-imprimerie.com","Téléphone":"02 40 73 26 55","Adresse":"24 Quai de la Fosse","Commune":"NANTES","icon":"default"},"geometry":{"type":"Point","coordinates":[-1.56214635427804,47.2109357704198]}},{"type":"Feature","properties":{"title":"Le Grand T","Code postal":44000,"Site Internet":"www.legrandt.fr","Téléphone":"02 28 24 28 24","Adresse":"84 Rue Général Buat","Commune":"NANTES","icon":"default"},"geometry":{"type":"Point","coordinates":[-1.54069327689558,47.2307905353753]}},{"type":"Feature","properties":{"title":"Salle Paul Fort Nantes","Code postal":44000,"Site Internet":null,"Téléphone":"02 51 72 10 10","Adresse":"9 Rue Basse Porte","Commune":"NANTES","icon":"default"},"geometry":{"type":"Point","coordinates":[-1.558278353816,47.2208841720473]}},{"type":"Feature","properties":{"title":"Théâtre Graslin","Code postal":44000,"Site Internet":"www.angers-nantes-opera.com","Téléphone":"02 40 69 77 18","Adresse":"1T Place Graslin","Commune":"NANTES","icon":"default"},"geometry":{"type":"Point","coordinates":[-1.56222079050172,47.2134383314212]}},{"type":"Feature","properties":{"title":"La Fabrique Chantenay-Bellevue","Code postal":44100,"Site Internet":"www.lafabrique.nantes.fr","Téléphone":"02 51 80 60 80","Adresse":"30 Boulevard de la Liberté","Commune":"NANTES","icon":"default"},"geometry":{"type":"Point","coordinates":[-1.58882873634081,47.1996251925819]}},{"type":"Feature","properties":{"title":"Planétarium Nantes","Code postal":44100,"Site Internet":"www.nantes.fr/mairie/services/responsabilites/dgc/musees","Téléphone":"02 40 73 99 23","Adresse":"8 Rue des Acadiens","Commune":"NANTES","icon":"default"},"geometry":{"type":"Point","coordinates":[-1.57746408897429,47.2022240576511]}},{"type":"Feature","properties":{"title":"Pigeonnier Nantes","Code postal":44100,"Site Internet":null,"Téléphone":null,"Adresse":"4 Place Vincent Auriol","Commune":"NANTES","icon":"default"},"geometry":{"type":"Point","coordinates":[-1.59276495064138,47.221942231682]}},{"type":"Feature","properties":{"title":"Porte Saint Pierre","Code postal":44000,"Site Internet":null,"Téléphone":null,"Adresse":"1 Rue de l'Evêché","Commune":"NANTES","icon":"default"},"geometry":{"type":"Point","coordinates":[-1.55028297462458,47.2188776569657]}},{"type":"Feature","properties":{"title":"Monument des Fusillés","Code postal":44300,"Site Internet":null,"Téléphone":null,"Adresse":"10B Boulevard de la Beaujoire","Commune":"NANTES","icon":"default"},"geometry":{"type":"Point","coordinates":[-1.51246735098118,47.2605733716795]}},{"type":"Feature","properties":{"title":"Centre Chorégraphique National de Nantes,J. Garnier","Code postal":44000,"Site Internet":"www.nantes.fr/detente/culture","Téléphone":"02 40 93 30 97","Adresse":"9 Rue Haute Roche","Commune":"NANTES","icon":"default"},"geometry":{"type":"Point","coordinates":[-1.56268265508309,47.2259393407459]}},{"type":"Feature","properties":{"title":"Chapelle de l'Oratoire","Code postal":44000,"Site Internet":null,"Téléphone":"02 40 41 65 60","Adresse":"13 Place de l'Oratoire","Commune":"NANTES","icon":"default"},"geometry":{"type":"Point","coordinates":[-1.54846808966722,47.2190680846713]}},{"type":"Feature","properties":{"title":"Cité internationale des Congrès Nantes","Code postal":44000,"Site Internet":"www.congres-nantes.fr","Téléphone":"02 51 88 20 00","Adresse":"5 Rue de Valmy","Commune":"NANTES","icon":"default"},"geometry":{"type":"Point","coordinates":[-1.54361241181679,47.2127669420381]}},{"type":"Feature","properties":{"title":"Salle d'Expositions Manu","Code postal":44000,"Site Internet":null,"Téléphone":null,"Adresse":"11 Boulevard de Stalingrad","Commune":"NANTES","icon":"default"},"geometry":{"type":"Point","coordinates":[-1.53606743270468,47.2197586108985]}},{"type":"Feature","properties":{"title":"Espace Culturel Bréchoir","Code postal":44000,"Site Internet":null,"Téléphone":null,"Adresse":"1 Rue Jules Bréchoir","Commune":"NANTES","icon":"default"},"geometry":{"type":"Point","coordinates":[-1.5229962386996,47.2252983383409]}},{"type":"Feature","properties":{"title":"Bibliothèque Boissière","Code postal":44300,"Site Internet":null,"Téléphone":"02 40 76 96 85","Adresse":"9B Rue Jean De La Bruyère","Commune":"NANTES","icon":"default"},"geometry":{"type":"Point","coordinates":[-1.56744168014674,47.2544241858466]}},{"type":"Feature","properties":{"title":"Cinéma Concorde","Code postal":44100,"Site Internet":null,"Téléphone":"02 40 46 25 29","Adresse":"79 Boulevard de l'Egalité","Commune":"NANTES","icon":"default"},"geometry":{"type":"Point","coordinates":[-1.58680498628311,47.2111830980786]}},{"type":"Feature","properties":{"title":"Cinéma Katorza","Code postal":44000,"Site Internet":"www.ifrance.com/cinekatorza","Téléphone":"02 51 84 90 60","Adresse":"3 Rue Corneille","Commune":"NANTES","icon":"default"},"geometry":{"type":"Point","coordinates":[-1.56269593518909,47.213635180752]}},{"type":"Feature","properties":{"title":"Théâtre de Poche Graslin","Code postal":44000,"Site Internet":"www.theatredepochegraslin.fr","Téléphone":"02 40 47 34 44","Adresse":"5 Rue Lekain","Commune":"NANTES","icon":"default"},"geometry":{"type":"Point","coordinates":[-1.56295099975056,47.2144961643548]}},{"type":"Feature","properties":{"title":"Théâtre Universitaire Nantes","Code postal":44300,"Site Internet":"www.tunantes.fr","Téléphone":"02 40 14 55 14","Adresse":"11 Chemin de la Censive du Tertre","Commune":"NANTES","icon":"default"},"geometry":{"type":"Point","coordinates":[-1.55350936538644,47.2456250069954]}},{"type":"Feature","properties":{"title":"Bibliothèque Doulon","Code postal":44300,"Site Internet":null,"Téléphone":"02 40 93 25 16","Adresse":"1 Rue de la Basse Chénaie","Commune":"NANTES","icon":"default"},"geometry":{"type":"Point","coordinates":[-1.50933600146099,47.2370383094713]}},{"type":"Feature","properties":{"title":"Ludothèque Perray","Code postal":44300,"Site Internet":null,"Téléphone":"02 40 49 74 69","Adresse":"7 Rue Frédéric Mistral","Commune":"NANTES","icon":"default"},"geometry":{"type":"Point","coordinates":[-1.51258942059508,47.2471820573203]}},{"type":"Feature","properties":{"title":"Ludothèque Boissière","Code postal":44300,"Site Internet":null,"Téléphone":"02 40 76 96 85","Adresse":"9B Rue Jean De La Bruyère","Commune":"NANTES","icon":"default"},"geometry":{"type":"Point","coordinates":[-1.56724049631036,47.2543883028455]}},{"type":"Feature","properties":{"title":"Ludothèque Bout des Landes","Code postal":44300,"Site Internet":null,"Téléphone":"02 40 76 15 52","Adresse":"12 Rue de Concarneau","Commune":"NANTES","icon":"default"},"geometry":{"type":"Point","coordinates":[-1.57811320967866,47.2660853380379]}},{"type":"Feature","properties":{"title":"Ludothèque Clos Toreau","Code postal":44200,"Site Internet":null,"Téléphone":"02 40 03 19 55","Adresse":"10 Rue d'Hendaye","Commune":"NANTES","icon":"default"},"geometry":{"type":"Point","coordinates":[-1.52815729492207,47.1949950115069]}},{"type":"Feature","properties":{"title":"Ludothèque l'Ile aux Jeux","Code postal":44200,"Site Internet":null,"Téléphone":null,"Adresse":"14 Rue Michel Rocher","Commune":"NANTES","icon":"default"},"geometry":{"type":"Point","coordinates":[-1.54967089838391,47.2062604079343]}},{"type":"Feature","properties":{"title":"Ludothèque Planète Jouets Bottière","Code postal":44300,"Site Internet":null,"Téléphone":"02 40 49 63 12","Adresse":"15 Rue de la Souillarderie","Commune":"NANTES","icon":"default"},"geometry":{"type":"Point","coordinates":[-1.51749026302222,47.2398617937679]}},{"type":"Feature","properties":{"title":"Ludothèque Centre Socioculturel Port Boyer","Code postal":44300,"Site Internet":null,"Téléphone":"02 40 49 21 81","Adresse":"7 Rue de Pornichet","Commune":"NANTES","icon":"default"},"geometry":{"type":"Point","coordinates":[-1.54125046934578,47.2412474745432]}},{"type":"Feature","properties":{"title":"Salle d'Expositions Temple du Goût","Code postal":44000,"Site Internet":null,"Téléphone":"02 40 47 46 44","Adresse":"30 Rue Kervégan","Commune":"NANTES","icon":"default"},"geometry":{"type":"Point","coordinates":[-1.55668905017722,47.2124516306806]}},{"type":"Feature","properties":{"title":"Maison des Hommes et des Techniques","Code postal":44200,"Site Internet":null,"Téléphone":"02 40 08 20 22","Adresse":"2B Boulevard Léon Bureau","Commune":"NANTES","icon":"default"},"geometry":{"type":"Point","coordinates":[-1.56575937676873,47.205757930039]}},{"type":"Feature","properties":{"title":"Musée Compagnonique","Code postal":44100,"Site Internet":null,"Téléphone":"02 40 69 30 55","Adresse":"14 Rue Claude Guillon Verne","Commune":"NANTES","icon":"default"},"geometry":{"type":"Point","coordinates":[-1.58281336906524,47.2027828929462]}},{"type":"Feature","properties":{"title":"Musée Naval Maillé Brézé","Code postal":44100,"Site Internet":"www.nwt.fr/escorteur-maille-breze","Téléphone":"02 40 69 56 82","Adresse":"Quai de la Fosse","Commune":"NANTES","icon":"default"},"geometry":{"type":"Point","coordinates":[-1.57114521146042,47.2071208442903]}},{"type":"Feature","properties":{"title":"Musée d'Histoire de Nantes","Code postal":44000,"Site Internet":"www.chateau-nantes.fr","Téléphone":"08 11 46 46 44","Adresse":"4 Place Marc Elder","Commune":"NANTES","icon":"default"},"geometry":{"type":"Point","coordinates":[-1.549918107433,47.216240073289]}},{"type":"Feature","properties":{"title":"Cinéma Bonne Garde","Code postal":44200,"Site Internet":"www.cinefil.com","Téléphone":"02 40 84 18 84","Adresse":"20 Rue Frère Louis","Commune":"NANTES","icon":"default"},"geometry":{"type":"Point","coordinates":[-1.53855887533553,47.1952432679388]}},{"type":"Feature","properties":{"title":"Cinéma Gaumont","Code postal":44000,"Site Internet":"www.gaumont.fr","Téléphone":"02 51 72 08 09","Adresse":"12 Place du Commerce","Commune":"NANTES","icon":"default"},"geometry":{"type":"Point","coordinates":[-1.55826228453643,47.2134049938951]}},{"type":"Feature","properties":{"title":"Château de La Gaudinière","Code postal":44300,"Site Internet":null,"Téléphone":null,"Adresse":"29 Rue Diane","Commune":"NANTES","icon":"default"},"geometry":{"type":"Point","coordinates":[-1.57828117455308,47.2434588929702]}},{"type":"Feature","properties":{"title":"Conservatoire de Nantes","Code postal":44200,"Site Internet":"www.conservatoire.nantes.fr","Téléphone":"02 51 25 00 20","Adresse":"4 Rue Gaëtan Rondeau","Commune":"NANTES","icon":"default"},"geometry":{"type":"Point","coordinates":[-1.53268602054133,47.2075413501197]}},{"type":"Feature","properties":{"title":"Cinéma Le Cinématographe","Code postal":44000,"Site Internet":"www.lecinematographe.com/","Téléphone":"02 40 47 94 80","Adresse":"12B Rue des Carmélites","Commune":"NANTES","icon":"default"},"geometry":{"type":"Point","coordinates":[-1.55147134651711,47.2169075156747]}},{"type":"Feature","properties":{"title":"Le Lieu Unique Nantes","Code postal":44000,"Site Internet":"www.lelieuunique.com","Téléphone":"02 40 12 14 34","Adresse":"Quai Ferdinand Favre","Commune":"NANTES","icon":"default"},"geometry":{"type":"Point","coordinates":[-1.54566621075059,47.2152661553546]}},{"type":"Feature","properties":{"title":"Salle d'Expositions Château de Procé","Code postal":44000,"Site Internet":null,"Téléphone":null,"Adresse":"44 Rue des Dervallières","Commune":"NANTES","icon":"default"},"geometry":{"type":"Point","coordinates":[-1.58125394417763,47.2232961347797]}},{"type":"Feature","properties":{"title":"Pôle Régional des Musiques Actuelles","Code postal":44200,"Site Internet":"www.lepole.asso.fr","Téléphone":"02 40 46 66 33","Adresse":"6 Rue de Saint Domingue","Commune":"NANTES","icon":"default"},"geometry":{"type":"Point","coordinates":[-1.57188530991997,47.2005094247013]}},{"type":"Feature","properties":{"title":"Studio Théâtre","Code postal":44000,"Site Internet":null,"Téléphone":"02 40 29 07 61","Adresse":"5 Rue du Ballet","Commune":"NANTES","icon":"default"},"geometry":{"type":"Point","coordinates":[-1.55792726362705,47.2310612015399]}},{"type":"Feature","properties":{"title":"Bibliothèque Emilienne Leroux","Code postal":44100,"Site Internet":null,"Téléphone":"02 40 43 31 51","Adresse":"21 Rue Charles Roger","Commune":"NANTES","icon":"default"},"geometry":{"type":"Point","coordinates":[-1.59760423329973,47.2230965289039]}},{"type":"Feature","properties":{"title":"Château de Procé","Code postal":44000,"Site Internet":null,"Téléphone":null,"Adresse":"44 Rue des Dervallières","Commune":"NANTES","icon":"default"},"geometry":{"type":"Point","coordinates":[-1.5809131410435,47.223238903416]}},{"type":"Feature","properties":{"title":"Salle Pannonica","Code postal":44000,"Site Internet":"www.pannonica.com","Téléphone":"02 51 72 10 10","Adresse":"9 Rue Basse Porte","Commune":"NANTES","icon":"default"},"geometry":{"type":"Point","coordinates":[-1.55841718455808,47.2208026531753]}},{"type":"Feature","properties":{"title":"Salle d'Expositions Espace Delrue","Code postal":44000,"Site Internet":null,"Téléphone":null,"Adresse":"11 Rue Marmontel","Commune":"NANTES","icon":"default"},"geometry":{"type":"Point","coordinates":[-1.54981078535814,47.2094849922051]}},{"type":"Feature","properties":{"title":"Salle d'Expositions de l'ESBANM","Code postal":44000,"Site Internet":"www.erba-nantes.fr","Téléphone":null,"Adresse":"Place Dulcie September","Commune":"NANTES","icon":"default"},"geometry":{"type":"Point","coordinates":[-1.55421703194788,47.2170094184269]}},{"type":"Feature","properties":{"title":"Théâtre Pom'","Code postal":44000,"Site Internet":"www.theatrepom.fr/","Téléphone":"02 40 89 54 95","Adresse":"44 Rue de Bel Air","Commune":"NANTES","icon":"default"},"geometry":{"type":"Point","coordinates":[-1.55904423277679,47.2239153874804]}},{"type":"Feature","properties":{"title":"Bibliothèque Société Académique Nantes","Code postal":44000,"Site Internet":null,"Téléphone":null,"Adresse":"8 Rue Garde Dieu","Commune":"NANTES","icon":"default"},"geometry":{"type":"Point","coordinates":[-1.55468004357272,47.2189938408806]}},{"type":"Feature","properties":{"title":"Maison de la Poésie Nantes","Code postal":44000,"Site Internet":null,"Téléphone":"02 40 69 22 32","Adresse":"2 Rue des Carmes","Commune":"NANTES","icon":"default"},"geometry":{"type":"Point","coordinates":[-1.55493738500246,47.2158407860167]}},{"type":"Feature","properties":{"title":"Espace Cosmopolis Nantes","Code postal":44000,"Site Internet":null,"Téléphone":"02 51 84 36 70","Adresse":"6 Rue Lekain","Commune":"NANTES","icon":"default"},"geometry":{"type":"Point","coordinates":[-1.56269838251326,47.2144380596107]}},{"type":"Feature","properties":{"title":"Musée des Beaux Arts , Chapelle de l'Oratoire","Code postal":44000,"Site Internet":null,"Téléphone":"02 40 41 65 60","Adresse":"13 Place de l'Oratoire","Commune":"NANTES","icon":"default"},"geometry":{"type":"Point","coordinates":[-1.54840356668365,47.219189959226]}},{"type":"Feature","properties":{"title":"Espace Culturel Sud Loire","Code postal":44200,"Site Internet":null,"Téléphone":"02 40 75 37 23","Adresse":"47 Rue Ledru Rollin","Commune":"NANTES","icon":"default"},"geometry":{"type":"Point","coordinates":[-1.53489101010816,47.1927011015964]}},{"type":"Feature","properties":{"title":"Bibliothèque Amicale Laïque St Joseph","Code postal":44300,"Site Internet":null,"Téléphone":"02 40 30 03 31","Adresse":"478 Route de Saint Joseph","Commune":"NANTES","icon":"default"},"geometry":{"type":"Point","coordinates":[-1.51941657072043,47.2691807209141]}},{"type":"Feature","properties":{"title":"Espace Lecture Malakoff","Code postal":44000,"Site Internet":"http://www.nantes.fr","Téléphone":"02 40 48 67 93","Adresse":"1 Boulevard de Berlin","Commune":"NANTES","icon":"default"},"geometry":{"type":"Point","coordinates":[-1.53034663465183,47.2140929788499]}},{"type":"Feature","properties":{"title":"Bibliothèque Centre Interculturel Documentation","Code postal":44200,"Site Internet":null,"Téléphone":"02 40 47 88 36","Adresse":"2B Boulevard Léon Bureau","Commune":"NANTES","icon":"default"},"geometry":{"type":"Point","coordinates":[-1.56533705597733,47.2059712817432]}},{"type":"Feature","properties":{"title":"Bibliothèque Centre Socioculturel des Ponts","Code postal":44200,"Site Internet":null,"Téléphone":"02 40 48 61 01","Adresse":"14 Rue Michel Rocher","Commune":"NANTES","icon":"default"},"geometry":{"type":"Point","coordinates":[-1.54984727743735,47.2062504071364]}},{"type":"Feature","properties":{"title":"Bibliothèque Espace Vittoria Clos Toreau","Code postal":44200,"Site Internet":null,"Téléphone":null,"Adresse":"Place du Pays Basque","Commune":"NANTES","icon":"default"},"geometry":{"type":"Point","coordinates":[-1.52789538883653,47.1952950728629]}},{"type":"Feature","properties":{"title":"Bibliothèque Centre Socioculturel Bellevue","Code postal":44100,"Site Internet":null,"Téléphone":"02 40 46 44 22","Adresse":"25 Rue du Jamet","Commune":"NANTES","icon":"default"},"geometry":{"type":"Point","coordinates":[-1.60546676709616,47.2078546426425]}},{"type":"Feature","properties":{"title":"Bibliothèque-Ludothèque Bout des Pavés","Code postal":44300,"Site Internet":"www.accoordnantes.info","Téléphone":"02 40 40 19 16","Adresse":"14 Rue de la Coulée","Commune":"NANTES","icon":"default"},"geometry":{"type":"Point","coordinates":[-1.57649854969961,47.2600650297949]}},{"type":"Feature","properties":{"title":"Bibliothèque Centre Socioculturel Bout des Landes","Code postal":44300,"Site Internet":null,"Téléphone":"02 40 76 15 52","Adresse":"12 Rue de Concarneau","Commune":"NANTES","icon":"default"},"geometry":{"type":"Point","coordinates":[-1.57831573156643,47.2658948173154]}},{"type":"Feature","properties":{"title":"Bibliothèque Centre Socioculturel Perray","Code postal":44300,"Site Internet":null,"Téléphone":"02 40 49 74 69","Adresse":"9 Rue Frédéric Mistral","Commune":"NANTES","icon":"default"},"geometry":{"type":"Point","coordinates":[-1.51265511845767,47.2472293104102]}},{"type":"Feature","properties":{"title":"Bibliothèque Port Boyer","Code postal":44300,"Site Internet":null,"Téléphone":"02 40 49 21 81","Adresse":"7 Rue de Pornichet","Commune":"NANTES","icon":"default"},"geometry":{"type":"Point","coordinates":[-1.54140903517677,47.2413386038884]}},{"type":"Feature","properties":{"title":"Bibliothèque pour Tous Siège Social Nantes","Code postal":44000,"Site Internet":null,"Téléphone":"02 40 47 71 80","Adresse":"1 Rue Mathelin Rodier","Commune":"NANTES","icon":"default"},"geometry":{"type":"Point","coordinates":[-1.55045863819617,47.2166731773127]}},{"type":"Feature","properties":{"title":"Bibliothèque pour Tous Beaulieu","Code postal":44200,"Site Internet":null,"Téléphone":"02 40 35 50 63","Adresse":"12 Rue Anatole de Monzie","Commune":"NANTES","icon":"default"},"geometry":{"type":"Point","coordinates":[-1.54172393393277,47.2034477919426]}},{"type":"Feature","properties":{"title":"Bibliothèque pour Tous Cacault","Code postal":44000,"Site Internet":null,"Téléphone":"02 40 20 46 76","Adresse":"12 Rue Cacault","Commune":"NANTES","icon":"default"},"geometry":{"type":"Point","coordinates":[-1.557756352266,47.2166287910994]}},{"type":"Feature","properties":{"title":"Bibliothèque pour Tous Viarme","Code postal":44000,"Site Internet":null,"Téléphone":null,"Adresse":"16 Rue Sarrazin","Commune":"NANTES","icon":"default"},"geometry":{"type":"Point","coordinates":[-1.56103744209922,47.2207621869366]}},{"type":"Feature","properties":{"title":"Bibliothèque pour Tous Joffre","Code postal":44000,"Site Internet":null,"Téléphone":null,"Adresse":"32 Rue Maréchal Joffre","Commune":"NANTES","icon":"default"},"geometry":{"type":"Point","coordinates":[-1.54745767216851,47.2218328040666]}},{"type":"Feature","properties":{"title":"Maison de la Marionnette Nantes","Code postal":44200,"Site Internet":"www.maison-marionnette-nantes.com","Téléphone":"02 40 48 70 19","Adresse":"Boulevard Général de Gaulle","Commune":"NANTES","icon":"default"},"geometry":{"type":"Point","coordinates":[-1.53669959717981,47.2045546396696]}},{"type":"Feature","properties":{"title":"Centre Culturel  Européen","Code postal":44000,"Site Internet":null,"Téléphone":"02 40 35 39 43","Adresse":"32 Rue Kervégan","Commune":"NANTES","icon":"default"},"geometry":{"type":"Point","coordinates":[-1.5571074758487,47.212361658854]}},{"type":"Feature","properties":{"title":"Bibliothèque Paul Eluard","Code postal":44800,"Site Internet":"www.saint-herblain.fr","Téléphone":"02 40 40 51 41","Adresse":"32 Avenue des Plantes","Commune":"ST-HERBLAIN","icon":"default"},"geometry":{"type":"Point","coordinates":[-1.58560851669432,47.2341388753086]}},{"type":"Feature","properties":{"title":"Bibliothèque René Guy Cadou","Code postal":44800,"Site Internet":"www.saint-herblain.fr","Téléphone":"02 40 63 19 46","Adresse":"2 Rue du Bois de Lagland","Commune":"ST-HERBLAIN","icon":"default"},"geometry":{"type":"Point","coordinates":[-1.63183437429987,47.2341104213822]}},{"type":"Feature","properties":{"title":"Médiathèque Gao-Xingjian","Code postal":44800,"Site Internet":"www.saint-herblain.fr","Téléphone":"02 28 25 25 50","Adresse":"17 Avenue de l'Angevinière","Commune":"ST-HERBLAIN","icon":"default"},"geometry":{"type":"Point","coordinates":[-1.60998364577518,47.2447215858757]}},{"type":"Feature","properties":{"title":"Bibliothèque Bourg","Code postal":44800,"Site Internet":"www.saint-herblain.fr","Téléphone":"02 28 25 25 28","Adresse":"126 Boulevard François Mitterrand","Commune":"ST-HERBLAIN","icon":"default"},"geometry":{"type":"Point","coordinates":[-1.64892903098575,47.2131452766502]}},{"type":"Feature","properties":{"title":"ONYX","Code postal":44800,"Site Internet":"www.onyx-culturel.org","Téléphone":"02 40 92 24 00","Adresse":"1 Place Océane","Commune":"ST-HERBLAIN","icon":"default"},"geometry":{"type":"Point","coordinates":[-1.62929419147205,47.2237998454043]}},{"type":"Feature","properties":{"title":"Cinéma Pathé Atlantis","Code postal":44800,"Site Internet":"www.cinemasgaumontpathe.com","Téléphone":"08 36 68 20 22","Adresse":"Allée la Pérouse","Commune":"ST-HERBLAIN","icon":"default"},"geometry":{"type":"Point","coordinates":[-1.62882299364379,47.2224263352114]}},{"type":"Feature","properties":{"title":"Cinéma UGC Ciné Cité Atlantis","Code postal":44800,"Site Internet":null,"Téléphone":"08 36 68 68 58","Adresse":"Place Jean Bart","Commune":"ST-HERBLAIN","icon":"default"},"geometry":{"type":"Point","coordinates":[-1.6274592800264,47.2237355946591]}},{"type":"Feature","properties":{"title":"Château de La Gobinière","Code postal":44700,"Site Internet":null,"Téléphone":"02 51 78 33 33","Adresse":"37 Avenue de la Ferrière","Commune":"ORVAULT","icon":"default"},"geometry":{"type":"Point","coordinates":[-1.58459143738672,47.2493700012729]}},{"type":"Feature","properties":{"title":"Ecole Municipale de Musique Orvault","Code postal":44700,"Site Internet":"www.orvault.fr","Téléphone":"02 51 78 33 34","Adresse":"37 Avenue de la Ferrière","Commune":"ORVAULT","icon":"default"},"geometry":{"type":"Point","coordinates":[-1.58514767871285,47.2485367764531]}},{"type":"Feature","properties":{"title":"Médiathèque Ormédo","Code postal":44700,"Site Internet":"ville.orvault.fr","Téléphone":"02 51 78 33 20","Adresse":"2 Promenade de l'Europe","Commune":"ORVAULT","icon":"default"},"geometry":{"type":"Point","coordinates":[-1.62560861221778,47.2723921863066]}},{"type":"Feature","properties":{"title":"Bibliothèque Municipale de la Bugallière","Code postal":44700,"Site Internet":null,"Téléphone":"02 40 63 54 88","Adresse":"Rue du Pont Marchand","Commune":"ORVAULT","icon":"default"},"geometry":{"type":"Point","coordinates":[-1.63249680344468,47.2612822573967]}},{"type":"Feature","properties":{"title":"Bibliotheque Plaisance","Code postal":44700,"Site Internet":null,"Téléphone":"02 40 76 94 47","Adresse":"Avenue de l'Ille","Commune":"ORVAULT","icon":"default"},"geometry":{"type":"Point","coordinates":[-1.59012951574918,47.2402194261189]}},{"type":"Feature","properties":{"title":"Bibliothèque Ferme Poisson","Code postal":44700,"Site Internet":null,"Téléphone":"02 40 94 93 91","Adresse":"2 Chemin des Matines","Commune":"ORVAULT","icon":"default"},"geometry":{"type":"Point","coordinates":[-1.59855992156443,47.2686766172978]}},{"type":"Feature","properties":{"title":"Cinéma Lutétia","Code postal":44800,"Site Internet":null,"Téléphone":"02 51 80 03 54","Adresse":"18 Rue des Calvaires","Commune":"ST-HERBLAIN","icon":"default"},"geometry":{"type":"Point","coordinates":[-1.64975701773931,47.2140921362234]}},{"type":"Feature","properties":{"title":"Médiathèque Saint Sébastien","Code postal":44230,"Site Internet":null,"Téléphone":"02 40 80 86 20","Adresse":"10 Rue Jean Macé","Commune":"ST-SEBASTIEN","icon":"default"},"geometry":{"type":"Point","coordinates":[-1.50579049134169,47.2056228923034]}},{"type":"Feature","properties":{"title":"Salle Polyvalente Escall","Code postal":44230,"Site Internet":"http://www.saintsebastien.fr/","Téléphone":"02 40 03 34 11","Adresse":"Rue des Berlaguts","Commune":"ST-SEBASTIEN","icon":"default"},"geometry":{"type":"Point","coordinates":[-1.50352169080196,47.2000377854141]}},{"type":"Feature","properties":{"title":"Ecole de Musique Municipale","Code postal":44230,"Site Internet":null,"Téléphone":"02 51 79 04 71","Adresse":"130 Boulevard des Pas Enchantés","Commune":"ST-SEBASTIEN","icon":"default"},"geometry":{"type":"Point","coordinates":[-1.50084599286357,47.2100173804418]}},{"type":"Feature","properties":{"title":"Médiathèque Condorcet","Code postal":44340,"Site Internet":"www.ville-bouguenais.fr","Téléphone":"02 40 32 04 54","Adresse":"Rue Pablo Neruda","Commune":"BOUGUENAIS","icon":"default"},"geometry":{"type":"Point","coordinates":[-1.62227289753155,47.1704056799218]}},{"type":"Feature","properties":{"title":"Cinéma Le Beaulieu","Code postal":44340,"Site Internet":"www.cinemalebeaulieu.com","Téléphone":"02 40 26 96 66","Adresse":"26 Rue de Beaulieu","Commune":"BOUGUENAIS","icon":"default"},"geometry":{"type":"Point","coordinates":[-1.62520551865685,47.1784208628279]}},{"type":"Feature","properties":{"title":"Salle Piano'cktail","Code postal":44340,"Site Internet":"www.pianocktail-bouguenais.fr","Téléphone":"02 40 65 05 25","Adresse":"Rue Ginsheim Gustavsburg","Commune":"BOUGUENAIS","icon":"default"},"geometry":{"type":"Point","coordinates":[-1.60671855464069,47.1739079850385]}},{"type":"Feature","properties":{"title":"Ludothèque de la Bernardière","Code postal":44800,"Site Internet":null,"Téléphone":"02 28 25 22 93","Adresse":"11 Rue de Dijon","Commune":"ST-HERBLAIN","icon":"default"},"geometry":{"type":"Point","coordinates":[-1.61536244010049,47.2061235855585]}},{"type":"Feature","properties":{"title":"Bibliothèque Adèle'H","Code postal":44800,"Site Internet":"www.saint-herblain.fr","Téléphone":"02 40 46 75 45","Adresse":"42 Rue de la Blanche","Commune":"ST-HERBLAIN","icon":"default"},"geometry":{"type":"Point","coordinates":[-1.60962337349937,47.2194193852865]}},{"type":"Feature","properties":{"title":"Maison des Arts - Bibliothèque de Bellevue","Code postal":44800,"Site Internet":"www.saint-herblain.fr","Téléphone":"02 28 25 25 52","Adresse":"26 Rue de Saint Nazaire","Commune":"ST-HERBLAIN","icon":"default"},"geometry":{"type":"Point","coordinates":[-1.61507176910317,47.212058459481]}},{"type":"Feature","properties":{"title":"Maison des Arts - Ecole de Musique","Code postal":44800,"Site Internet":"www.saint-herblain.fr","Téléphone":"02 40 43 30 56","Adresse":"26 Rue de Saint Nazaire","Commune":"ST-HERBLAIN","icon":"default"},"geometry":{"type":"Point","coordinates":[-1.61478480933927,47.2118456412122]}},{"type":"Feature","properties":{"title":"Maison Richy Ludothèque","Code postal":44340,"Site Internet":null,"Téléphone":"02 40 65 05 98","Adresse":"Chemin du Chatelier","Commune":"BOUGUENAIS","icon":"default"},"geometry":{"type":"Point","coordinates":[-1.59398169130441,47.1844152819879]}},{"type":"Feature","properties":{"title":"Château de La Gournerie","Code postal":44800,"Site Internet":"www.chateaudelagournerie.com/","Téléphone":"02 51 86 33 03","Adresse":"Allée du Château","Commune":"ST-HERBLAIN","icon":"default"},"geometry":{"type":"Point","coordinates":[-1.63770656446967,47.2459605067508]}},{"type":"Feature","properties":{"title":"Bibliothèque Sonore","Code postal":44000,"Site Internet":null,"Téléphone":"02 40 73 48 44","Adresse":"24 Quai de la Fosse","Commune":"NANTES","icon":"default"},"geometry":{"type":"Point","coordinates":[-1.56223602543876,47.2112867070039]}},{"type":"Feature","properties":{"title":"Musée de la Poste","Code postal":44000,"Site Internet":null,"Téléphone":"02 51 83 37 12","Adresse":"2B Rue Président Edouard Herriot","Commune":"NANTES","icon":"default"},"geometry":{"type":"Point","coordinates":[-1.55932815234466,47.2182559926331]}},{"type":"Feature","properties":{"title":"Musée de la Machine à Coudre","Code postal":44000,"Site Internet":null,"Téléphone":"02 40 93 31 35","Adresse":"33 Rue Gambetta","Commune":"NANTES","icon":"default"},"geometry":{"type":"Point","coordinates":[-1.5467944767141,47.2200923439032]}},{"type":"Feature","properties":{"title":"Fonds Régional d'Art Contemporain des Pays de la Loire","Code postal":44470,"Site Internet":"www.fracdespaysdelaloire.com","Téléphone":"02 28 01 50 00","Adresse":"Boulevard Ampère","Commune":"CARQUEFOU","icon":"default"},"geometry":{"type":"Point","coordinates":[-1.50420241835899,47.3003926346916]}},{"type":"Feature","properties":{"title":"Château de La Sénaigerie","Code postal":44830,"Site Internet":null,"Téléphone":"02 40 65 53 55","Adresse":"Rue de la Sénaigerie","Commune":"BOUAYE","icon":"default"},"geometry":{"type":"Point","coordinates":[-1.67959714167262,47.1357846424645]}},{"type":"Feature","properties":{"title":"Château de l'Epinay","Code postal":44470,"Site Internet":null,"Téléphone":null,"Adresse":"Boulevard de l'Epinay","Commune":"CARQUEFOU","icon":"default"},"geometry":{"type":"Point","coordinates":[-1.490320513165,47.2877416948916]}},{"type":"Feature","properties":{"title":"Espace culturel et associatif de la Tour à Plomb","Code postal":44220,"Site Internet":null,"Téléphone":"02 40 38 51 87","Adresse":"Quai Emile Paraf","Commune":"COUERON","icon":"default"},"geometry":{"type":"Point","coordinates":[-1.72032262867165,47.2092211127536]}},{"type":"Feature","properties":{"title":"Ecluse de la Martinière","Code postal":44640,"Site Internet":"www.ville-lepellerin.fr","Téléphone":"02 40 04 65 21","Adresse":"Rue du Canal","Commune":"LE-PELLERIN","icon":"default"},"geometry":{"type":"Point","coordinates":[-1.78563401553307,47.2075711555562]}},{"type":"Feature","properties":{"title":"Château de La Tour","Code postal":44700,"Site Internet":null,"Téléphone":"02 51 78 31 00","Adresse":"3 Allée de la Tour","Commune":"ORVAULT","icon":"default"},"geometry":{"type":"Point","coordinates":[-1.62592948592067,47.2880752596272]}},{"type":"Feature","properties":{"title":"Le Grand Calvaire Orvault","Code postal":44700,"Site Internet":null,"Téléphone":null,"Adresse":"Rue Hubert De la Brosse","Commune":"ORVAULT","icon":"default"},"geometry":{"type":"Point","coordinates":[-1.62034778030377,47.2719783532671]}},{"type":"Feature","properties":{"title":"Lavoir Orvault","Code postal":44700,"Site Internet":null,"Téléphone":"02 51 78 31 01","Adresse":"Chemin du Lavoir","Commune":"ORVAULT","icon":"default"},"geometry":{"type":"Point","coordinates":[-1.62208651987728,47.2721604581729]}},{"type":"Feature","properties":{"title":"La Maison Radieuse Le Corbusier","Code postal":44400,"Site Internet":"www.mairie-reze.fr","Téléphone":"02 40 84 43 00","Adresse":"Boulevard Le Corbusier","Commune":"REZE","icon":"default"},"geometry":{"type":"Point","coordinates":[-1.56830802491117,47.1888248587605]}},{"type":"Feature","properties":{"title":"Château de La Plinguetière","Code postal":44860,"Site Internet":"www.plinguetiere.fr/","Téléphone":"02 40 02 16 42","Adresse":"Route de la Noue","Commune":"SAINT-AIGNAN-GRANDLIEU","icon":"default"},"geometry":{"type":"Point","coordinates":[-1.61348221507459,47.1316557621675]}},{"type":"Feature","properties":{"title":"Ecluse sur l'Acheneau Bouaye","Code postal":44830,"Site Internet":null,"Téléphone":"02 40 65 53 55","Adresse":"RD 264","Commune":"BOUAYE","icon":"default"},"geometry":{"type":"Point","coordinates":[-1.69837255040031,47.1325149415749]}},{"type":"Feature","properties":{"title":"Site Gallo Romain Saint Lupien","Code postal":44400,"Site Internet":null,"Téléphone":null,"Adresse":"Chemin Saint Lupien","Commune":"REZE","icon":"default"},"geometry":{"type":"Point","coordinates":[-1.56495187026781,47.1916056918013]}},{"type":"Feature","properties":{"title":"Le Haut Moulin Saint léger les Vignes","Code postal":44710,"Site Internet":null,"Téléphone":"02 40 31 50 32","Adresse":"16 Rue de Nantes","Commune":"SAINT-LEGER-LES-VIGNES","icon":"default"},"geometry":{"type":"Point","coordinates":[-1.72701145324576,47.136073734015]}},{"type":"Feature","properties":{"title":"Théâtre Boris Vian","Code postal":44220,"Site Internet":null,"Téléphone":"02 40 38 58 80","Adresse":"Rue Edmond Rostand","Commune":"COUERON","icon":"default"},"geometry":{"type":"Point","coordinates":[-1.73080571399242,47.2160486641888]}},{"type":"Feature","properties":{"title":"Maison des Arts","Code postal":44640,"Site Internet":"www.ville-lepellerin.fr","Téléphone":"02 40 97 36 27","Adresse":"12 Rue du Château","Commune":"LE-PELLERIN","icon":"default"},"geometry":{"type":"Point","coordinates":[-1.75525575279786,47.2022146995264]}},{"type":"Feature","properties":{"title":"Médiathèque Yves et Raymond Gaudin","Code postal":44620,"Site Internet":"www.ville-lamontagne.fr","Téléphone":"02 40 65 66 24","Adresse":"92 Rue Violin","Commune":"LA-MONTAGNE","icon":"default"},"geometry":{"type":"Point","coordinates":[-1.68511273365434,47.191590534329]}},{"type":"Feature","properties":{"title":"Maison de la Musique La Montagne","Code postal":44620,"Site Internet":null,"Téléphone":"02 40 65 65 63","Adresse":"92 Rue Violin","Commune":"LA-MONTAGNE","icon":"default"},"geometry":{"type":"Point","coordinates":[-1.6850016507647,47.1913361642607]}},{"type":"Feature","properties":{"title":"Cinéma Le Montagnard","Code postal":44620,"Site Internet":null,"Téléphone":"02 40 65 70 02","Adresse":"Place Similien Guérin","Commune":"LA-MONTAGNE","icon":"default"},"geometry":{"type":"Point","coordinates":[-1.68295516384421,47.1881106262977]}},{"type":"Feature","properties":{"title":"Salle culturelle Le Vallon","Code postal":44470,"Site Internet":"www.mauvessurloire.fr","Téléphone":"02 40 25 50 36","Adresse":"1 Avenue de Bretagne","Commune":"MAUVES-SUR-LOIRE","icon":"default"},"geometry":{"type":"Point","coordinates":[-1.39626673060937,47.2993893925323]}},{"type":"Feature","properties":{"title":"Bibliothèque Mauves sur Loire","Code postal":44470,"Site Internet":null,"Téléphone":"02 40 25 05 63","Adresse":"15 Rue du Cellier","Commune":"MAUVES-SUR-LOIRE","icon":"default"},"geometry":{"type":"Point","coordinates":[-1.39258766768554,47.2970772754026]}},{"type":"Feature","properties":{"title":"Maison de la Musique Sinfonia","Code postal":44980,"Site Internet":null,"Téléphone":"02 40 25 90 92","Adresse":"Allée des Arts","Commune":"SAINTE-LUCE-SUR-LOIRE","icon":"default"},"geometry":{"type":"Point","coordinates":[-1.48455170216345,47.2470474609297]}},{"type":"Feature","properties":{"title":"Manoir de La Bégraisière","Code postal":44800,"Site Internet":null,"Téléphone":null,"Adresse":"Rue François Rabelais","Commune":"ST-HERBLAIN","icon":"default"},"geometry":{"type":"Point","coordinates":[-1.61472309824259,47.2318249148958]}},{"type":"Feature","properties":{"title":"Ligéria","Code postal":44980,"Site Internet":null,"Téléphone":"02 40 68 16 39","Adresse":"80 Rue de la Loire","Commune":"SAINTE-LUCE-SUR-LOIRE","icon":"default"},"geometry":{"type":"Point","coordinates":[-1.48377949837747,47.2431673438295]}},{"type":"Feature","properties":{"title":"Château de la Desnerie","Code postal":44240,"Site Internet":null,"Téléphone":null,"Adresse":"VC 5","Commune":"LA-CHAPELLE-SUR-ERDRE","icon":"default"},"geometry":{"type":"Point","coordinates":[-1.5353191178454,47.272647514389]}},{"type":"Feature","properties":{"title":"Château de La Poterie","Code postal":44240,"Site Internet":null,"Téléphone":null,"Adresse":"Rue de Cotalard","Commune":"LA-CHAPELLE-SUR-ERDRE","icon":"default"},"geometry":{"type":"Point","coordinates":[-1.53008389691327,47.2833984225704]}},{"type":"Feature","properties":{"title":"Château de La Gascherie","Code postal":44240,"Site Internet":null,"Téléphone":null,"Adresse":"Rue de l'Erdre","Commune":"LA-CHAPELLE-SUR-ERDRE","icon":"default"},"geometry":{"type":"Point","coordinates":[-1.53489659610485,47.2978113901198]}},{"type":"Feature","properties":{"title":"Bibliothèque Municipale Sautron","Code postal":44880,"Site Internet":null,"Téléphone":"02 40 63 52 21","Adresse":"33 Rue de la Vallée","Commune":"SAUTRON","icon":"default"},"geometry":{"type":"Point","coordinates":[-1.67328151811001,47.2646194929585]}},{"type":"Feature","properties":{"title":"Ecluse de la Chaussée des Moines","Code postal":44120,"Site Internet":null,"Téléphone":null,"Adresse":"Quai de la Chaussée des Moines","Commune":"VERTOU","icon":"default"},"geometry":{"type":"Point","coordinates":[-1.48087164867207,47.1681517646949]}},{"type":"Feature","properties":{"title":"Centre d'Expression et de Créativité du Moulin Gautron","Code postal":44120,"Site Internet":"www.cec-moulingautron.com/","Téléphone":"02 40 80 31 59","Adresse":"9 Rue de l'Industrie","Commune":"VERTOU","icon":"default"},"geometry":{"type":"Point","coordinates":[-1.4822276528803,47.1664653683053]}},{"type":"Feature","properties":{"title":"Pont Métallique de Mauves sur Loire","Code postal":44470,"Site Internet":null,"Téléphone":null,"Adresse":"RD 31","Commune":"MAUVES-SUR-LOIRE","icon":"default"},"geometry":{"type":"Point","coordinates":[-1.38298814669462,47.2941632685157]}},{"type":"Feature","properties":{"title":"Musée Le Temps qui Passe","Code postal":44470,"Site Internet":"www.letempsquipasse44.fr","Téléphone":"02 40 52 79 30","Adresse":"Allée des Renaudières","Commune":"CARQUEFOU","icon":"default"},"geometry":{"type":"Point","coordinates":[-1.51284535152646,47.3001603303566]}},{"type":"Feature","properties":{"title":"Tour de l'Ancienne Usine Lu","Code postal":44000,"Site Internet":null,"Téléphone":null,"Adresse":"Quai Malakoff","Commune":"NANTES","icon":"default"},"geometry":{"type":"Point","coordinates":[-1.54619553374149,47.2154470156904]}},{"type":"Feature","properties":{"title":"Château de La Fleuriaye","Code postal":44470,"Site Internet":null,"Téléphone":null,"Adresse":"Boulevard Ampère","Commune":"CARQUEFOU","icon":"default"},"geometry":{"type":"Point","coordinates":[-1.50526815231197,47.3012481661298]}},{"type":"Feature","properties":{"title":"Château de Maubreuil","Code postal":44470,"Site Internet":null,"Téléphone":null,"Adresse":"Chemin des Gruellières","Commune":"CARQUEFOU","icon":"default"},"geometry":{"type":"Point","coordinates":[-1.46521759864494,47.2972725999773]}},{"type":"Feature","properties":{"title":"Château de La Chantrerie","Code postal":44300,"Site Internet":null,"Téléphone":null,"Adresse":"95 Route de Gachet","Commune":"NANTES","icon":"default"},"geometry":{"type":"Point","coordinates":[-1.52604103317562,47.2875479874774]}},{"type":"Feature","properties":{"title":"Bibliothèque Sorinières","Code postal":44840,"Site Internet":null,"Téléphone":"02 40 04 48 92","Adresse":"35 Rue des Ecoles","Commune":"LES-SORINIERES","icon":"default"},"geometry":{"type":"Point","coordinates":[-1.52713237454125,47.1498501471191]}},{"type":"Feature","properties":{"title":"Médiathèque René Guy Cadou","Code postal":44115,"Site Internet":"mediatheque.basse-goulaine.fr","Téléphone":"02 40 06 00 22","Adresse":"Place de la Chantrie","Commune":"BASSE-GOULAINE","icon":"default"},"geometry":{"type":"Point","coordinates":[-1.46586532428602,47.2162824752022]}},{"type":"Feature","properties":{"title":"Libre Cour, la Bibliothèque municipale de Vertou","Code postal":44120,"Site Internet":"www.vertou.fr","Téléphone":"02 40 34 88 87","Adresse":"Rue Henri Charpentier","Commune":"VERTOU","icon":"default"},"geometry":{"type":"Point","coordinates":[-1.47161089554658,47.1688730884165]}},{"type":"Feature","properties":{"title":"Bibliothèque Municipale L'Expression Plurielle","Code postal":44470,"Site Internet":"www.thouare.fr","Téléphone":"02 51 85 90 60","Adresse":"23 Rue de Mauves","Commune":"THOUARE-SUR-LOIRE","icon":"default"},"geometry":{"type":"Point","coordinates":[-1.43793333570146,47.2691010877196]}},{"type":"Feature","properties":{"title":"Bibliothèque Municipale Indre","Code postal":44610,"Site Internet":null,"Téléphone":"02 40 85 46 16","Adresse":"2 Rue du Stade","Commune":"INDRE","icon":"default"},"geometry":{"type":"Point","coordinates":[-1.67197064820556,47.2004520040083]}},{"type":"Feature","properties":{"title":"Bibliothèque Municipale Victor Jara","Code postal":44220,"Site Internet":null,"Téléphone":"02 40 38 38 38","Adresse":"13 Quai Gambetta","Commune":"COUERON","icon":"default"},"geometry":{"type":"Point","coordinates":[-1.72869180152585,47.2096877201832]}},{"type":"Feature","properties":{"title":"Médiathèque Hélène Carrère d'Encausse","Code postal":44470,"Site Internet":"www.mediatheque-carquefou.fr","Téléphone":"02 28 22 24 00","Adresse":"22 Rue André Maurois","Commune":"CARQUEFOU","icon":"default"},"geometry":{"type":"Point","coordinates":[-1.49094600055566,47.2956142243852]}},{"type":"Feature","properties":{"title":"Médiathèque \"Le jardin de Lecture\"","Code postal":44860,"Site Internet":"www.saint-aignan-grandlieu.fr","Téléphone":"02 40 26 44 55","Adresse":"39 Rue des Frères Rousseau","Commune":"SAINT-AIGNAN-GRANDLIEU","icon":"default"},"geometry":{"type":"Point","coordinates":[-1.63049335481537,47.1237718074099]}},{"type":"Feature","properties":{"title":"Bibliothèque de la Chapelaine","Code postal":44240,"Site Internet":"www.lachapelaine.org","Téléphone":"02 40 72 57 70","Adresse":"6 Rue de Sucé","Commune":"LA-CHAPELLE-SUR-ERDRE","icon":"default"},"geometry":{"type":"Point","coordinates":[-1.54838382543362,47.3012762047978]}},{"type":"Feature","properties":{"title":"Bibliothèque Municipale","Code postal":44240,"Site Internet":"www.lachapellesurerdre.fr","Téléphone":"02 40 77 89 91","Adresse":"4 Place Dominique Savelli","Commune":"LA-CHAPELLE-SUR-ERDRE","icon":"default"},"geometry":{"type":"Point","coordinates":[-1.55035601742496,47.2959223405337]}},{"type":"Feature","properties":{"title":"Médiathèque Espace Diderot","Code postal":44400,"Site Internet":null,"Téléphone":"02 40 04 05 37","Adresse":"1 Place Lucien Le Meut","Commune":"REZE","icon":"default"},"geometry":{"type":"Point","coordinates":[-1.56260850295799,47.1837730676806]}},{"type":"Feature","properties":{"title":"Bibliothèque Municipale La Noëlle","Code postal":44400,"Site Internet":null,"Téléphone":"02 40 04 05 49","Adresse":"6 Square Emile Blandin","Commune":"REZE","icon":"default"},"geometry":{"type":"Point","coordinates":[-1.53444508100221,47.1765051398139]}},{"type":"Feature","properties":{"title":"Médiathèque municipale de Bouaye","Code postal":44830,"Site Internet":null,"Téléphone":"02 40 32 63 03","Adresse":"Place du Marché","Commune":"BOUAYE","icon":"default"},"geometry":{"type":"Point","coordinates":[-1.68829059823159,47.1417578195531]}},{"type":"Feature","properties":{"title":"Bibliothèque Brains","Code postal":44830,"Site Internet":null,"Téléphone":"02 40 65 54 40","Adresse":"1 Rue des Clos Mâts","Commune":"BRAINS","icon":"default"},"geometry":{"type":"Point","coordinates":[-1.72057628677274,47.1682494589477]}},{"type":"Feature","properties":{"title":"Médiathèque Edmond Bertreux","Code postal":44640,"Site Internet":"www.mediatheque-saintjeandeboiseau.net","Téléphone":"02 40 32 97 31","Adresse":"Rue du Quatorze Juillet","Commune":"SAINT-JEAN-DE-BOISEAU","icon":"default"},"geometry":{"type":"Point","coordinates":[-1.723712910581,47.1941504161258]}},{"type":"Feature","properties":{"title":"Bibliothèque Jardin des Livres","Code postal":44710,"Site Internet":null,"Téléphone":"02 40 34 97 11","Adresse":"6 Rue de Nantes","Commune":"SAINT-LEGER-LES-VIGNES","icon":"default"},"geometry":{"type":"Point","coordinates":[-1.73027203066679,47.1359640548592]}},{"type":"Feature","properties":{"title":"TNT - Terrain Neutre Théâtre","Code postal":44000,"Site Internet":"http://www.tntheatre.com","Téléphone":"02 40 12 12 28","Adresse":"11 Allée de la Maison Rouge","Commune":"NANTES","icon":"default"},"geometry":{"type":"Point","coordinates":[-1.55213845210025,47.2124437577047]}},{"type":"Feature","properties":{"title":"Théâtre du Sphinx","Code postal":44000,"Site Internet":null,"Téléphone":"02 40 89 19 09","Adresse":"9 Rue Monteil","Commune":"NANTES","icon":"default"},"geometry":{"type":"Point","coordinates":[-1.54791689937586,47.2136054959909]}},{"type":"Feature","properties":{"title":"Ludothèque René Goscinny","Code postal":44980,"Site Internet":"http://mediatheque.sainte-luce-loire.com","Téléphone":"02 40 68 16 54","Adresse":"Mail de l'Europe","Commune":"SAINTE-LUCE-SUR-LOIRE","icon":"default"},"geometry":{"type":"Point","coordinates":[-1.4820646121046,47.2481641188118]}},{"type":"Feature","properties":{"title":"Ludothèque Soleil Levant","Code postal":44800,"Site Internet":"www.saint-herblain.fr/","Téléphone":"02 28 03 57 86","Adresse":"38 Rue de la Blanche","Commune":"ST-HERBLAIN","icon":"default"},"geometry":{"type":"Point","coordinates":[-1.60947895859548,47.2195711448006]}},{"type":"Feature","properties":{"title":"Ludothèque Sillon","Code postal":44800,"Site Internet":null,"Téléphone":"02 28 25 25 50","Adresse":"17 Avenue de l'Angevinière","Commune":"ST-HERBLAIN","icon":"default"},"geometry":{"type":"Point","coordinates":[-1.6099702472927,47.2445722574965]}},{"type":"Feature","properties":{"title":"Espace Phelippes Beaulieux","Code postal":44880,"Site Internet":"www.sautron.fr","Téléphone":"02 40 94 80 01","Adresse":"21 Rue de la Forêt","Commune":"SAUTRON","icon":"default"},"geometry":{"type":"Point","coordinates":[-1.67837707548363,47.2650685432423]}},{"type":"Feature","properties":{"title":"Bibliothèque Nationale de Bretagne Ker Arvor","Code postal":44000,"Site Internet":null,"Téléphone":"02 40 29 01 91","Adresse":"15 Avenue Chanzy","Commune":"NANTES","icon":"default"},"geometry":{"type":"Point","coordinates":[-1.54750790399443,47.2249564556057]}},{"type":"Feature","properties":{"title":"Bibliothèque pour tous","Code postal":44100,"Site Internet":null,"Téléphone":"02 40 43 57 55","Adresse":"76 Rue Edgar Quinet","Commune":"NANTES","icon":"default"},"geometry":{"type":"Point","coordinates":[-1.58560800433743,47.2148277125186]}},{"type":"Feature","properties":{"title":"Bibliothèque Nantes","Code postal":44300,"Site Internet":null,"Téléphone":"02 40 76 80 90","Adresse":"96 Boulevard Robert Schuman","Commune":"NANTES","icon":"default"},"geometry":{"type":"Point","coordinates":[-1.57013489322421,47.2383482515292]}},{"type":"Feature","properties":{"title":"Maison des Jeunes et de la Culture Barakason","Code postal":44400,"Site Internet":null,"Téléphone":"02 40 75 57 28","Adresse":"Allée du Dauphiné","Commune":"REZE","icon":"default"},"geometry":{"type":"Point","coordinates":[-1.55760575280661,47.1861759064261]}},{"type":"Feature","properties":{"title":"Halle de La Trocardière","Code postal":44400,"Site Internet":"http://www.nge-nantes.fr/","Téléphone":"02 51 70 30 40","Adresse":"Rue de la Trocardière","Commune":"REZE","icon":"default"},"geometry":{"type":"Point","coordinates":[-1.57240928495203,47.1814882110892]}},{"type":"Feature","properties":{"title":"Salle La Bouche d'Air","Code postal":44000,"Site Internet":null,"Téléphone":"02 40 73 40 20","Adresse":"24 Quai de la Fosse","Commune":"NANTES","icon":"default"},"geometry":{"type":"Point","coordinates":[-1.56240748866587,47.2109876432402]}},{"type":"Feature","properties":{"title":"Cinéma Vaillant","Code postal":44120,"Site Internet":"www.cinevaillant.com","Téléphone":"02 40 34 49 10","Adresse":"12 Rue du Général De Gaulle","Commune":"VERTOU","icon":"default"},"geometry":{"type":"Point","coordinates":[-1.46961963740253,47.1672461425126]}},{"type":"Feature","properties":{"title":"Espace Culturel Capellia","Code postal":44240,"Site Internet":"www.capellia.fr","Téléphone":"02 40 72 09 01","Adresse":"Chemin de Roche Blanche","Commune":"LA-CHAPELLE-SUR-ERDRE","icon":"default"},"geometry":{"type":"Point","coordinates":[-1.5579643133774,47.2792596003889]}},{"type":"Feature","properties":{"title":"Espace Culturel et de Loisirs de La Fleuriaye","Code postal":44470,"Site Internet":null,"Téléphone":"02 28 22 24 24","Adresse":"Boulevard Ampère","Commune":"CARQUEFOU","icon":"default"},"geometry":{"type":"Point","coordinates":[-1.50124665131724,47.2997932177101]}},{"type":"Feature","properties":{"title":"Centre Musical de La Balinière","Code postal":44400,"Site Internet":null,"Téléphone":"02 51 70 78 10","Adresse":"24 Rue de la Balinière","Commune":"REZE","icon":"default"},"geometry":{"type":"Point","coordinates":[-1.55266822482743,47.1832100143525]}},{"type":"Feature","properties":{"title":"Médiathèque Hermeland","Code postal":44800,"Site Internet":"www.la-bibliotheque.com","Téléphone":"02 28 25 25 25","Adresse":"Rue François Rabelais","Commune":"ST-HERBLAIN","icon":"default"},"geometry":{"type":"Point","coordinates":[-1.61642299205559,47.2310356290076]}},{"type":"Feature","properties":{"title":"Cinéma Saint Paul","Code postal":44400,"Site Internet":null,"Téléphone":null,"Adresse":"38 Rue Julien Douillard","Commune":"REZE","icon":"default"},"geometry":{"type":"Point","coordinates":[-1.54454649816709,47.1839198510737]}},{"type":"Feature","properties":{"title":"Théâtre Municipal de Rezé","Code postal":44400,"Site Internet":null,"Téléphone":null,"Adresse":"Rue Guy Le Lan","Commune":"REZE","icon":"default"},"geometry":{"type":"Point","coordinates":[-1.5453304732532,47.1866058457477]}},{"type":"Feature","properties":{"title":"Salle Baptiste Marcet","Code postal":44340,"Site Internet":"www.ville-bouguenais.fr","Téléphone":"02 40 65 38 23","Adresse":"2 Rue Célestin Freinet","Commune":"BOUGUENAIS","icon":"default"},"geometry":{"type":"Point","coordinates":[-1.58839573769331,47.1813316609547]}},{"type":"Feature","properties":{"title":"Ecole de Musique et de Danse","Code postal":44120,"Site Internet":"www.emd-vertou.fr","Téléphone":"02 40 03 45 05","Adresse":"1 Rue Henri Charpentier","Commune":"VERTOU","icon":"default"},"geometry":{"type":"Point","coordinates":[-1.47248060739247,47.1686879761214]}},{"type":"Feature","properties":{"title":"Ludothèque de la Fontaine","Code postal":44230,"Site Internet":"http://www.saintseb.fr","Téléphone":"02 40 34 34 14","Adresse":"11 Rue du Languedoc","Commune":"ST-SEBASTIEN","icon":"default"},"geometry":{"type":"Point","coordinates":[-1.48794365210351,47.2038394244849]}},{"type":"Feature","properties":{"title":"Maison de l'Enfance - Ludothèque Carquefou","Code postal":44470,"Site Internet":null,"Téléphone":"02 28 22 20 68","Adresse":"Avenue des Argonautes","Commune":"CARQUEFOU","icon":"default"},"geometry":{"type":"Point","coordinates":[-1.48477962344076,47.2975748121882]}},{"type":"Feature","properties":{"title":"Ecole de Musique muncipal","Code postal":44470,"Site Internet":"www.carquefou.fr","Téléphone":"02 28 22 24 10","Adresse":"Allée des Renaudières","Commune":"CARQUEFOU","icon":"default"},"geometry":{"type":"Point","coordinates":[-1.51340668820858,47.3004779081493]}},{"type":"Feature","properties":{"title":"Ecole de Musique Point d'orgue","Code postal":44115,"Site Internet":"www.basse-goulaine.fr","Téléphone":"02 40 03 51 58","Adresse":"Square de Theley","Commune":"BASSE-GOULAINE","icon":"default"},"geometry":{"type":"Point","coordinates":[-1.46393073377844,47.2183942223093]}},{"type":"Feature","properties":{"title":"Ecole de Musique La Chapelle sur Erdre","Code postal":44240,"Site Internet":null,"Téléphone":"02 40 29 72 94","Adresse":"Rue Léo Lagrange","Commune":"LA-CHAPELLE-SUR-ERDRE","icon":"default"},"geometry":{"type":"Point","coordinates":[-1.55573662718025,47.2973079105011]}},{"type":"Feature","properties":{"title":"Ecole Boscéenne de Musique et de Danse","Code postal":44830,"Site Internet":null,"Téléphone":"02 51 70 52 70","Adresse":"Rue du Stade","Commune":"BOUAYE","icon":"default"},"geometry":{"type":"Point","coordinates":[-1.69630115227065,47.1487620212862]}},{"type":"Feature","properties":{"title":"Centre Culturel de la Gobinière - Théâtre de la Gobinière, Le Pigeonnier et le H","Code postal":44700,"Site Internet":"www.orvault.fr","Téléphone":"02 51 78 33 33","Adresse":"37 Avenue de la Ferrière","Commune":"ORVAULT","icon":"default"},"geometry":{"type":"Point","coordinates":[-1.58553836904515,47.249412740859]}},{"type":"Feature","properties":{"title":"Ecluse Barrage de Buray","Code postal":44640,"Site Internet":null,"Téléphone":null,"Adresse":"Voie Non Dénommée 1201725","Commune":"LE-PELLERIN","icon":"default"},"geometry":{"type":"Point","coordinates":[-1.82703331875962,47.2102559254532]}},{"type":"Feature","properties":{"title":"Espace Culturel Chai Gallais","Code postal":44710,"Site Internet":null,"Téléphone":"02 28 01 18 25","Adresse":"2 Rue de la Haute Galerie","Commune":"SAINT-LEGER-LES-VIGNES","icon":"default"},"geometry":{"type":"Point","coordinates":[-1.72131838622686,47.1366769037826]}},{"type":"Feature","properties":{"title":"Château du Chassay","Code postal":44980,"Site Internet":null,"Téléphone":null,"Adresse":"Mail de l'Europe","Commune":"SAINTE-LUCE-SUR-LOIRE","icon":"default"},"geometry":{"type":"Point","coordinates":[-1.48357422735611,47.2479022100639]}},{"type":"Feature","properties":{"title":"Pigeonnier du Château de Thouaré","Code postal":44470,"Site Internet":null,"Téléphone":null,"Adresse":"Rue de la Saulzaie","Commune":"THOUARE-SUR-LOIRE","icon":"default"},"geometry":{"type":"Point","coordinates":[-1.44398407811208,47.2611456024586]}},{"type":"Feature","properties":{"title":"Salle l'Odyssée","Code postal":44700,"Site Internet":"www.odyssee.orvault.fr","Téléphone":"02 51 78 37 50","Adresse":"1 Route de Basse Indre","Commune":"ORVAULT","icon":"default"},"geometry":{"type":"Point","coordinates":[-1.62262235276121,47.2613100312124]}},{"type":"Feature","properties":{"title":"Le Labo 188","Code postal":44300,"Site Internet":null,"Téléphone":"02 40 93 80 19","Adresse":"Rue des Carnavaliers","Commune":"NANTES","icon":"default"},"geometry":{"type":"Point","coordinates":[-1.51439561097811,47.2367179606841]}},{"type":"Feature","properties":{"title":"Le Cabanier Théâtre","Code postal":44000,"Site Internet":"lecabanier.free.fr","Téléphone":"09 64 17 70 40","Adresse":"6 Rue Ameline","Commune":"NANTES","icon":"default"},"geometry":{"type":"Point","coordinates":[-1.55831454133765,47.2288539745307]}},{"type":"Feature","properties":{"title":"Médiathèque René Goscinny","Code postal":44980,"Site Internet":"http://mediatheque.sainte-luce-loire.com","Téléphone":"02 40 68 16 51","Adresse":"Mail de l'Europe","Commune":"SAINTE-LUCE-SUR-LOIRE","icon":"default"},"geometry":{"type":"Point","coordinates":[-1.48246033846402,47.2480435709883]}},{"type":"Feature","properties":{"title":"Bibliothèque Petit Chantilly","Code postal":44700,"Site Internet":null,"Téléphone":null,"Adresse":"48 Avenue Alexandre Goupil","Commune":"ORVAULT","icon":"default"},"geometry":{"type":"Point","coordinates":[-1.59913792663684,47.2543247249528]}},{"type":"Feature","properties":{"title":"Zénith de Nantes Métropole","Code postal":44800,"Site Internet":"www.zenith-nantesmetropole.com","Téléphone":null,"Adresse":"Boulevard du Zénith","Commune":"ST-HERBLAIN","icon":"default"},"geometry":{"type":"Point","coordinates":[-1.62799173681506,47.2286969928249]}},{"type":"Feature","properties":{"title":"Cinéma Cinéville Saint-Sébastien","Code postal":44230,"Site Internet":"saint-sebastien.cineville.fr","Téléphone":null,"Adresse":"Rue Marie Curie","Commune":"ST-SEBASTIEN","icon":"default"},"geometry":{"type":"Point","coordinates":[-1.48829071723686,47.1897127297122]}},{"type":"Feature","properties":{"title":"Médiathèque Est Floresca Guépin","Code postal":44300,"Site Internet":"www.bm.nantes.fr","Téléphone":"02 40 93 41 60","Adresse":"15 Rue de la Haluchère","Commune":"NANTES","icon":"default"},"geometry":{"type":"Point","coordinates":[-1.51280146183948,47.2408309711793]}},{"type":"Feature","properties":{"title":"Libre Cour, antenne de Vertou Beautour","Code postal":44120,"Site Internet":"www.vertou.fr","Téléphone":"02 40 34 48 24","Adresse":"Place de la Poste","Commune":"VERTOU","icon":"default"},"geometry":{"type":"Point","coordinates":[-1.50517367827984,47.184250076249]}},{"type":"Feature","properties":{"title":"Maison Guerlain","Code postal":44830,"Site Internet":null,"Téléphone":null,"Adresse":"RD 264","Commune":"BOUAYE","icon":"default"},"geometry":{"type":"Point","coordinates":[-1.6940489026354,47.1321265238039]}},{"type":"Feature","properties":{"title":"Médiathèque George Sand","Code postal":44640,"Site Internet":"www.ville-lepellerin.fr","Téléphone":"02 51 79 81 90","Adresse":"Allée George Sand","Commune":"LE-PELLERIN","icon":"default"},"geometry":{"type":"Point","coordinates":[-1.75523216134559,47.1988060174132]}},{"type":"Feature","properties":{"title":"La Fabrique Stéréolux","Code postal":44200,"Site Internet":"stereolux.org","Téléphone":"02 40 43 20 43","Adresse":"6 Boulevard Léon Bureau","Commune":"NANTES","icon":"default"},"geometry":{"type":"Point","coordinates":[-1.56339767096501,47.2050849888918]}},{"type":"Feature","properties":{"title":"Les Machines de l'Île","Code postal":44200,"Site Internet":null,"Téléphone":null,"Adresse":"Boulevard Léon Bureau","Commune":"NANTES","icon":"default"},"geometry":{"type":"Point","coordinates":[-1.56450197404816,47.2061466344994]}},{"type":"Feature","properties":{"title":"Bibliothèque de l'ESBANM","Code postal":44000,"Site Internet":null,"Téléphone":"02 40 35 90 20","Adresse":"Place Dulcie September","Commune":"NANTES","icon":"default"},"geometry":{"type":"Point","coordinates":[-1.55377534419123,47.2168399568227]}},{"type":"Feature","properties":{"title":"Bibliothèque du Conservatoire","Code postal":44200,"Site Internet":"www.bm.nantes.fr","Téléphone":"02 51 25 00 20","Adresse":"4 Rue Gaëtan Rondeau","Commune":"NANTES","icon":"default"},"geometry":{"type":"Point","coordinates":[-1.53266539551316,47.2080385829694]}},{"type":"Feature","properties":{"title":"Centre Bermond-Boquié","Code postal":44000,"Site Internet":"www.bm.nantes.fr","Téléphone":"02 40 41 42 62","Adresse":"24 Quai de la Fosse","Commune":"NANTES","icon":"default"},"geometry":{"type":"Point","coordinates":[-1.56236278570735,47.2110834573608]}},{"type":"Feature","properties":{"title":"Salle Francine Vasse","Code postal":44000,"Site Internet":"http://www.sallevasse.fr/","Téléphone":"02 40 73 12 60","Adresse":"18 Rue Colbert","Commune":"NANTES","icon":"default"},"geometry":{"type":"Point","coordinates":[-1.56893612558743,47.2156279865699]}},{"type":"Feature","properties":{"title":"La Compagnie du Café Théâtre","Code postal":44000,"Site Internet":"www.lacompagnieducafetheatre.fr","Téléphone":"02 40 89 65 01","Adresse":"6 Rue des Carmélites","Commune":"NANTES","icon":"default"},"geometry":{"type":"Point","coordinates":[-1.55137146374203,47.2165298072222]}},{"type":"Feature","properties":{"title":"Galerie Confluence","Code postal":44000,"Site Internet":"www.galerie-confluence.fr","Téléphone":"02 28 44 98 91","Adresse":"13 Quai de Versailles","Commune":"NANTES","icon":"default"},"geometry":{"type":"Point","coordinates":[-1.55354230142311,47.2221468809965]}},{"type":"Feature","properties":{"title":"Galerie RDV","Code postal":44000,"Site Internet":"galerierdv.com","Téléphone":"02 40 69 62 35","Adresse":"16 Allée Commandant Charcot","Commune":"NANTES","icon":"default"},"geometry":{"type":"Point","coordinates":[-1.5458010335672,47.2171629425987]}},{"type":"Feature","properties":{"title":"Galerie le Rayon Vert","Code postal":44100,"Site Internet":"www.rayonvert.com","Téléphone":"02 40 71 88 27","Adresse":"1 Rue Sainte Marthe","Commune":"NANTES","icon":"default"},"geometry":{"type":"Point","coordinates":[-1.57979618267744,47.2026719142269]}},{"type":"Feature","properties":{"title":"La Scène Michelet","Code postal":44000,"Site Internet":"www.scenemichelet.com","Téléphone":null,"Adresse":"1 Boulevard Henry Orrion","Commune":"NANTES","icon":"default"},"geometry":{"type":"Point","coordinates":[-1.55689373716458,47.2328598146144]}},{"type":"Feature","properties":{"title":"Zoo Galerie","Code postal":44000,"Site Internet":"www.zoogalerie.fr","Téléphone":"02 40 35 41 55","Adresse":"49 Chaussée de la Madeleine","Commune":"NANTES","icon":"default"},"geometry":{"type":"Point","coordinates":[-1.5500678989833,47.2092851976542]}},{"type":"Feature","properties":{"title":"Pôle de compétences culturelles POL'N","Code postal":44000,"Site Internet":"pol-n.org","Téléphone":"02 51 82 36 71","Adresse":"11 Rue des Olivettes","Commune":"NANTES","icon":"default"},"geometry":{"type":"Point","coordinates":[-1.54996298985586,47.2121745148621]}},{"type":"Feature","properties":{"title":"Théâtre Beaulieu","Code postal":44200,"Site Internet":"www.theatrebeaulieu.fr","Téléphone":"02 49 10 63 10","Adresse":"9 Boulevard Vincent Gâche","Commune":"NANTES","icon":"default"},"geometry":{"type":"Point","coordinates":[-1.54279476302659,47.2061385530074]}},{"type":"Feature","properties":{"title":"La Fabrique Trempolino","Code postal":44200,"Site Internet":"www.trempo.com","Téléphone":"02 40 46 66 33","Adresse":"6 Boulevard Léon Bureau","Commune":"NANTES","icon":"default"},"geometry":{"type":"Point","coordinates":[-1.56292020485735,47.2046121617153]}},{"type":"Feature","properties":{"title":"Bibliothèque Expression Livre","Code postal":44200,"Site Internet":"www.expressionlivre.tk","Téléphone":"02 40 75 37 23","Adresse":"56 Rue de la Ripossière","Commune":"NANTES","icon":"default"},"geometry":{"type":"Point","coordinates":[-1.53380881609757,47.1924303280235]}},{"type":"Feature","properties":{"title":"Médiathèque Lisa-Bresner","Code postal":44100,"Site Internet":"www.nantes.fr","Téléphone":"02 40 41 54 00","Adresse":"23 Boulevard Emile Romanet","Commune":"NANTES","icon":"default"},"geometry":{"type":"Point","coordinates":[-1.60314213111402,47.2097556377426]}},{"type":"Feature","properties":{"title":"Ludothèque de la Haute Chaussée","Code postal":44800,"Site Internet":"www.saint-herblain.fr","Téléphone":"02 40 86 79 61","Adresse":"Placis George Sand","Commune":"ST-HERBLAIN","icon":"default"},"geometry":{"type":"Point","coordinates":[-1.66301899580389,47.2059753040614]}},{"type":"Feature","properties":{"title":"Ecole de musique","Code postal":44610,"Site Internet":null,"Téléphone":null,"Adresse":"9 Rue de la Gare","Commune":"INDRE","icon":"default"},"geometry":{"type":"Point","coordinates":[-1.66909943199232,47.2008092849746]}},{"type":"Feature","properties":{"title":"Ecole de Musique Notes En Stock","Code postal":44840,"Site Internet":"notes-en-stock.pagesperso-orange.fr","Téléphone":null,"Adresse":"Rue Hippolyte Derouet","Commune":"LES-SORINIERES","icon":"default"},"geometry":{"type":"Point","coordinates":[-1.52330417968145,47.1477362153356]}},{"type":"Feature","properties":{"title":"Chateau de la Sauvagerie","Code postal":44830,"Site Internet":null,"Téléphone":null,"Adresse":"Voie Non Dénommée 0240907","Commune":"BRAINS","icon":"default"},"geometry":{"type":"Point","coordinates":[-1.7162346593286,47.1649948521913]}},{"type":"Feature","properties":{"title":"Chateau Le Plessis","Code postal":44830,"Site Internet":null,"Téléphone":null,"Adresse":"Voie Non Dénommée 0240909","Commune":"BRAINS","icon":"default"},"geometry":{"type":"Point","coordinates":[-1.72072437378948,47.1624024579693]}},{"type":"Feature","properties":{"title":"Chateau de la Guerche","Code postal":44830,"Site Internet":null,"Téléphone":null,"Adresse":"Rue de la Guerche","Commune":"BRAINS","icon":"default"},"geometry":{"type":"Point","coordinates":[-1.73017757207856,47.1681164425694]}},{"type":"Feature","properties":{"title":"Cinéma Pôle Sud Basse-Goulaine","Code postal":44115,"Site Internet":"http://www.cinepolesud.fr/","Téléphone":"02 28 00 98 98","Adresse":"Rue Dumont D'Urville","Commune":"BASSE-GOULAINE","icon":"default"},"geometry":{"type":"Point","coordinates":[-1.47024415661516,47.1885165873566]}},{"type":"Feature","properties":{"title":"Le Pavillon du Bois de la Noë","Code postal":44830,"Site Internet":null,"Téléphone":null,"Adresse":"Rue de Nantes","Commune":"BOUAYE","icon":"default"},"geometry":{"type":"Point","coordinates":[-1.67792493618071,47.1429966168966]}},{"type":"Feature","properties":{"title":"Ecole de Danse - Salle Maurice Béjart","Code postal":44115,"Site Internet":null,"Téléphone":null,"Adresse":"Square de Theley","Commune":"BASSE-GOULAINE","icon":"default"},"geometry":{"type":"Point","coordinates":[-1.46394752462963,47.2186101808308]}},{"type":"Feature","properties":{"title":"Salle Georges Feydeau","Code postal":44115,"Site Internet":"www.basse-goulaine.fr","Téléphone":null,"Adresse":"Square de Theley","Commune":"BASSE-GOULAINE","icon":"default"},"geometry":{"type":"Point","coordinates":[-1.46414898016783,47.2185003265909]}},{"type":"Feature","properties":{"title":"Le château du Pé","Code postal":44640,"Site Internet":"www.chateaudupe.fr","Téléphone":"02 40 40 36 43","Adresse":"Rue de l'Egalité","Commune":"SAINT-JEAN-DE-BOISEAU","icon":"default"},"geometry":{"type":"Point","coordinates":[-1.72141219808128,47.1988394083649]}},{"type":"Feature","properties":{"title":"La Chaussée des Moines","Code postal":44120,"Site Internet":"www.vertou.fr","Téléphone":null,"Adresse":"Quai de la Chaussée des Moines","Commune":"VERTOU","icon":"default"},"geometry":{"type":"Point","coordinates":[-1.48113946668721,47.1672029648262]}},{"type":"Feature","properties":{"title":"Ecole de Musique","Code postal":44880,"Site Internet":null,"Téléphone":null,"Adresse":"25 Rue de la Forêt","Commune":"SAUTRON","icon":"default"},"geometry":{"type":"Point","coordinates":[-1.68046872624151,47.2652977448173]}},{"type":"Feature","properties":{"title":"Le Musée - Phelippes Beaulieux","Code postal":44880,"Site Internet":"www.sautron.fr","Téléphone":null,"Adresse":"27 Rue de la Vallée","Commune":"SAUTRON","icon":"default"},"geometry":{"type":"Point","coordinates":[-1.67363423761035,47.2644035766248]}},{"type":"Feature","properties":{"title":"Espace Marie-Hélène Gouleau","Code postal":44880,"Site Internet":"www.sautron.fr","Téléphone":null,"Adresse":"33 Rue de la Vallée","Commune":"SAUTRON","icon":"default"},"geometry":{"type":"Point","coordinates":[-1.67314422694461,47.2645673387556]}},{"type":"Feature","properties":{"title":"Musée de l'Erdre","Code postal":44470,"Site Internet":"www.carquefou.fr","Téléphone":null,"Adresse":"Allée des Renaudières","Commune":"CARQUEFOU","icon":"default"},"geometry":{"type":"Point","coordinates":[-1.51327202569548,47.2999374250482]}},{"type":"Feature","properties":{"title":"Manoir des Renaudières","Code postal":44470,"Site Internet":null,"Téléphone":null,"Adresse":"Allée des Renaudières","Commune":"CARQUEFOU","icon":"default"},"geometry":{"type":"Point","coordinates":[-1.51352459582892,47.3002235094712]}},{"type":"Feature","properties":{"title":"Château de la Gobinière","Code postal":44700,"Site Internet":"www.orvault.fr","Téléphone":null,"Adresse":"37 Avenue de la Ferrière","Commune":"ORVAULT","icon":"default"},"geometry":{"type":"Point","coordinates":[-1.58465085170863,47.2492133331543]}},{"type":"Feature","properties":{"title":"JAM Jeunes Artistes de Mazaire - scène de musiques amplifiées","Code postal":44240,"Site Internet":"www.lejam.fr","Téléphone":"02 51 81 87 23","Adresse":"Avenue de Beauregard","Commune":"LA-CHAPELLE-SUR-ERDRE","icon":"default"},"geometry":{"type":"Point","coordinates":[-1.55624543257656,47.2965667131571]}},{"type":"Feature","properties":{"title":"La Machinerie","Code postal":44640,"Site Internet":null,"Téléphone":"02 40 04 65 21","Adresse":"Voie Non Dénommée 1201796","Commune":"LE-PELLERIN","icon":"default"},"geometry":{"type":"Point","coordinates":[-1.78389479292774,47.2079795371887]}},{"type":"Feature","properties":{"title":"Château de La Couronnerie","Code postal":44470,"Site Internet":null,"Téléphone":null,"Adresse":"Allée de la Couronnerie","Commune":"CARQUEFOU","icon":"default"},"geometry":{"type":"Point","coordinates":[-1.52579559097779,47.3116633216969]}},{"type":"Feature","properties":{"title":"Château de la Seilleraye","Code postal":44470,"Site Internet":null,"Téléphone":null,"Adresse":"Chemin de Gaubert","Commune":"CARQUEFOU","icon":"default"},"geometry":{"type":"Point","coordinates":[-1.42052760462519,47.2995253542178]}},{"type":"Feature","properties":{"title":"Château de Praud","Code postal":44400,"Site Internet":"www.reze.fr","Téléphone":null,"Adresse":"Rue Konrad Adenauer","Commune":"REZE","icon":"default"},"geometry":{"type":"Point","coordinates":[-1.54818123870616,47.168393420841]}}],"properties":[{"type":"Feature","properties":{"title":"Bibliothèque Centre Socioculturel Pilotière","Code postal":44300,"Site Internet":null,"Téléphone":"02 40 50 32 44","Adresse":"31 Rue des Platanes","Commune":"NANTES","icon":"default"},"geometry":{"type":"Point","coordinates":[-1.52412551040272,47.2448690657194]}},{"type":"Feature","properties":{"title":"Bibliothèque Maison Enfance Bellevue","Code postal":44100,"Site Internet":null,"Téléphone":"02 40 48 56 56","Adresse":"20 Rue Firmin Colas","Commune":"NANTES","icon":"default"},"geometry":{"type":"Point","coordinates":[-1.60743349009795,47.2035647244328]}},{"type":"Feature","properties":{"title":"Bibliothèque Breil Malville","Code postal":44100,"Site Internet":null,"Téléphone":"02 40 76 06 56","Adresse":"37B Rue des Plantes","Commune":"NANTES","icon":"default"},"geometry":{"type":"Point","coordinates":[-1.58610757121275,47.2330348517548]}},{"type":"Feature","properties":{"title":"Bibliothèque Chantenay","Code postal":44100,"Site Internet":null,"Téléphone":"02 40 46 26 96","Adresse":"8 Rue de la Constitution","Commune":"NANTES","icon":"default"},"geometry":{"type":"Point","coordinates":[-1.58979457477487,47.2064963595484]}},{"type":"Feature","properties":{"title":"Bibliothèque de La Halvêque","Code postal":44300,"Site Internet":"www.bm.nantes.fr","Téléphone":"02 40 50 62 64","Adresse":"23 Rue Léon Serpollet","Commune":"NANTES","icon":"default"},"geometry":{"type":"Point","coordinates":[-1.51899981108424,47.2541505546046]}},{"type":"Feature","properties":{"title":"Bibliothèque de la Manufacture","Code postal":44000,"Site Internet":"www.bm.nantes.fr","Téléphone":"02 40 41 95 65","Adresse":"6 Cour Jules Durand","Commune":"NANTES","icon":"default"},"geometry":{"type":"Point","coordinates":[-1.53621501258436,47.2199674721399]}},{"type":"Feature","properties":{"title":"Médiathèque Espace Jacques Demy","Code postal":44000,"Site Internet":"www.nantes.fr/mairie/services/responsabilites/dgc/biblios","Téléphone":"02 40 41 95 95","Adresse":"24 Quai de la Fosse","Commune":"NANTES","icon":"default"},"geometry":{"type":"Point","coordinates":[-1.56215521908497,47.2111500141088]}},{"type":"Feature","properties":{"title":"Médiathèque Nord Luce Courville","Code postal":44300,"Site Internet":"www.bm.nantes.fr","Téléphone":"02 40 16 05 50","Adresse":"1 Rue Eugène Thomas","Commune":"NANTES","icon":"default"},"geometry":{"type":"Point","coordinates":[-1.57421098702047,47.2619113578198]}},{"type":"Feature","properties":{"title":"Musée Jules Verne","Code postal":44100,"Site Internet":"www.nantes.fr/mairie/services/responsabilites/dgc/musees","Téléphone":"02 40 69 72 52","Adresse":"3 Rue de l'Hermitage","Commune":"NANTES","icon":"default"},"geometry":{"type":"Point","coordinates":[-1.57737270098168,47.201601357171]}},{"type":"Feature","properties":{"title":"Manoir de La Hautière","Code postal":44100,"Site Internet":null,"Téléphone":"02 40 69 30 55","Adresse":"14 Rue Claude Guillon Verne","Commune":"NANTES","icon":"default"},"geometry":{"type":"Point","coordinates":[-1.58279541240163,47.2029654450222]}},{"type":"Feature","properties":{"title":"Château du Parc du Grand Blottereau","Code postal":44300,"Site Internet":null,"Téléphone":"02 40 49 39 98","Adresse":"Boulevard Auguste Péneau","Commune":"NANTES","icon":"default"},"geometry":{"type":"Point","coordinates":[-1.51067077954986,47.2261904412571]}},{"type":"Feature","properties":{"title":"Musée départemental Dobrée","Code postal":44000,"Site Internet":"www.loire-atlantique.fr","Téléphone":"02 40 71 03 50","Adresse":"18 Rue Voltaire","Commune":"NANTES","icon":"default"},"geometry":{"type":"Point","coordinates":[-1.56657545527101,47.2126357902393]}},{"type":"Feature","properties":{"title":"Muséum d'Histoire Naturelle","Code postal":44000,"Site Internet":"www.museum.nantes.fr","Téléphone":"02 40 99 26 20","Adresse":"12 Rue Voltaire","Commune":"NANTES","icon":"default"},"geometry":{"type":"Point","coordinates":[-1.56483323576428,47.2126627103977]}},{"type":"Feature","properties":{"title":"Musée des Beaux Arts","Code postal":44000,"Site Internet":"www.nantes.fr/mairie/services/responsabilites/dgc/musees","Téléphone":"02 51 17 45 00","Adresse":"10 Rue Georges Clemenceau","Commune":"NANTES","icon":"default"},"geometry":{"type":"Point","coordinates":[-1.54738925275446,47.2195914348402]}},{"type":"Feature","properties":{"title":"Château des Ducs de Bretagne","Code postal":44000,"Site Internet":"www.chateau-nantes.fr","Téléphone":"08 11 46 46 44","Adresse":"4 Place Marc Elder","Commune":"NANTES","icon":"default"},"geometry":{"type":"Point","coordinates":[-1.54960343720158,47.2163485862643]}},{"type":"Feature","properties":{"title":"Musée  de l'Imprimerie","Code postal":44000,"Site Internet":"musee-imprimerie.com","Téléphone":"02 40 73 26 55","Adresse":"24 Quai de la Fosse","Commune":"NANTES","icon":"default"},"geometry":{"type":"Point","coordinates":[-1.56214635427804,47.2109357704198]}},{"type":"Feature","properties":{"title":"Le Grand T","Code postal":44000,"Site Internet":"www.legrandt.fr","Téléphone":"02 28 24 28 24","Adresse":"84 Rue Général Buat","Commune":"NANTES","icon":"default"},"geometry":{"type":"Point","coordinates":[-1.54069327689558,47.2307905353753]}},{"type":"Feature","properties":{"title":"Salle Paul Fort Nantes","Code postal":44000,"Site Internet":null,"Téléphone":"02 51 72 10 10","Adresse":"9 Rue Basse Porte","Commune":"NANTES","icon":"default"},"geometry":{"type":"Point","coordinates":[-1.558278353816,47.2208841720473]}},{"type":"Feature","properties":{"title":"Théâtre Graslin","Code postal":44000,"Site Internet":"www.angers-nantes-opera.com","Téléphone":"02 40 69 77 18","Adresse":"1T Place Graslin","Commune":"NANTES","icon":"default"},"geometry":{"type":"Point","coordinates":[-1.56222079050172,47.2134383314212]}},{"type":"Feature","properties":{"title":"La Fabrique Chantenay-Bellevue","Code postal":44100,"Site Internet":"www.lafabrique.nantes.fr","Téléphone":"02 51 80 60 80","Adresse":"30 Boulevard de la Liberté","Commune":"NANTES","icon":"default"},"geometry":{"type":"Point","coordinates":[-1.58882873634081,47.1996251925819]}},{"type":"Feature","properties":{"title":"Planétarium Nantes","Code postal":44100,"Site Internet":"www.nantes.fr/mairie/services/responsabilites/dgc/musees","Téléphone":"02 40 73 99 23","Adresse":"8 Rue des Acadiens","Commune":"NANTES","icon":"default"},"geometry":{"type":"Point","coordinates":[-1.57746408897429,47.2022240576511]}},{"type":"Feature","properties":{"title":"Pigeonnier Nantes","Code postal":44100,"Site Internet":null,"Téléphone":null,"Adresse":"4 Place Vincent Auriol","Commune":"NANTES","icon":"default"},"geometry":{"type":"Point","coordinates":[-1.59276495064138,47.221942231682]}},{"type":"Feature","properties":{"title":"Porte Saint Pierre","Code postal":44000,"Site Internet":null,"Téléphone":null,"Adresse":"1 Rue de l'Evêché","Commune":"NANTES","icon":"default"},"geometry":{"type":"Point","coordinates":[-1.55028297462458,47.2188776569657]}},{"type":"Feature","properties":{"title":"Monument des Fusillés","Code postal":44300,"Site Internet":null,"Téléphone":null,"Adresse":"10B Boulevard de la Beaujoire","Commune":"NANTES","icon":"default"},"geometry":{"type":"Point","coordinates":[-1.51246735098118,47.2605733716795]}},{"type":"Feature","properties":{"title":"Centre Chorégraphique National de Nantes,J. Garnier","Code postal":44000,"Site Internet":"www.nantes.fr/detente/culture","Téléphone":"02 40 93 30 97","Adresse":"9 Rue Haute Roche","Commune":"NANTES","icon":"default"},"geometry":{"type":"Point","coordinates":[-1.56268265508309,47.2259393407459]}},{"type":"Feature","properties":{"title":"Chapelle de l'Oratoire","Code postal":44000,"Site Internet":null,"Téléphone":"02 40 41 65 60","Adresse":"13 Place de l'Oratoire","Commune":"NANTES","icon":"default"},"geometry":{"type":"Point","coordinates":[-1.54846808966722,47.2190680846713]}},{"type":"Feature","properties":{"title":"Cité internationale des Congrès Nantes","Code postal":44000,"Site Internet":"www.congres-nantes.fr","Téléphone":"02 51 88 20 00","Adresse":"5 Rue de Valmy","Commune":"NANTES","icon":"default"},"geometry":{"type":"Point","coordinates":[-1.54361241181679,47.2127669420381]}},{"type":"Feature","properties":{"title":"Salle d'Expositions Manu","Code postal":44000,"Site Internet":null,"Téléphone":null,"Adresse":"11 Boulevard de Stalingrad","Commune":"NANTES","icon":"default"},"geometry":{"type":"Point","coordinates":[-1.53606743270468,47.2197586108985]}},{"type":"Feature","properties":{"title":"Espace Culturel Bréchoir","Code postal":44000,"Site Internet":null,"Téléphone":null,"Adresse":"1 Rue Jules Bréchoir","Commune":"NANTES","icon":"default"},"geometry":{"type":"Point","coordinates":[-1.5229962386996,47.2252983383409]}},{"type":"Feature","properties":{"title":"Bibliothèque Boissière","Code postal":44300,"Site Internet":null,"Téléphone":"02 40 76 96 85","Adresse":"9B Rue Jean De La Bruyère","Commune":"NANTES","icon":"default"},"geometry":{"type":"Point","coordinates":[-1.56744168014674,47.2544241858466]}},{"type":"Feature","properties":{"title":"Cinéma Concorde","Code postal":44100,"Site Internet":null,"Téléphone":"02 40 46 25 29","Adresse":"79 Boulevard de l'Egalité","Commune":"NANTES","icon":"default"},"geometry":{"type":"Point","coordinates":[-1.58680498628311,47.2111830980786]}},{"type":"Feature","properties":{"title":"Cinéma Katorza","Code postal":44000,"Site Internet":"www.ifrance.com/cinekatorza","Téléphone":"02 51 84 90 60","Adresse":"3 Rue Corneille","Commune":"NANTES","icon":"default"},"geometry":{"type":"Point","coordinates":[-1.56269593518909,47.213635180752]}},{"type":"Feature","properties":{"title":"Théâtre de Poche Graslin","Code postal":44000,"Site Internet":"www.theatredepochegraslin.fr","Téléphone":"02 40 47 34 44","Adresse":"5 Rue Lekain","Commune":"NANTES","icon":"default"},"geometry":{"type":"Point","coordinates":[-1.56295099975056,47.2144961643548]}},{"type":"Feature","properties":{"title":"Théâtre Universitaire Nantes","Code postal":44300,"Site Internet":"www.tunantes.fr","Téléphone":"02 40 14 55 14","Adresse":"11 Chemin de la Censive du Tertre","Commune":"NANTES","icon":"default"},"geometry":{"type":"Point","coordinates":[-1.55350936538644,47.2456250069954]}},{"type":"Feature","properties":{"title":"Bibliothèque Doulon","Code postal":44300,"Site Internet":null,"Téléphone":"02 40 93 25 16","Adresse":"1 Rue de la Basse Chénaie","Commune":"NANTES","icon":"default"},"geometry":{"type":"Point","coordinates":[-1.50933600146099,47.2370383094713]}},{"type":"Feature","properties":{"title":"Ludothèque Perray","Code postal":44300,"Site Internet":null,"Téléphone":"02 40 49 74 69","Adresse":"7 Rue Frédéric Mistral","Commune":"NANTES","icon":"default"},"geometry":{"type":"Point","coordinates":[-1.51258942059508,47.2471820573203]}},{"type":"Feature","properties":{"title":"Ludothèque Boissière","Code postal":44300,"Site Internet":null,"Téléphone":"02 40 76 96 85","Adresse":"9B Rue Jean De La Bruyère","Commune":"NANTES","icon":"default"},"geometry":{"type":"Point","coordinates":[-1.56724049631036,47.2543883028455]}},{"type":"Feature","properties":{"title":"Ludothèque Bout des Landes","Code postal":44300,"Site Internet":null,"Téléphone":"02 40 76 15 52","Adresse":"12 Rue de Concarneau","Commune":"NANTES","icon":"default"},"geometry":{"type":"Point","coordinates":[-1.57811320967866,47.2660853380379]}},{"type":"Feature","properties":{"title":"Ludothèque Clos Toreau","Code postal":44200,"Site Internet":null,"Téléphone":"02 40 03 19 55","Adresse":"10 Rue d'Hendaye","Commune":"NANTES","icon":"default"},"geometry":{"type":"Point","coordinates":[-1.52815729492207,47.1949950115069]}},{"type":"Feature","properties":{"title":"Ludothèque l'Ile aux Jeux","Code postal":44200,"Site Internet":null,"Téléphone":null,"Adresse":"14 Rue Michel Rocher","Commune":"NANTES","icon":"default"},"geometry":{"type":"Point","coordinates":[-1.54967089838391,47.2062604079343]}},{"type":"Feature","properties":{"title":"Ludothèque Planète Jouets Bottière","Code postal":44300,"Site Internet":null,"Téléphone":"02 40 49 63 12","Adresse":"15 Rue de la Souillarderie","Commune":"NANTES","icon":"default"},"geometry":{"type":"Point","coordinates":[-1.51749026302222,47.2398617937679]}},{"type":"Feature","properties":{"title":"Ludothèque Centre Socioculturel Port Boyer","Code postal":44300,"Site Internet":null,"Téléphone":"02 40 49 21 81","Adresse":"7 Rue de Pornichet","Commune":"NANTES","icon":"default"},"geometry":{"type":"Point","coordinates":[-1.54125046934578,47.2412474745432]}},{"type":"Feature","properties":{"title":"Salle d'Expositions Temple du Goût","Code postal":44000,"Site Internet":null,"Téléphone":"02 40 47 46 44","Adresse":"30 Rue Kervégan","Commune":"NANTES","icon":"default"},"geometry":{"type":"Point","coordinates":[-1.55668905017722,47.2124516306806]}},{"type":"Feature","properties":{"title":"Maison des Hommes et des Techniques","Code postal":44200,"Site Internet":null,"Téléphone":"02 40 08 20 22","Adresse":"2B Boulevard Léon Bureau","Commune":"NANTES","icon":"default"},"geometry":{"type":"Point","coordinates":[-1.56575937676873,47.205757930039]}},{"type":"Feature","properties":{"title":"Musée Compagnonique","Code postal":44100,"Site Internet":null,"Téléphone":"02 40 69 30 55","Adresse":"14 Rue Claude Guillon Verne","Commune":"NANTES","icon":"default"},"geometry":{"type":"Point","coordinates":[-1.58281336906524,47.2027828929462]}},{"type":"Feature","properties":{"title":"Musée Naval Maillé Brézé","Code postal":44100,"Site Internet":"www.nwt.fr/escorteur-maille-breze","Téléphone":"02 40 69 56 82","Adresse":"Quai de la Fosse","Commune":"NANTES","icon":"default"},"geometry":{"type":"Point","coordinates":[-1.57114521146042,47.2071208442903]}},{"type":"Feature","properties":{"title":"Musée d'Histoire de Nantes","Code postal":44000,"Site Internet":"www.chateau-nantes.fr","Téléphone":"08 11 46 46 44","Adresse":"4 Place Marc Elder","Commune":"NANTES","icon":"default"},"geometry":{"type":"Point","coordinates":[-1.549918107433,47.216240073289]}},{"type":"Feature","properties":{"title":"Cinéma Bonne Garde","Code postal":44200,"Site Internet":"www.cinefil.com","Téléphone":"02 40 84 18 84","Adresse":"20 Rue Frère Louis","Commune":"NANTES","icon":"default"},"geometry":{"type":"Point","coordinates":[-1.53855887533553,47.1952432679388]}},{"type":"Feature","properties":{"title":"Cinéma Gaumont","Code postal":44000,"Site Internet":"www.gaumont.fr","Téléphone":"02 51 72 08 09","Adresse":"12 Place du Commerce","Commune":"NANTES","icon":"default"},"geometry":{"type":"Point","coordinates":[-1.55826228453643,47.2134049938951]}},{"type":"Feature","properties":{"title":"Château de La Gaudinière","Code postal":44300,"Site Internet":null,"Téléphone":null,"Adresse":"29 Rue Diane","Commune":"NANTES","icon":"default"},"geometry":{"type":"Point","coordinates":[-1.57828117455308,47.2434588929702]}},{"type":"Feature","properties":{"title":"Conservatoire de Nantes","Code postal":44200,"Site Internet":"www.conservatoire.nantes.fr","Téléphone":"02 51 25 00 20","Adresse":"4 Rue Gaëtan Rondeau","Commune":"NANTES","icon":"default"},"geometry":{"type":"Point","coordinates":[-1.53268602054133,47.2075413501197]}},{"type":"Feature","properties":{"title":"Cinéma Le Cinématographe","Code postal":44000,"Site Internet":"www.lecinematographe.com/","Téléphone":"02 40 47 94 80","Adresse":"12B Rue des Carmélites","Commune":"NANTES","icon":"default"},"geometry":{"type":"Point","coordinates":[-1.55147134651711,47.2169075156747]}},{"type":"Feature","properties":{"title":"Le Lieu Unique Nantes","Code postal":44000,"Site Internet":"www.lelieuunique.com","Téléphone":"02 40 12 14 34","Adresse":"Quai Ferdinand Favre","Commune":"NANTES","icon":"default"},"geometry":{"type":"Point","coordinates":[-1.54566621075059,47.2152661553546]}},{"type":"Feature","properties":{"title":"Salle d'Expositions Château de Procé","Code postal":44000,"Site Internet":null,"Téléphone":null,"Adresse":"44 Rue des Dervallières","Commune":"NANTES","icon":"default"},"geometry":{"type":"Point","coordinates":[-1.58125394417763,47.2232961347797]}},{"type":"Feature","properties":{"title":"Pôle Régional des Musiques Actuelles","Code postal":44200,"Site Internet":"www.lepole.asso.fr","Téléphone":"02 40 46 66 33","Adresse":"6 Rue de Saint Domingue","Commune":"NANTES","icon":"default"},"geometry":{"type":"Point","coordinates":[-1.57188530991997,47.2005094247013]}},{"type":"Feature","properties":{"title":"Studio Théâtre","Code postal":44000,"Site Internet":null,"Téléphone":"02 40 29 07 61","Adresse":"5 Rue du Ballet","Commune":"NANTES","icon":"default"},"geometry":{"type":"Point","coordinates":[-1.55792726362705,47.2310612015399]}},{"type":"Feature","properties":{"title":"Bibliothèque Emilienne Leroux","Code postal":44100,"Site Internet":null,"Téléphone":"02 40 43 31 51","Adresse":"21 Rue Charles Roger","Commune":"NANTES","icon":"default"},"geometry":{"type":"Point","coordinates":[-1.59760423329973,47.2230965289039]}},{"type":"Feature","properties":{"title":"Château de Procé","Code postal":44000,"Site Internet":null,"Téléphone":null,"Adresse":"44 Rue des Dervallières","Commune":"NANTES","icon":"default"},"geometry":{"type":"Point","coordinates":[-1.5809131410435,47.223238903416]}},{"type":"Feature","properties":{"title":"Salle Pannonica","Code postal":44000,"Site Internet":"www.pannonica.com","Téléphone":"02 51 72 10 10","Adresse":"9 Rue Basse Porte","Commune":"NANTES","icon":"default"},"geometry":{"type":"Point","coordinates":[-1.55841718455808,47.2208026531753]}},{"type":"Feature","properties":{"title":"Salle d'Expositions Espace Delrue","Code postal":44000,"Site Internet":null,"Téléphone":null,"Adresse":"11 Rue Marmontel","Commune":"NANTES","icon":"default"},"geometry":{"type":"Point","coordinates":[-1.54981078535814,47.2094849922051]}},{"type":"Feature","properties":{"title":"Salle d'Expositions de l'ESBANM","Code postal":44000,"Site Internet":"www.erba-nantes.fr","Téléphone":null,"Adresse":"Place Dulcie September","Commune":"NANTES","icon":"default"},"geometry":{"type":"Point","coordinates":[-1.55421703194788,47.2170094184269]}},{"type":"Feature","properties":{"title":"Théâtre Pom'","Code postal":44000,"Site Internet":"www.theatrepom.fr/","Téléphone":"02 40 89 54 95","Adresse":"44 Rue de Bel Air","Commune":"NANTES","icon":"default"},"geometry":{"type":"Point","coordinates":[-1.55904423277679,47.2239153874804]}},{"type":"Feature","properties":{"title":"Bibliothèque Société Académique Nantes","Code postal":44000,"Site Internet":null,"Téléphone":null,"Adresse":"8 Rue Garde Dieu","Commune":"NANTES","icon":"default"},"geometry":{"type":"Point","coordinates":[-1.55468004357272,47.2189938408806]}},{"type":"Feature","properties":{"title":"Maison de la Poésie Nantes","Code postal":44000,"Site Internet":null,"Téléphone":"02 40 69 22 32","Adresse":"2 Rue des Carmes","Commune":"NANTES","icon":"default"},"geometry":{"type":"Point","coordinates":[-1.55493738500246,47.2158407860167]}},{"type":"Feature","properties":{"title":"Espace Cosmopolis Nantes","Code postal":44000,"Site Internet":null,"Téléphone":"02 51 84 36 70","Adresse":"6 Rue Lekain","Commune":"NANTES","icon":"default"},"geometry":{"type":"Point","coordinates":[-1.56269838251326,47.2144380596107]}},{"type":"Feature","properties":{"title":"Musée des Beaux Arts , Chapelle de l'Oratoire","Code postal":44000,"Site Internet":null,"Téléphone":"02 40 41 65 60","Adresse":"13 Place de l'Oratoire","Commune":"NANTES","icon":"default"},"geometry":{"type":"Point","coordinates":[-1.54840356668365,47.219189959226]}},{"type":"Feature","properties":{"title":"Espace Culturel Sud Loire","Code postal":44200,"Site Internet":null,"Téléphone":"02 40 75 37 23","Adresse":"47 Rue Ledru Rollin","Commune":"NANTES","icon":"default"},"geometry":{"type":"Point","coordinates":[-1.53489101010816,47.1927011015964]}},{"type":"Feature","properties":{"title":"Bibliothèque Amicale Laïque St Joseph","Code postal":44300,"Site Internet":null,"Téléphone":"02 40 30 03 31","Adresse":"478 Route de Saint Joseph","Commune":"NANTES","icon":"default"},"geometry":{"type":"Point","coordinates":[-1.51941657072043,47.2691807209141]}},{"type":"Feature","properties":{"title":"Espace Lecture Malakoff","Code postal":44000,"Site Internet":"http://www.nantes.fr","Téléphone":"02 40 48 67 93","Adresse":"1 Boulevard de Berlin","Commune":"NANTES","icon":"default"},"geometry":{"type":"Point","coordinates":[-1.53034663465183,47.2140929788499]}},{"type":"Feature","properties":{"title":"Bibliothèque Centre Interculturel Documentation","Code postal":44200,"Site Internet":null,"Téléphone":"02 40 47 88 36","Adresse":"2B Boulevard Léon Bureau","Commune":"NANTES","icon":"default"},"geometry":{"type":"Point","coordinates":[-1.56533705597733,47.2059712817432]}},{"type":"Feature","properties":{"title":"Bibliothèque Centre Socioculturel des Ponts","Code postal":44200,"Site Internet":null,"Téléphone":"02 40 48 61 01","Adresse":"14 Rue Michel Rocher","Commune":"NANTES","icon":"default"},"geometry":{"type":"Point","coordinates":[-1.54984727743735,47.2062504071364]}},{"type":"Feature","properties":{"title":"Bibliothèque Espace Vittoria Clos Toreau","Code postal":44200,"Site Internet":null,"Téléphone":null,"Adresse":"Place du Pays Basque","Commune":"NANTES","icon":"default"},"geometry":{"type":"Point","coordinates":[-1.52789538883653,47.1952950728629]}},{"type":"Feature","properties":{"title":"Bibliothèque Centre Socioculturel Bellevue","Code postal":44100,"Site Internet":null,"Téléphone":"02 40 46 44 22","Adresse":"25 Rue du Jamet","Commune":"NANTES","icon":"default"},"geometry":{"type":"Point","coordinates":[-1.60546676709616,47.2078546426425]}},{"type":"Feature","properties":{"title":"Bibliothèque-Ludothèque Bout des Pavés","Code postal":44300,"Site Internet":"www.accoordnantes.info","Téléphone":"02 40 40 19 16","Adresse":"14 Rue de la Coulée","Commune":"NANTES","icon":"default"},"geometry":{"type":"Point","coordinates":[-1.57649854969961,47.2600650297949]}},{"type":"Feature","properties":{"title":"Bibliothèque Centre Socioculturel Bout des Landes","Code postal":44300,"Site Internet":null,"Téléphone":"02 40 76 15 52","Adresse":"12 Rue de Concarneau","Commune":"NANTES","icon":"default"},"geometry":{"type":"Point","coordinates":[-1.57831573156643,47.2658948173154]}},{"type":"Feature","properties":{"title":"Bibliothèque Centre Socioculturel Perray","Code postal":44300,"Site Internet":null,"Téléphone":"02 40 49 74 69","Adresse":"9 Rue Frédéric Mistral","Commune":"NANTES","icon":"default"},"geometry":{"type":"Point","coordinates":[-1.51265511845767,47.2472293104102]}},{"type":"Feature","properties":{"title":"Bibliothèque Port Boyer","Code postal":44300,"Site Internet":null,"Téléphone":"02 40 49 21 81","Adresse":"7 Rue de Pornichet","Commune":"NANTES","icon":"default"},"geometry":{"type":"Point","coordinates":[-1.54140903517677,47.2413386038884]}},{"type":"Feature","properties":{"title":"Bibliothèque pour Tous Siège Social Nantes","Code postal":44000,"Site Internet":null,"Téléphone":"02 40 47 71 80","Adresse":"1 Rue Mathelin Rodier","Commune":"NANTES","icon":"default"},"geometry":{"type":"Point","coordinates":[-1.55045863819617,47.2166731773127]}},{"type":"Feature","properties":{"title":"Bibliothèque pour Tous Beaulieu","Code postal":44200,"Site Internet":null,"Téléphone":"02 40 35 50 63","Adresse":"12 Rue Anatole de Monzie","Commune":"NANTES","icon":"default"},"geometry":{"type":"Point","coordinates":[-1.54172393393277,47.2034477919426]}},{"type":"Feature","properties":{"title":"Bibliothèque pour Tous Cacault","Code postal":44000,"Site Internet":null,"Téléphone":"02 40 20 46 76","Adresse":"12 Rue Cacault","Commune":"NANTES","icon":"default"},"geometry":{"type":"Point","coordinates":[-1.557756352266,47.2166287910994]}},{"type":"Feature","properties":{"title":"Bibliothèque pour Tous Viarme","Code postal":44000,"Site Internet":null,"Téléphone":null,"Adresse":"16 Rue Sarrazin","Commune":"NANTES","icon":"default"},"geometry":{"type":"Point","coordinates":[-1.56103744209922,47.2207621869366]}},{"type":"Feature","properties":{"title":"Bibliothèque pour Tous Joffre","Code postal":44000,"Site Internet":null,"Téléphone":null,"Adresse":"32 Rue Maréchal Joffre","Commune":"NANTES","icon":"default"},"geometry":{"type":"Point","coordinates":[-1.54745767216851,47.2218328040666]}},{"type":"Feature","properties":{"title":"Maison de la Marionnette Nantes","Code postal":44200,"Site Internet":"www.maison-marionnette-nantes.com","Téléphone":"02 40 48 70 19","Adresse":"Boulevard Général de Gaulle","Commune":"NANTES","icon":"default"},"geometry":{"type":"Point","coordinates":[-1.53669959717981,47.2045546396696]}},{"type":"Feature","properties":{"title":"Centre Culturel  Européen","Code postal":44000,"Site Internet":null,"Téléphone":"02 40 35 39 43","Adresse":"32 Rue Kervégan","Commune":"NANTES","icon":"default"},"geometry":{"type":"Point","coordinates":[-1.5571074758487,47.212361658854]}},{"type":"Feature","properties":{"title":"Bibliothèque Paul Eluard","Code postal":44800,"Site Internet":"www.saint-herblain.fr","Téléphone":"02 40 40 51 41","Adresse":"32 Avenue des Plantes","Commune":"ST-HERBLAIN","icon":"default"},"geometry":{"type":"Point","coordinates":[-1.58560851669432,47.2341388753086]}},{"type":"Feature","properties":{"title":"Bibliothèque René Guy Cadou","Code postal":44800,"Site Internet":"www.saint-herblain.fr","Téléphone":"02 40 63 19 46","Adresse":"2 Rue du Bois de Lagland","Commune":"ST-HERBLAIN","icon":"default"},"geometry":{"type":"Point","coordinates":[-1.63183437429987,47.2341104213822]}},{"type":"Feature","properties":{"title":"Médiathèque Gao-Xingjian","Code postal":44800,"Site Internet":"www.saint-herblain.fr","Téléphone":"02 28 25 25 50","Adresse":"17 Avenue de l'Angevinière","Commune":"ST-HERBLAIN","icon":"default"},"geometry":{"type":"Point","coordinates":[-1.60998364577518,47.2447215858757]}},{"type":"Feature","properties":{"title":"Bibliothèque Bourg","Code postal":44800,"Site Internet":"www.saint-herblain.fr","Téléphone":"02 28 25 25 28","Adresse":"126 Boulevard François Mitterrand","Commune":"ST-HERBLAIN","icon":"default"},"geometry":{"type":"Point","coordinates":[-1.64892903098575,47.2131452766502]}},