{"type":"FeatureCollection","features":[{"type":"Feature","properties":{"geo":{"name":"Conservatoire de Nantes"},"_l":[47.2075413501197,-1.53268602054133],"LIBTHEME":"CULTURE","CODE_POSTAL":44200,"WEB":"www.conservatoire.nantes.fr","STATUT":null,"TELEPHONE":"02 51 25 00 20","THEME":1,"COMMUNE":"NANTES","LIBCATEGORIE":"Ecole Culturelle","ADRESSE":"4 Rue Gaëtan Rondeau","LIBTYPE":null,"_IDOBJ":1244,"TYPE":null,"CATEGORIE":105},"geometry":{"type":"Point","coordinates":[-1.53268602054133,47.2075413501197]}},{"type":"Feature","properties":{"geo":{"name":"Ecole Municipale de Musique Orvault"},"_l":[47.2485367764531,-1.58514767871285],"LIBTHEME":"CULTURE","CODE_POSTAL":44700,"WEB":"www.orvault.fr","STATUT":null,"TELEPHONE":"02 51 78 33 34","THEME":1,"COMMUNE":"ORVAULT","LIBCATEGORIE":"Ecole Culturelle","ADRESSE":"37 Avenue de la Ferrière","LIBTYPE":null,"_IDOBJ":1954,"TYPE":null,"CATEGORIE":105},"geometry":{"type":"Point","coordinates":[-1.58514767871285,47.2485367764531]}},{"type":"Feature","properties":{"geo":{"name":"Ecole de Musique Municipale"},"_l":[47.2100173804418,-1.50084599286357],"LIBTHEME":"CULTURE","CODE_POSTAL":44230,"WEB":null,"STATUT":null,"TELEPHONE":"02 51 79 04 71","THEME":1,"COMMUNE":"ST-SEBASTIEN","LIBCATEGORIE":"Ecole Culturelle","ADRESSE":"130 Boulevard des Pas Enchantés","LIBTYPE":null,"_IDOBJ":2056,"TYPE":null,"CATEGORIE":105},"geometry":{"type":"Point","coordinates":[-1.50084599286357,47.2100173804418]}},{"type":"Feature","properties":{"geo":{"name":"Maison des Arts - Ecole de Musique"},"_l":[47.2118456412122,-1.61478480933927],"LIBTHEME":"CULTURE","CODE_POSTAL":44800,"WEB":"www.saint-herblain.fr","STATUT":null,"TELEPHONE":"02 40 43 30 56","THEME":1,"COMMUNE":"ST-HERBLAIN","LIBCATEGORIE":"Ecole Culturelle","ADRESSE":"26 Rue de Saint Nazaire","LIBTYPE":null,"_IDOBJ":2125,"TYPE":null,"CATEGORIE":105},"geometry":{"type":"Point","coordinates":[-1.61478480933927,47.2118456412122]}},{"type":"Feature","properties":{"geo":{"name":"Maison des Arts"},"_l":[47.2022146995264,-1.75525575279786],"LIBTHEME":"CULTURE","CODE_POSTAL":44640,"WEB":"www.ville-lepellerin.fr","STATUT":null,"TELEPHONE":"02 40 97 36 27","THEME":1,"COMMUNE":"LE-PELLERIN","LIBCATEGORIE":"Ecole Culturelle","ADRESSE":"12 Rue du Château","LIBTYPE":null,"_IDOBJ":2495,"TYPE":null,"CATEGORIE":105},"geometry":{"type":"Point","coordinates":[-1.75525575279786,47.2022146995264]}},{"type":"Feature","properties":{"geo":{"name":"Maison de la Musique La Montagne"},"_l":[47.1913361642607,-1.6850016507647],"LIBTHEME":"CULTURE","CODE_POSTAL":44620,"WEB":null,"STATUT":null,"TELEPHONE":"02 40 65 65 63","THEME":1,"COMMUNE":"LA-MONTAGNE","LIBCATEGORIE":"Ecole Culturelle","ADRESSE":"92 Rue Violin","LIBTYPE":null,"_IDOBJ":2525,"TYPE":null,"CATEGORIE":105},"geometry":{"type":"Point","coordinates":[-1.6850016507647,47.1913361642607]}},{"type":"Feature","properties":{"geo":{"name":"Maison de la Musique Sinfonia"},"_l":[47.2470474609297,-1.48455170216345],"LIBTHEME":"CULTURE","CODE_POSTAL":44980,"WEB":null,"STATUT":null,"TELEPHONE":"02 40 25 90 92","THEME":1,"COMMUNE":"SAINTE-LUCE-SUR-LOIRE","LIBCATEGORIE":"Ecole Culturelle","ADRESSE":"Allée des Arts","LIBTYPE":null,"_IDOBJ":2582,"TYPE":null,"CATEGORIE":105},"geometry":{"type":"Point","coordinates":[-1.48455170216345,47.2470474609297]}},{"type":"Feature","properties":{"geo":{"name":"Ecole de Musique et de Danse"},"_l":[47.1686879761214,-1.47248060739247],"LIBTHEME":"CULTURE","CODE_POSTAL":44120,"WEB":"www.emd-vertou.fr","STATUT":"Public","TELEPHONE":"02 40 03 45 05","THEME":1,"COMMUNE":"VERTOU","LIBCATEGORIE":"Ecole Culturelle","ADRESSE":"1 Rue Henri Charpentier","LIBTYPE":null,"_IDOBJ":3325,"TYPE":null,"CATEGORIE":105},"geometry":{"type":"Point","coordinates":[-1.47248060739247,47.1686879761214]}},{"type":"Feature","properties":{"geo":{"name":"Ecole de Musique muncipal"},"_l":[47.3004779081493,-1.51340668820858],"LIBTHEME":"CULTURE","CODE_POSTAL":44470,"WEB":"www.carquefou.fr","STATUT":null,"TELEPHONE":"02 28 22 24 10","THEME":1,"COMMUNE":"CARQUEFOU","LIBCATEGORIE":"Ecole Culturelle","ADRESSE":"Allée des Renaudières","LIBTYPE":null,"_IDOBJ":3349,"TYPE":null,"CATEGORIE":105},"geometry":{"type":"Point","coordinates":[-1.51340668820858,47.3004779081493]}},{"type":"Feature","properties":{"geo":{"name":"Ecole de Musique Point d'orgue"},"_l":[47.2183942223093,-1.46393073377844],"LIBTHEME":"CULTURE","CODE_POSTAL":44115,"WEB":"www.basse-goulaine.fr","STATUT":null,"TELEPHONE":"02 40 03 51 58","THEME":1,"COMMUNE":"BASSE-GOULAINE","LIBCATEGORIE":"Ecole Culturelle","ADRESSE":"Square de Theley","LIBTYPE":null,"_IDOBJ":3383,"TYPE":null,"CATEGORIE":105},"geometry":{"type":"Point","coordinates":[-1.46393073377844,47.2183942223093]}},{"type":"Feature","properties":{"geo":{"name":"Ecole de Musique La Chapelle sur Erdre"},"_l":[47.2973079105011,-1.55573662718025],"LIBTHEME":"CULTURE","CODE_POSTAL":44240,"WEB":null,"STATUT":null,"TELEPHONE":"02 40 29 72 94","THEME":1,"COMMUNE":"LA-CHAPELLE-SUR-ERDRE","LIBCATEGORIE":"Ecole Culturelle","ADRESSE":"Rue Léo Lagrange","LIBTYPE":null,"_IDOBJ":3396,"TYPE":null,"CATEGORIE":105},"geometry":{"type":"Point","coordinates":[-1.55573662718025,47.2973079105011]}},{"type":"Feature","properties":{"geo":{"name":"Ecole Boscéenne de Musique et de Danse"},"_l":[47.1487620212862,-1.69630115227065],"LIBTHEME":"CULTURE","CODE_POSTAL":44830,"WEB":null,"STATUT":null,"TELEPHONE":"02 51 70 52 70","THEME":1,"COMMUNE":"BOUAYE","LIBCATEGORIE":"Ecole Culturelle","ADRESSE":"Rue du Stade","LIBTYPE":null,"_IDOBJ":3404,"TYPE":null,"CATEGORIE":105},"geometry":{"type":"Point","coordinates":[-1.69630115227065,47.1487620212862]}},{"type":"Feature","properties":{"geo":{"name":"Le Labo 188"},"_l":[47.2367179606841,-1.51439561097811],"LIBTHEME":"CULTURE","CODE_POSTAL":44300,"WEB":null,"STATUT":null,"TELEPHONE":"02 40 93 80 19","THEME":1,"COMMUNE":"NANTES","LIBCATEGORIE":"Ecole Culturelle","ADRESSE":"Rue des Carnavaliers","LIBTYPE":null,"_IDOBJ":3579,"TYPE":null,"CATEGORIE":105},"geometry":{"type":"Point","coordinates":[-1.51439561097811,47.2367179606841]}},{"type":"Feature","properties":{"geo":{"name":"Ecole de musique"},"_l":[47.2008092849746,-1.66909943199232],"LIBTHEME":"CULTURE","CODE_POSTAL":44610,"WEB":null,"STATUT":null,"TELEPHONE":null,"THEME":1,"COMMUNE":"INDRE","LIBCATEGORIE":"Ecole Culturelle","ADRESSE":"9 Rue de la Gare","LIBTYPE":null,"_IDOBJ":4167,"TYPE":null,"CATEGORIE":105},"geometry":{"type":"Point","coordinates":[-1.66909943199232,47.2008092849746]}},{"type":"Feature","properties":{"geo":{"name":"Ecole de Musique Notes En Stock"},"_l":[47.1477362153356,-1.52330417968145],"LIBTHEME":"CULTURE","CODE_POSTAL":44840,"WEB":"notes-en-stock.pagesperso-orange.fr","STATUT":null,"TELEPHONE":null,"THEME":1,"COMMUNE":"LES-SORINIERES","LIBCATEGORIE":"Ecole Culturelle","ADRESSE":"Rue Hippolyte Derouet","LIBTYPE":null,"_IDOBJ":4174,"TYPE":null,"CATEGORIE":105},"geometry":{"type":"Point","coordinates":[-1.52330417968145,47.1477362153356]}},{"type":"Feature","properties":{"geo":{"name":"Ecole de Danse - Salle Maurice Béjart"},"_l":[47.2186101808308,-1.46394752462963],"LIBTHEME":"CULTURE","CODE_POSTAL":44115,"WEB":null,"STATUT":null,"TELEPHONE":null,"THEME":1,"COMMUNE":"BASSE-GOULAINE","LIBCATEGORIE":"Ecole Culturelle","ADRESSE":"Square de Theley","LIBTYPE":null,"_IDOBJ":4219,"TYPE":null,"CATEGORIE":105},"geometry":{"type":"Point","coordinates":[-1.46394752462963,47.2186101808308]}},{"type":"Feature","properties":{"geo":{"name":"Salle Georges Feydeau"},"_l":[47.2185003265909,-1.46414898016783],"LIBTHEME":"CULTURE","CODE_POSTAL":44115,"WEB":"www.basse-goulaine.fr","STATUT":null,"TELEPHONE":null,"THEME":1,"COMMUNE":"BASSE-GOULAINE","LIBCATEGORIE":"Ecole Culturelle","ADRESSE":"Square de Theley","LIBTYPE":null,"_IDOBJ":4220,"TYPE":null,"CATEGORIE":105},"geometry":{"type":"Point","coordinates":[-1.46414898016783,47.2185003265909]}},{"type":"Feature","properties":{"geo":{"name":"Ecole de Musique"},"_l":[47.2652977448173,-1.68046872624151],"LIBTHEME":"CULTURE","CODE_POSTAL":44880,"WEB":null,"STATUT":null,"TELEPHONE":null,"THEME":1,"COMMUNE":"SAUTRON","LIBCATEGORIE":"Ecole Culturelle","ADRESSE":"25 Rue de la Forêt","LIBTYPE":null,"_IDOBJ":4256,"TYPE":null,"CATEGORIE":105},"geometry":{"type":"Point","coordinates":[-1.68046872624151,47.2652977448173]}},{"type":"Feature","properties":{"geo":{"name":"JAM Jeunes Artistes de Mazaire - scène de musiques amplifiées"},"_l":[47.2965667131571,-1.55624543257656],"LIBTHEME":"CULTURE","CODE_POSTAL":44240,"WEB":"www.lejam.fr","STATUT":null,"TELEPHONE":"02 51 81 87 23","THEME":1,"COMMUNE":"LA-CHAPELLE-SUR-ERDRE","LIBCATEGORIE":"Ecole Culturelle","ADRESSE":"Avenue de Beauregard","LIBTYPE":null,"_IDOBJ":4353,"TYPE":null,"CATEGORIE":105},"geometry":{"type":"Point","coordinates":[-1.55624543257656,47.2965667131571]}},{"type":"Feature","properties":{"geo":{"name":"Le Chapidock - école des arts du cirque"},"_l":[47.2001065411175,-1.57132503027159],"LIBTHEME":"CULTURE","CODE_POSTAL":44200,"WEB":"lezards-animes.com","STATUT":null,"TELEPHONE":"02 28 44 25 84","THEME":1,"COMMUNE":"NANTES","LIBCATEGORIE":"Ecole Culturelle","ADRESSE":"60 Quai Président Wilson","LIBTYPE":null,"_IDOBJ":4513,"TYPE":null,"CATEGORIE":105},"geometry":{"type":"Point","coordinates":[-1.57132503027159,47.2001065411175]}}]}