{"type":"FeatureCollection","features":[{"type":"Feature","properties":{"geo":{"name":"Lycée Professionnel La Chauvinière"},"_l":[47.2524955193136,-1.57162920806731],"LIBTHEME":"ENSEIGNEMENT","CODE_POSTAL":44300,"WEB":null,"STATUT":"Public","TELEPHONE":"02 40 16 71 35","THEME":5,"COMMUNE":"NANTES","LIBCATEGORIE":"Lycée","ADRESSE":"2 Rue de la Fantaisie","LIBTYPE":null,"_IDOBJ":507,"TYPE":null,"CATEGORIE":505},"geometry":{"type":"Point","coordinates":[-1.57162920806731,47.2524955193136]}},{"type":"Feature","properties":{"geo":{"name":"Lycée Gaspard Monge"},"_l":[47.2541944833231,-1.57325271873319],"LIBTHEME":"ENSEIGNEMENT","CODE_POSTAL":44300,"WEB":null,"STATUT":"Public","TELEPHONE":"02 40 16 71 00","THEME":5,"COMMUNE":"NANTES","LIBCATEGORIE":"Lycée","ADRESSE":"2 Rue de la Fantaisie","LIBTYPE":null,"_IDOBJ":509,"TYPE":null,"CATEGORIE":505},"geometry":{"type":"Point","coordinates":[-1.57325271873319,47.2541944833231]}},{"type":"Feature","properties":{"geo":{"name":"Lycée Professionnel Etablissement Régional enseignement Adapté"},"_l":[47.26112824581,-1.56071420550939],"LIBTHEME":"ENSEIGNEMENT","CODE_POSTAL":44300,"WEB":null,"STATUT":"Public","TELEPHONE":"02 40 76 40 05","THEME":5,"COMMUNE":"NANTES","LIBCATEGORIE":"Lycée","ADRESSE":"10 Boulevard Albert Einstein","LIBTYPE":null,"_IDOBJ":512,"TYPE":null,"CATEGORIE":505},"geometry":{"type":"Point","coordinates":[-1.56071420550939,47.26112824581]}},{"type":"Feature","properties":{"geo":{"name":"Lycée La Perverie"},"_l":[47.2421855701218,-1.56280450109139],"LIBTHEME":"ENSEIGNEMENT","CODE_POSTAL":44300,"WEB":"perverie.free.fr","STATUT":"Privé","TELEPHONE":"02 40 14 53 70","THEME":5,"COMMUNE":"NANTES","LIBCATEGORIE":"Lycée","ADRESSE":"63 Rue de la Perverie","LIBTYPE":null,"_IDOBJ":527,"TYPE":null,"CATEGORIE":505},"geometry":{"type":"Point","coordinates":[-1.56280450109139,47.2421855701218]}},{"type":"Feature","properties":{"geo":{"name":"Lycée La Colinière"},"_l":[47.2361682369138,-1.51305666161693],"LIBTHEME":"ENSEIGNEMENT","CODE_POSTAL":44300,"WEB":"perso.wanadoo.fr/lycee.lacoliniere","STATUT":"Public","TELEPHONE":"02 40 93 93 33","THEME":5,"COMMUNE":"NANTES","LIBCATEGORIE":"Lycée","ADRESSE":"129 Rue du Landreau","LIBTYPE":null,"_IDOBJ":534,"TYPE":null,"CATEGORIE":505},"geometry":{"type":"Point","coordinates":[-1.51305666161693,47.2361682369138]}},{"type":"Feature","properties":{"geo":{"name":"Lycée Notre Dame de Toutes Aides"},"_l":[47.2283759657465,-1.51886212094555],"LIBTHEME":"ENSEIGNEMENT","CODE_POSTAL":44300,"WEB":"www.multimania.com/ndtoutesaides","STATUT":"Privé","TELEPHONE":"02 40 49 37 93","THEME":5,"COMMUNE":"NANTES","LIBCATEGORIE":"Lycée","ADRESSE":"33 Boulevard Louis Millet","LIBTYPE":null,"_IDOBJ":546,"TYPE":null,"CATEGORIE":505},"geometry":{"type":"Point","coordinates":[-1.51886212094555,47.2283759657465]}},{"type":"Feature","properties":{"geo":{"name":"Lycée de Bretagne"},"_l":[47.2325553344221,-1.52049010083744],"LIBTHEME":"ENSEIGNEMENT","CODE_POSTAL":44300,"WEB":null,"STATUT":"Privé","TELEPHONE":"02 40 49 21 57","THEME":5,"COMMUNE":"NANTES","LIBCATEGORIE":"Lycée","ADRESSE":"15 Rue du Landreau","LIBTYPE":null,"_IDOBJ":547,"TYPE":null,"CATEGORIE":505},"geometry":{"type":"Point","coordinates":[-1.52049010083744,47.2325553344221]}},{"type":"Feature","properties":{"geo":{"name":"Lycée Professionnel Léonard de Vinci"},"_l":[47.2386791293238,-1.52332594789234],"LIBTHEME":"ENSEIGNEMENT","CODE_POSTAL":44300,"WEB":null,"STATUT":"Public","TELEPHONE":"02 40 50 33 32","THEME":5,"COMMUNE":"NANTES","LIBCATEGORIE":"Lycée","ADRESSE":"31 Rue de la Bottière","LIBTYPE":null,"_IDOBJ":548,"TYPE":null,"CATEGORIE":505},"geometry":{"type":"Point","coordinates":[-1.52332594789234,47.2386791293238]}},{"type":"Feature","properties":{"geo":{"name":"Lycée Blanche de Castille"},"_l":[47.2368166310224,-1.53536215108221],"LIBTHEME":"ENSEIGNEMENT","CODE_POSTAL":44300,"WEB":"www.blanchedecastille.com","STATUT":"Privé","TELEPHONE":"02 40 52 54 60","THEME":5,"COMMUNE":"NANTES","LIBCATEGORIE":"Lycée","ADRESSE":"45 Boulevard Jules Verne","LIBTYPE":null,"_IDOBJ":557,"TYPE":null,"CATEGORIE":505},"geometry":{"type":"Point","coordinates":[-1.53536215108221,47.2368166310224]}},{"type":"Feature","properties":{"geo":{"name":"Lycée Georges Clemenceau"},"_l":[47.2189135151105,-1.54516128099594],"LIBTHEME":"ENSEIGNEMENT","CODE_POSTAL":44000,"WEB":null,"STATUT":"Public","TELEPHONE":"02 51 81 86 10","THEME":5,"COMMUNE":"NANTES","LIBCATEGORIE":"Lycée","ADRESSE":"1 Rue Georges Clemenceau","LIBTYPE":null,"_IDOBJ":560,"TYPE":null,"CATEGORIE":505},"geometry":{"type":"Point","coordinates":[-1.54516128099594,47.2189135151105]}},{"type":"Feature","properties":{"geo":{"name":"Lycée Eugène Livet"},"_l":[47.2249910114744,-1.54617187882003],"LIBTHEME":"ENSEIGNEMENT","CODE_POSTAL":44000,"WEB":null,"STATUT":"Public","TELEPHONE":"02 51 81 23 23","THEME":5,"COMMUNE":"NANTES","LIBCATEGORIE":"Lycée","ADRESSE":"16 Rue Dufour","LIBTYPE":null,"_IDOBJ":565,"TYPE":null,"CATEGORIE":505},"geometry":{"type":"Point","coordinates":[-1.54617187882003,47.2249910114744]}},{"type":"Feature","properties":{"geo":{"name":"Lycée Professionnel Saint Donatien , Immaculée"},"_l":[47.2298467036494,-1.5437245089925],"LIBTHEME":"ENSEIGNEMENT","CODE_POSTAL":44000,"WEB":null,"STATUT":"Privé","TELEPHONE":"02 40 74 50 48","THEME":5,"COMMUNE":"NANTES","LIBCATEGORIE":"Lycée","ADRESSE":"6 Rue Guillet de la Brosse","LIBTYPE":null,"_IDOBJ":571,"TYPE":null,"CATEGORIE":505},"geometry":{"type":"Point","coordinates":[-1.5437245089925,47.2298467036494]}},{"type":"Feature","properties":{"geo":{"name":"Lycée Saint Stanislas"},"_l":[47.2235930680219,-1.55603014666437],"LIBTHEME":"ENSEIGNEMENT","CODE_POSTAL":44000,"WEB":"www.oceanet.fr/Associations/ststanislas","STATUT":"Privé","TELEPHONE":"02 40 20 17 50","THEME":5,"COMMUNE":"NANTES","LIBCATEGORIE":"Lycée","ADRESSE":"2 Rue Saint Stanislas","LIBTYPE":null,"_IDOBJ":585,"TYPE":null,"CATEGORIE":505},"geometry":{"type":"Point","coordinates":[-1.55603014666437,47.2235930680219]}},{"type":"Feature","properties":{"geo":{"name":"Lycée Technique Saint Jean Baptiste de la Salle"},"_l":[47.2320647116796,-1.55948766072506],"LIBTHEME":"ENSEIGNEMENT","CODE_POSTAL":44000,"WEB":"lt-delasalle.fr","STATUT":"Privé","TELEPHONE":"02 40 74 78 31","THEME":5,"COMMUNE":"NANTES","LIBCATEGORIE":"Lycée","ADRESSE":"14 Rue du Ballet","LIBTYPE":null,"_IDOBJ":589,"TYPE":null,"CATEGORIE":505},"geometry":{"type":"Point","coordinates":[-1.55948766072506,47.2320647116796]}},{"type":"Feature","properties":{"geo":{"name":"Lycée Saint Félix"},"_l":[47.2316433015121,-1.56049988203358],"LIBTHEME":"ENSEIGNEMENT","CODE_POSTAL":44000,"WEB":"www.oceanet.fr/Entreprises/feliweb","STATUT":"Privé","TELEPHONE":"02 40 14 50 50","THEME":5,"COMMUNE":"NANTES","LIBCATEGORIE":"Lycée","ADRESSE":"27 Rue du Ballet","LIBTYPE":null,"_IDOBJ":591,"TYPE":null,"CATEGORIE":505},"geometry":{"type":"Point","coordinates":[-1.56049988203358,47.2316433015121]}},{"type":"Feature","properties":{"geo":{"name":"Lycée Professionnel Michelet"},"_l":[47.2357585364338,-1.55784644274806],"LIBTHEME":"ENSEIGNEMENT","CODE_POSTAL":44300,"WEB":null,"STATUT":"Public","TELEPHONE":"02 40 74 95 31","THEME":5,"COMMUNE":"NANTES","LIBCATEGORIE":"Lycée","ADRESSE":"41 Boulevard Michelet","LIBTYPE":null,"_IDOBJ":594,"TYPE":null,"CATEGORIE":505},"geometry":{"type":"Point","coordinates":[-1.55784644274806,47.2357585364338]}},{"type":"Feature","properties":{"geo":{"name":"Lycée TechniqueTalensac"},"_l":[47.2220045402852,-1.5588698245193],"LIBTHEME":"ENSEIGNEMENT","CODE_POSTAL":44000,"WEB":null,"STATUT":"Privé","TELEPHONE":"02 51 72 95 10","THEME":5,"COMMUNE":"NANTES","LIBCATEGORIE":"Lycée","ADRESSE":"18 Rue de Talensac","LIBTYPE":null,"_IDOBJ":607,"TYPE":null,"CATEGORIE":505},"geometry":{"type":"Point","coordinates":[-1.5588698245193,47.2220045402852]}},{"type":"Feature","properties":{"geo":{"name":"Lycée Jules Verne"},"_l":[47.2173060276682,-1.56165967788821],"LIBTHEME":"ENSEIGNEMENT","CODE_POSTAL":44000,"WEB":null,"STATUT":"Public","TELEPHONE":"02 40 12 27 12","THEME":5,"COMMUNE":"NANTES","LIBCATEGORIE":"Lycée","ADRESSE":"1 Rue Général Meusnier","LIBTYPE":null,"_IDOBJ":617,"TYPE":null,"CATEGORIE":505},"geometry":{"type":"Point","coordinates":[-1.56165967788821,47.2173060276682]}},{"type":"Feature","properties":{"geo":{"name":"Lycée Professionnel Leloup Bouhier"},"_l":[47.2101594367368,-1.57282856492763],"LIBTHEME":"ENSEIGNEMENT","CODE_POSTAL":44100,"WEB":null,"STATUT":"Public","TELEPHONE":"02 40 73 16 34","THEME":5,"COMMUNE":"NANTES","LIBCATEGORIE":"Lycée","ADRESSE":"11 Boulevard de Launay","LIBTYPE":null,"_IDOBJ":620,"TYPE":null,"CATEGORIE":505},"geometry":{"type":"Point","coordinates":[-1.57282856492763,47.2101594367368]}},{"type":"Feature","properties":{"geo":{"name":"Lycée Gabriel Guist'hau"},"_l":[47.2161776212199,-1.56881548785458],"LIBTHEME":"ENSEIGNEMENT","CODE_POSTAL":44000,"WEB":"ecole.wanadoo.fr/lycee.guisthau","STATUT":"Public","TELEPHONE":"02 51 84 82 23","THEME":5,"COMMUNE":"NANTES","LIBCATEGORIE":"Lycée","ADRESSE":"3 Rue Marie Anne du Boccage","LIBTYPE":null,"_IDOBJ":626,"TYPE":null,"CATEGORIE":505},"geometry":{"type":"Point","coordinates":[-1.56881548785458,47.2161776212199]}},{"type":"Feature","properties":{"geo":{"name":"Lycée Françoise d'Amboise Chavagnes"},"_l":[47.2176605386871,-1.56995775586302],"LIBTHEME":"ENSEIGNEMENT","CODE_POSTAL":44000,"WEB":"http://www.chavagnes.com/","STATUT":"Privé","TELEPHONE":"02 51 84 91 30","THEME":5,"COMMUNE":"NANTES","LIBCATEGORIE":"Lycée","ADRESSE":"11 Rue Mondésir","LIBTYPE":null,"_IDOBJ":628,"TYPE":null,"CATEGORIE":505},"geometry":{"type":"Point","coordinates":[-1.56995775586302,47.2176605386871]}},{"type":"Feature","properties":{"geo":{"name":"Lycée Externat des Enfants Nantais"},"_l":[47.218779484162,-1.57247589544074],"LIBTHEME":"ENSEIGNEMENT","CODE_POSTAL":44000,"WEB":null,"STATUT":"Privé","TELEPHONE":"02 40 20 00 60","THEME":5,"COMMUNE":"NANTES","LIBCATEGORIE":"Lycée","ADRESSE":"31 Avenue Camus","LIBTYPE":null,"_IDOBJ":631,"TYPE":null,"CATEGORIE":505},"geometry":{"type":"Point","coordinates":[-1.57247589544074,47.218779484162]}},{"type":"Feature","properties":{"geo":{"name":"Lycée Vial"},"_l":[47.2181017965334,-1.5674956404302],"LIBTHEME":"ENSEIGNEMENT","CODE_POSTAL":44000,"WEB":null,"STATUT":"Public","TELEPHONE":"02 40 20 27 20","THEME":5,"COMMUNE":"NANTES","LIBCATEGORIE":"Lycée","ADRESSE":"12 Rue du 14 Juillet","LIBTYPE":null,"_IDOBJ":633,"TYPE":null,"CATEGORIE":505},"geometry":{"type":"Point","coordinates":[-1.5674956404302,47.2181017965334]}},{"type":"Feature","properties":{"geo":{"name":"Lycée Professionnelle de la Coiffure Pierre Masson"},"_l":[47.2104679135753,-1.56790531303718],"LIBTHEME":"ENSEIGNEMENT","CODE_POSTAL":44100,"WEB":null,"STATUT":"Privé","TELEPHONE":"02 40 71 06 52","THEME":5,"COMMUNE":"NANTES","LIBCATEGORIE":"Lycée","ADRESSE":"14 Rue d'Alger","LIBTYPE":null,"_IDOBJ":649,"TYPE":null,"CATEGORIE":505},"geometry":{"type":"Point","coordinates":[-1.56790531303718,47.2104679135753]}},{"type":"Feature","properties":{"geo":{"name":"Lycée Professionnel Talensac"},"_l":[47.2232834577054,-1.55936973959414],"LIBTHEME":"ENSEIGNEMENT","CODE_POSTAL":44000,"WEB":null,"STATUT":"Privé","TELEPHONE":null,"THEME":5,"COMMUNE":"NANTES","LIBCATEGORIE":"Lycée","ADRESSE":"47 Rue de Bel Air","LIBTYPE":null,"_IDOBJ":650,"TYPE":null,"CATEGORIE":505},"geometry":{"type":"Point","coordinates":[-1.55936973959414,47.2232834577054]}},{"type":"Feature","properties":{"geo":{"name":"Lycée Professionnel François Arago"},"_l":[47.2507257576709,-1.55260468479964],"LIBTHEME":"ENSEIGNEMENT","CODE_POSTAL":44300,"WEB":null,"STATUT":"Public","TELEPHONE":"02 40 74 25 10","THEME":5,"COMMUNE":"NANTES","LIBCATEGORIE":"Lycée","ADRESSE":"23 Rue Recteur Schmitt","LIBTYPE":null,"_IDOBJ":651,"TYPE":null,"CATEGORIE":505},"geometry":{"type":"Point","coordinates":[-1.55260468479964,47.2507257576709]}},{"type":"Feature","properties":{"geo":{"name":"Lycée Professionnel Les Bourdonnières"},"_l":[47.185268405608,-1.51811786887319],"LIBTHEME":"ENSEIGNEMENT","CODE_POSTAL":44200,"WEB":"bourdonnieres.paysdelaloire.e-lyco.fr","STATUT":"Public","TELEPHONE":"02 40 34 02 60","THEME":5,"COMMUNE":"NANTES","LIBCATEGORIE":"Lycée","ADRESSE":"6 Rue de la Perrière","LIBTYPE":null,"_IDOBJ":682,"TYPE":null,"CATEGORIE":505},"geometry":{"type":"Point","coordinates":[-1.51811786887319,47.185268405608]}},{"type":"Feature","properties":{"geo":{"name":"Lycée Notre Dame de l'Abbaye"},"_l":[47.2008725399245,-1.59578041472357],"LIBTHEME":"ENSEIGNEMENT","CODE_POSTAL":44100,"WEB":null,"STATUT":"Privé","TELEPHONE":"02 40 58 67 83","THEME":5,"COMMUNE":"NANTES","LIBCATEGORIE":"Lycée","ADRESSE":"38B Rue de l'Abbaye","LIBTYPE":null,"_IDOBJ":683,"TYPE":null,"CATEGORIE":505},"geometry":{"type":"Point","coordinates":[-1.59578041472357,47.2008725399245]}},{"type":"Feature","properties":{"geo":{"name":"Lycée Saint Joseph du Loquidy"},"_l":[47.2366410919951,-1.55719088916906],"LIBTHEME":"ENSEIGNEMENT","CODE_POSTAL":44300,"WEB":"perso.wanadoo.fr/loquidy","STATUT":"Privé","TELEPHONE":"02 40 74 03 12","THEME":5,"COMMUNE":"NANTES","LIBCATEGORIE":"Lycée","ADRESSE":"73 Boulevard Michelet","LIBTYPE":null,"_IDOBJ":752,"TYPE":null,"CATEGORIE":505},"geometry":{"type":"Point","coordinates":[-1.55719088916906,47.2366410919951]}},{"type":"Feature","properties":{"geo":{"name":"Lycée Technique Saint Félix"},"_l":[47.2315444178922,-1.56090457952964],"LIBTHEME":"ENSEIGNEMENT","CODE_POSTAL":44000,"WEB":null,"STATUT":"Privé","TELEPHONE":"02 40 14 50 50","THEME":5,"COMMUNE":"NANTES","LIBCATEGORIE":"Lycée","ADRESSE":"27 Rue du Ballet","LIBTYPE":null,"_IDOBJ":1203,"TYPE":null,"CATEGORIE":505},"geometry":{"type":"Point","coordinates":[-1.56090457952964,47.2315444178922]}},{"type":"Feature","properties":{"geo":{"name":"Lycée Sainte Catherine de Sienne hors contrat"},"_l":[47.21889602652,-1.56634117046492],"LIBTHEME":"ENSEIGNEMENT","CODE_POSTAL":44000,"WEB":null,"STATUT":"Privé","TELEPHONE":"02 40 20 22 01","THEME":5,"COMMUNE":"NANTES","LIBCATEGORIE":"Lycée","ADRESSE":"32 Rue de la Bastille","LIBTYPE":null,"_IDOBJ":1225,"TYPE":null,"CATEGORIE":505},"geometry":{"type":"Point","coordinates":[-1.56634117046492,47.21889602652]}},{"type":"Feature","properties":{"geo":{"name":"Lycée Professionnel Ecole Nantaise de Commerce d'Informatique et Administration"},"_l":[47.2141809754479,-1.55971611849537],"LIBTHEME":"ENSEIGNEMENT","CODE_POSTAL":44000,"WEB":"www.enacom.fr","STATUT":"Privé","TELEPHONE":"02 40 48 40 24","THEME":5,"COMMUNE":"NANTES","LIBCATEGORIE":"Lycée","ADRESSE":"6 Rue Crébillon","LIBTYPE":null,"_IDOBJ":1254,"TYPE":null,"CATEGORIE":505},"geometry":{"type":"Point","coordinates":[-1.55971611849537,47.2141809754479]}},{"type":"Feature","properties":{"geo":{"name":"Lycée Privé Technique Jeanne Bernard"},"_l":[47.235981378873,-1.59209450876761],"LIBTHEME":"ENSEIGNEMENT","CODE_POSTAL":44800,"WEB":"www.talensac.com","STATUT":"Privé","TELEPHONE":"02 40 76 40 97","THEME":5,"COMMUNE":"ST-HERBLAIN","LIBCATEGORIE":"Lycée","ADRESSE":"48 Avenue de la Baraudière","LIBTYPE":null,"_IDOBJ":1907,"TYPE":null,"CATEGORIE":505},"geometry":{"type":"Point","coordinates":[-1.59209450876761,47.235981378873]}},{"type":"Feature","properties":{"geo":{"name":"Lycée des Métiers Nicolas Appert"},"_l":[47.2522262549577,-1.60910901066559],"LIBTHEME":"ENSEIGNEMENT","CODE_POSTAL":44700,"WEB":"www.appert.e-lyco.fr","STATUT":"Public","TELEPHONE":"02 51 78 22 00","THEME":5,"COMMUNE":"ORVAULT","LIBCATEGORIE":"Lycée","ADRESSE":"24 Avenue de la Cholière","LIBTYPE":null,"_IDOBJ":1951,"TYPE":null,"CATEGORIE":505},"geometry":{"type":"Point","coordinates":[-1.60910901066559,47.2522262549577]}},{"type":"Feature","properties":{"geo":{"name":"Lycée Professionnel les Savarières"},"_l":[47.2091583288446,-1.48850173943206],"LIBTHEME":"ENSEIGNEMENT","CODE_POSTAL":44230,"WEB":null,"STATUT":"Public","TELEPHONE":"02 40 80 54 84","THEME":5,"COMMUNE":"ST-SEBASTIEN","LIBCATEGORIE":"Lycée","ADRESSE":"5 Avenue de Glinde","LIBTYPE":null,"_IDOBJ":2012,"TYPE":null,"CATEGORIE":505},"geometry":{"type":"Point","coordinates":[-1.48850173943206,47.2091583288446]}},{"type":"Feature","properties":{"geo":{"name":"Lycée Privé Professionnel La Baugerie"},"_l":[47.2057563052032,-1.51894771342441],"LIBTHEME":"ENSEIGNEMENT","CODE_POSTAL":44230,"WEB":null,"STATUT":"Privé","TELEPHONE":"02 40 80 66 95","THEME":5,"COMMUNE":"ST-SEBASTIEN","LIBCATEGORIE":"Lycée","ADRESSE":"Boulevard des Pas Enchantés","LIBTYPE":null,"_IDOBJ":2013,"TYPE":null,"CATEGORIE":505},"geometry":{"type":"Point","coordinates":[-1.51894771342441,47.2057563052032]}},{"type":"Feature","properties":{"geo":{"name":"Lycée Privé Technique Tertiaire Saint Pierre La Joliverie"},"_l":[47.1913570612988,-1.5150461688086],"LIBTHEME":"ENSEIGNEMENT","CODE_POSTAL":44230,"WEB":null,"STATUT":"Privé","TELEPHONE":"02 40 80 82 00","THEME":5,"COMMUNE":"ST-SEBASTIEN","LIBCATEGORIE":"Lycée","ADRESSE":"141B Route de Clisson","LIBTYPE":null,"_IDOBJ":2014,"TYPE":null,"CATEGORIE":505},"geometry":{"type":"Point","coordinates":[-1.5150461688086,47.1913570612988]}},{"type":"Feature","properties":{"geo":{"name":"Lycee Prive Technique Industriel Saint Joseph La Joliverie"},"_l":[47.1907791123497,-1.51681565156896],"LIBTHEME":"ENSEIGNEMENT","CODE_POSTAL":44230,"WEB":null,"STATUT":"Privé","TELEPHONE":"02 40 80 25 80","THEME":5,"COMMUNE":"ST-SEBASTIEN","LIBCATEGORIE":"Lycée","ADRESSE":"141B Route de Clisson","LIBTYPE":null,"_IDOBJ":2015,"TYPE":null,"CATEGORIE":505},"geometry":{"type":"Point","coordinates":[-1.51681565156896,47.1907791123497]}},{"type":"Feature","properties":{"geo":{"name":"Lycée Professionnel Pablo Néruda"},"_l":[47.1713327085739,-1.62287559502891],"LIBTHEME":"ENSEIGNEMENT","CODE_POSTAL":44340,"WEB":"pablo-neruda.paysdelaloire.e-lyco.fr","STATUT":"Public","TELEPHONE":"02 40 32 02 49","THEME":5,"COMMUNE":"BOUGUENAIS","LIBCATEGORIE":"Lycée","ADRESSE":"Rue Pablo Neruda","LIBTYPE":null,"_IDOBJ":2084,"TYPE":null,"CATEGORIE":505},"geometry":{"type":"Point","coordinates":[-1.62287559502891,47.1713327085739]}},{"type":"Feature","properties":{"geo":{"name":"Lycée Professionnel Hôtelier Privé Daniel Brottier"},"_l":[47.1868719345651,-1.5856762964421],"LIBTHEME":"ENSEIGNEMENT","CODE_POSTAL":44340,"WEB":"www.ville-bouguenais.fr","STATUT":"Privé","TELEPHONE":"02 40 65 29 90","THEME":5,"COMMUNE":"BOUGUENAIS","LIBCATEGORIE":"Lycée","ADRESSE":"Rue de la Loire","LIBTYPE":null,"_IDOBJ":2085,"TYPE":null,"CATEGORIE":505},"geometry":{"type":"Point","coordinates":[-1.5856762964421,47.1868719345651]}},{"type":"Feature","properties":{"geo":{"name":"Lycee Agricole Jules Rieffel"},"_l":[47.2528460254792,-1.64145615456461],"LIBTHEME":"ENSEIGNEMENT","CODE_POSTAL":44800,"WEB":null,"STATUT":"Public","TELEPHONE":"02 40 94 99 30","THEME":5,"COMMUNE":"ST-HERBLAIN","LIBCATEGORIE":"Lycée","ADRESSE":"5 Rue de la Syonnière","LIBTYPE":null,"_IDOBJ":2135,"TYPE":null,"CATEGORIE":505},"geometry":{"type":"Point","coordinates":[-1.64145615456461,47.2528460254792]}},{"type":"Feature","properties":{"geo":{"name":"Lycee Saint Dominique"},"_l":[47.2428986607392,-1.60406253592319],"LIBTHEME":"ENSEIGNEMENT","CODE_POSTAL":44800,"WEB":"www.saint-herblain.fr","STATUT":"Privé","TELEPHONE":"02 28 01 72 72","THEME":5,"COMMUNE":"ST-HERBLAIN","LIBCATEGORIE":"Lycée","ADRESSE":"103B Avenue de Cheverny","LIBTYPE":null,"_IDOBJ":2210,"TYPE":null,"CATEGORIE":505},"geometry":{"type":"Point","coordinates":[-1.60406253592319,47.2428986607392]}},{"type":"Feature","properties":{"geo":{"name":"Lycée Général et Technologique La Herdrie"},"_l":[47.1978020518969,-1.44974619496107],"LIBTHEME":"ENSEIGNEMENT","CODE_POSTAL":44115,"WEB":null,"STATUT":"Public","TELEPHONE":"02 51 71 32 00","THEME":5,"COMMUNE":"BASSE-GOULAINE","LIBCATEGORIE":"Lycée","ADRESSE":"81 Rue de la Basse Lande","LIBTYPE":null,"_IDOBJ":2813,"TYPE":null,"CATEGORIE":505},"geometry":{"type":"Point","coordinates":[-1.44974619496107,47.1978020518969]}},{"type":"Feature","properties":{"geo":{"name":"Lycée Général et Technologique Alcide d'Orbigny"},"_l":[47.1558116706201,-1.68024055250338],"LIBTHEME":"ENSEIGNEMENT","CODE_POSTAL":44830,"WEB":null,"STATUT":"Public","TELEPHONE":"02 51 70 55 11","THEME":5,"COMMUNE":"BOUAYE","LIBCATEGORIE":"Lycée","ADRESSE":"Esplanade de l'Edit de Nantes","LIBTYPE":null,"_IDOBJ":2815,"TYPE":null,"CATEGORIE":505},"geometry":{"type":"Point","coordinates":[-1.68024055250338,47.1558116706201]}},{"type":"Feature","properties":{"geo":{"name":"Lycée Professionnel Jean Jacques Audubon"},"_l":[47.2148147054545,-1.7238740944728],"LIBTHEME":"ENSEIGNEMENT","CODE_POSTAL":44220,"WEB":null,"STATUT":"Public","TELEPHONE":"02 40 86 11 67","THEME":5,"COMMUNE":"COUERON","LIBCATEGORIE":"Lycée","ADRESSE":"Boulevard Paul Langevin","LIBTYPE":null,"_IDOBJ":2816,"TYPE":null,"CATEGORIE":505},"geometry":{"type":"Point","coordinates":[-1.7238740944728,47.2148147054545]}},{"type":"Feature","properties":{"geo":{"name":"Lycée d'Enseignement Agricole Privé Centre de Formation Professionnel Saint Gabr"},"_l":[47.2035334981134,-1.7689232665522],"LIBTHEME":"ENSEIGNEMENT","CODE_POSTAL":44640,"WEB":"www.saint-gabriel-nantes-ocean.fr","STATUT":"Privé","TELEPHONE":"08 10 05 64 05","THEME":5,"COMMUNE":"LE-PELLERIN","LIBCATEGORIE":"Lycée","ADRESSE":"Allée du Bois Tillac","LIBTYPE":null,"_IDOBJ":2817,"TYPE":null,"CATEGORIE":505},"geometry":{"type":"Point","coordinates":[-1.7689232665522,47.2035334981134]}},{"type":"Feature","properties":{"geo":{"name":"Lycée Général et Technologique Jean Pérrin"},"_l":[47.1812877384222,-1.55976686145892],"LIBTHEME":"ENSEIGNEMENT","CODE_POSTAL":44400,"WEB":null,"STATUT":"Public","TELEPHONE":"02 40 32 44 00","THEME":5,"COMMUNE":"REZE","LIBCATEGORIE":"Lycée","ADRESSE":"Rue du Château de Rezé","LIBTYPE":null,"_IDOBJ":2818,"TYPE":null,"CATEGORIE":505},"geometry":{"type":"Point","coordinates":[-1.55976686145892,47.1812877384222]}},{"type":"Feature","properties":{"geo":{"name":"Lycée Professionnel Jean Louis Goussier"},"_l":[47.1811356048672,-1.5594927653824],"LIBTHEME":"ENSEIGNEMENT","CODE_POSTAL":44400,"WEB":null,"STATUT":"Public","TELEPHONE":"02 40 32 44 00","THEME":5,"COMMUNE":"REZE","LIBCATEGORIE":"Lycée","ADRESSE":"Rue du Château de Rezé","LIBTYPE":null,"_IDOBJ":2819,"TYPE":null,"CATEGORIE":505},"geometry":{"type":"Point","coordinates":[-1.5594927653824,47.1811356048672]}},{"type":"Feature","properties":{"geo":{"name":"Lycée Professionnel Notre Dame"},"_l":[47.1878111559182,-1.54733166382256],"LIBTHEME":"ENSEIGNEMENT","CODE_POSTAL":44400,"WEB":"www.notre-dame-reze.fr","STATUT":"Privé","TELEPHONE":"02 40 32 87 87","THEME":5,"COMMUNE":"REZE","LIBCATEGORIE":"Lycée","ADRESSE":"50 Rue Jean Jaurès","LIBTYPE":null,"_IDOBJ":2820,"TYPE":null,"CATEGORIE":505},"geometry":{"type":"Point","coordinates":[-1.54733166382256,47.1878111559182]}},{"type":"Feature","properties":{"geo":{"name":"Lycée Général Les Bourdonnières"},"_l":[47.1862714556632,-1.52005900444297],"LIBTHEME":"ENSEIGNEMENT","CODE_POSTAL":44200,"WEB":"bourdonnieres.paysdelaloire.e-lyco.fr","STATUT":"Public","TELEPHONE":"02 40 34 02 60","THEME":5,"COMMUNE":"NANTES","LIBCATEGORIE":"Lycée","ADRESSE":"6 Rue de la Perrière","LIBTYPE":null,"_IDOBJ":416,"TYPE":null,"CATEGORIE":505},"geometry":{"type":"Point","coordinates":[-1.52005900444297,47.1862714556632]}},{"type":"Feature","properties":{"geo":{"name":"Lycée Professionnel Louis Antoine de Bougainville"},"_l":[47.1982474254362,-1.59280219076573],"LIBTHEME":"ENSEIGNEMENT","CODE_POSTAL":44100,"WEB":null,"STATUT":"Public","TELEPHONE":"02 51 80 24 00","THEME":5,"COMMUNE":"NANTES","LIBCATEGORIE":"Lycée","ADRESSE":"2 Rue Eugène Le Roux","LIBTYPE":null,"_IDOBJ":449,"TYPE":null,"CATEGORIE":505},"geometry":{"type":"Point","coordinates":[-1.59280219076573,47.1982474254362]}},{"type":"Feature","properties":{"geo":{"name":"Lycée Albert Camus"},"_l":[47.2048807789565,-1.60890897855634],"LIBTHEME":"ENSEIGNEMENT","CODE_POSTAL":44100,"WEB":"perso.wanadoo.fr/lycee.camus","STATUT":"Public","TELEPHONE":"02 51 80 64 64","THEME":5,"COMMUNE":"NANTES","LIBCATEGORIE":"Lycée","ADRESSE":"11 Rue Etienne Coutan","LIBTYPE":null,"_IDOBJ":454,"TYPE":null,"CATEGORIE":505},"geometry":{"type":"Point","coordinates":[-1.60890897855634,47.2048807789565]}},{"type":"Feature","properties":{"geo":{"name":"Lycée Technique Sacré Coeur"},"_l":[47.2073378222075,-1.60911189499045],"LIBTHEME":"ENSEIGNEMENT","CODE_POSTAL":44100,"WEB":null,"STATUT":"Privé","TELEPHONE":"02 40 46 49 92","THEME":5,"COMMUNE":"NANTES","LIBCATEGORIE":"Lycée","ADRESSE":"3 Rue Francis Portais","LIBTYPE":null,"_IDOBJ":460,"TYPE":null,"CATEGORIE":505},"geometry":{"type":"Point","coordinates":[-1.60911189499045,47.2073378222075]}},{"type":"Feature","properties":{"geo":{"name":"Lycée Carcouët"},"_l":[47.2300435473292,-1.59430073093355],"LIBTHEME":"ENSEIGNEMENT","CODE_POSTAL":44100,"WEB":null,"STATUT":"Public","TELEPHONE":"02 40 16 18 18","THEME":5,"COMMUNE":"NANTES","LIBCATEGORIE":"Lycée","ADRESSE":"115 Boulevard du Massacre","LIBTYPE":null,"_IDOBJ":476,"TYPE":null,"CATEGORIE":505},"geometry":{"type":"Point","coordinates":[-1.59430073093355,47.2300435473292]}},{"type":"Feature","properties":{"geo":{"name":"Lycée Professionnel Maritime des Pays de Loire"},"_l":[47.2408096644989,-1.54574481120302],"LIBTHEME":"ENSEIGNEMENT","CODE_POSTAL":44300,"WEB":null,"STATUT":"Public","TELEPHONE":"02 40 50 51 01","THEME":5,"COMMUNE":"NANTES","LIBCATEGORIE":"Lycée","ADRESSE":"Rue du Port Boyer","LIBTYPE":null,"_IDOBJ":481,"TYPE":null,"CATEGORIE":505},"geometry":{"type":"Point","coordinates":[-1.54574481120302,47.2408096644989]}},{"type":"Feature","properties":{"geo":{"name":"Lycée Général et Technologique Notre Dame"},"_l":[47.1831784968626,-1.54510257939524],"LIBTHEME":"ENSEIGNEMENT","CODE_POSTAL":44400,"WEB":"www.notre-dame-reze.fr","STATUT":"Privé","TELEPHONE":"02 40 32 87 87","THEME":5,"COMMUNE":"REZE","LIBCATEGORIE":"Lycée","ADRESSE":"Rue Gendron","LIBTYPE":null,"_IDOBJ":3265,"TYPE":null,"CATEGORIE":505},"geometry":{"type":"Point","coordinates":[-1.54510257939524,47.1831784968626]}},{"type":"Feature","properties":{"geo":{"name":"Lycée agricole Daniel Brottier"},"_l":[47.1612898330105,-1.67634284202548],"LIBTHEME":"ENSEIGNEMENT","CODE_POSTAL":44830,"WEB":null,"STATUT":"Privé","TELEPHONE":null,"THEME":5,"COMMUNE":"BOUAYE","LIBCATEGORIE":"Lycée","ADRESSE":"Allée Daniel Brottier","LIBTYPE":null,"_IDOBJ":3581,"TYPE":null,"CATEGORIE":505},"geometry":{"type":"Point","coordinates":[-1.67634284202548,47.1612898330105]}},{"type":"Feature","properties":{"geo":{"name":"Lycéee International de Nantes"},"_l":[47.2081178665622,-1.53368937395892],"LIBTHEME":"ENSEIGNEMENT","CODE_POSTAL":44200,"WEB":"http://iledenantes.paysdelaloire.e-lyco.fr/","STATUT":null,"TELEPHONE":"07 61 61 27 20","THEME":5,"COMMUNE":"NANTES","LIBCATEGORIE":"Lycée","ADRESSE":"Rue Gaëtan Rondeau","LIBTYPE":null,"_IDOBJ":4759,"TYPE":null,"CATEGORIE":505},"geometry":{"type":"Point","coordinates":[-1.53368937395892,47.2081178665622]}}]}