{"type":"FeatureCollection","features":[{"type":"Feature","properties":{"geo":{"name":"Elémentaire George Sand"},"_l":[47.2592130387613,-1.56927623879586],"LIBTHEME":"ENSEIGNEMENT","CODE_POSTAL":44300,"WEB":null,"STATUT":"Public","TELEPHONE":"02 40 76 59 61","THEME":5,"COMMUNE":"NANTES","LIBCATEGORIE":"Elémentaire","ADRESSE":"83 Rue des Renards","LIBTYPE":null,"_IDOBJ":510,"TYPE":null,"CATEGORIE":502},"geometry":{"type":"Point","coordinates":[-1.56927623879586,47.2592130387613]}},{"type":"Feature","properties":{"geo":{"name":"Elémentaire Ange Guépin"},"_l":[47.2176082410212,-1.5191304391889],"LIBTHEME":"ENSEIGNEMENT","CODE_POSTAL":44000,"WEB":"www.nantes.fr","STATUT":"Public","TELEPHONE":"02 40 49 01 46","THEME":5,"COMMUNE":"NANTES","LIBCATEGORIE":"Elémentaire","ADRESSE":"4 Rue de la Révolution des Oeillets","LIBTYPE":null,"_IDOBJ":536,"TYPE":null,"CATEGORIE":502},"geometry":{"type":"Point","coordinates":[-1.5191304391889,47.2176082410212]}},{"type":"Feature","properties":{"geo":{"name":"Elémentaire Champenois"},"_l":[47.2256367941699,-1.52639844649917],"LIBTHEME":"ENSEIGNEMENT","CODE_POSTAL":44000,"WEB":null,"STATUT":"Public","TELEPHONE":"02 40 49 37 66","THEME":5,"COMMUNE":"NANTES","LIBCATEGORIE":"Elémentaire","ADRESSE":"8 Rue Champenois","LIBTYPE":null,"_IDOBJ":543,"TYPE":null,"CATEGORIE":502},"geometry":{"type":"Point","coordinates":[-1.52639844649917,47.2256367941699]}},{"type":"Feature","properties":{"geo":{"name":"Elémentaire François Dallet"},"_l":[47.2338154250183,-1.53358100424571],"LIBTHEME":"ENSEIGNEMENT","CODE_POSTAL":44300,"WEB":null,"STATUT":"Public","TELEPHONE":"02 40 49 53 26","THEME":5,"COMMUNE":"NANTES","LIBCATEGORIE":"Elémentaire","ADRESSE":"148 Boulevard des Poilus","LIBTYPE":null,"_IDOBJ":554,"TYPE":null,"CATEGORIE":502},"geometry":{"type":"Point","coordinates":[-1.53358100424571,47.2338154250183]}},{"type":"Feature","properties":{"geo":{"name":"Elémentaire Don Bosco"},"_l":[47.2382705679142,-1.53368550960205],"LIBTHEME":"ENSEIGNEMENT","CODE_POSTAL":44300,"WEB":null,"STATUT":"Privé","TELEPHONE":"02 40 49 79 27","THEME":5,"COMMUNE":"NANTES","LIBCATEGORIE":"Elémentaire","ADRESSE":"9 Rue du Moulin des Carmes","LIBTYPE":null,"_IDOBJ":555,"TYPE":null,"CATEGORIE":502},"geometry":{"type":"Point","coordinates":[-1.53368550960205,47.2382705679142]}},{"type":"Feature","properties":{"geo":{"name":"Elémentaire Coudray"},"_l":[47.2332357110773,-1.54338305920416],"LIBTHEME":"ENSEIGNEMENT","CODE_POSTAL":44000,"WEB":null,"STATUT":"Public","TELEPHONE":"02 40 49 43 35","THEME":5,"COMMUNE":"NANTES","LIBCATEGORIE":"Elémentaire","ADRESSE":"20 Rue du Coudray","LIBTYPE":null,"_IDOBJ":573,"TYPE":null,"CATEGORIE":502},"geometry":{"type":"Point","coordinates":[-1.54338305920416,47.2332357110773]}},{"type":"Feature","properties":{"geo":{"name":"Elémentaire Emile Péhant"},"_l":[47.2125926608273,-1.54837185848601],"LIBTHEME":"ENSEIGNEMENT","CODE_POSTAL":44000,"WEB":"www.ecoles.mairie-nantes.fr","STATUT":"Public","TELEPHONE":"02 40 47 90 23","THEME":5,"COMMUNE":"NANTES","LIBCATEGORIE":"Elémentaire","ADRESSE":"24 Rue Emile Péhant","LIBTYPE":null,"_IDOBJ":575,"TYPE":null,"CATEGORIE":502},"geometry":{"type":"Point","coordinates":[-1.54837185848601,47.2125926608273]}},{"type":"Feature","properties":{"geo":{"name":"Elémentaire Léon Blum"},"_l":[47.2189732470659,-1.55613565228919],"LIBTHEME":"ENSEIGNEMENT","CODE_POSTAL":44000,"WEB":null,"STATUT":"Public","TELEPHONE":"02 40 47 43 63","THEME":5,"COMMUNE":"NANTES","LIBCATEGORIE":"Elémentaire","ADRESSE":"5 Rue Léon Blum","LIBTYPE":null,"_IDOBJ":580,"TYPE":null,"CATEGORIE":502},"geometry":{"type":"Point","coordinates":[-1.55613565228919,47.2189732470659]}},{"type":"Feature","properties":{"geo":{"name":"Elémentaire Jean Jaurès"},"_l":[47.2193832189496,-1.55999903978992],"LIBTHEME":"ENSEIGNEMENT","CODE_POSTAL":44000,"WEB":null,"STATUT":"Public","TELEPHONE":"02 40 20 38 92","THEME":5,"COMMUNE":"NANTES","LIBCATEGORIE":"Elémentaire","ADRESSE":"11 Rue Jean Jaurès","LIBTYPE":null,"_IDOBJ":609,"TYPE":null,"CATEGORIE":502},"geometry":{"type":"Point","coordinates":[-1.55999903978992,47.2193832189496]}},{"type":"Feature","properties":{"geo":{"name":"Elémentaire André Lermite"},"_l":[47.2121479909183,-1.57088675619118],"LIBTHEME":"ENSEIGNEMENT","CODE_POSTAL":44100,"WEB":"www.ecoles.mairie-nantes.fr","STATUT":"Public","TELEPHONE":"02 40 69 85 14","THEME":5,"COMMUNE":"NANTES","LIBCATEGORIE":"Elémentaire","ADRESSE":"1 Rue Evariste Luminais","LIBTYPE":null,"_IDOBJ":621,"TYPE":null,"CATEGORIE":502},"geometry":{"type":"Point","coordinates":[-1.57088675619118,47.2121479909183]}},{"type":"Feature","properties":{"geo":{"name":"Elémentaire Boccage"},"_l":[47.2156338318123,-1.57071970058403],"LIBTHEME":"ENSEIGNEMENT","CODE_POSTAL":44000,"WEB":null,"STATUT":"Public","TELEPHONE":"02 40 73 38 85","THEME":5,"COMMUNE":"NANTES","LIBCATEGORIE":"Elémentaire","ADRESSE":"22B Rue Marie Anne du Boccage","LIBTYPE":null,"_IDOBJ":624,"TYPE":null,"CATEGORIE":502},"geometry":{"type":"Point","coordinates":[-1.57071970058403,47.2156338318123]}},{"type":"Feature","properties":{"geo":{"name":"Elémentaire Jacques Prévert"},"_l":[47.2297548043657,-1.58409482983182],"LIBTHEME":"ENSEIGNEMENT","CODE_POSTAL":44100,"WEB":null,"STATUT":"Public","TELEPHONE":"02 40 76 41 52","THEME":5,"COMMUNE":"NANTES","LIBCATEGORIE":"Elémentaire","ADRESSE":"34 Rue du Breil","LIBTYPE":null,"_IDOBJ":641,"TYPE":null,"CATEGORIE":502},"geometry":{"type":"Point","coordinates":[-1.58409482983182,47.2297548043657]}},{"type":"Feature","properties":{"geo":{"name":"Elémentaire Mulotière"},"_l":[47.2420388161765,-1.56994562842241],"LIBTHEME":"ENSEIGNEMENT","CODE_POSTAL":44300,"WEB":"www.nantes.fr","STATUT":"Public","TELEPHONE":"02 40 76 49 65","THEME":5,"COMMUNE":"NANTES","LIBCATEGORIE":"Elémentaire","ADRESSE":"16 Rue Pierre Yvernogeau","LIBTYPE":null,"_IDOBJ":648,"TYPE":null,"CATEGORIE":502},"geometry":{"type":"Point","coordinates":[-1.56994562842241,47.2420388161765]}},{"type":"Feature","properties":{"geo":{"name":"Elémentaire Alain Fournier"},"_l":[47.2040831661045,-1.60104653207571],"LIBTHEME":"ENSEIGNEMENT","CODE_POSTAL":44100,"WEB":null,"STATUT":"Public","TELEPHONE":"02 40 46 28 53","THEME":5,"COMMUNE":"NANTES","LIBCATEGORIE":"Elémentaire","ADRESSE":"87 Rue du Bois Hardy","LIBTYPE":null,"_IDOBJ":1153,"TYPE":null,"CATEGORIE":502},"geometry":{"type":"Point","coordinates":[-1.60104653207571,47.2040831661045]}},{"type":"Feature","properties":{"geo":{"name":"Elémentaire Agenêts"},"_l":[47.2280026698464,-1.53078257512124],"LIBTHEME":"ENSEIGNEMENT","CODE_POSTAL":44000,"WEB":null,"STATUT":"Public","TELEPHONE":"02 51 13 20 80","THEME":5,"COMMUNE":"NANTES","LIBCATEGORIE":"Elémentaire","ADRESSE":"31 Rue des Agenets","LIBTYPE":null,"_IDOBJ":1154,"TYPE":null,"CATEGORIE":502},"geometry":{"type":"Point","coordinates":[-1.53078257512124,47.2280026698464]}},{"type":"Feature","properties":{"geo":{"name":"Elémentaire Batignolles"},"_l":[47.2525680464208,-1.51854629292692],"LIBTHEME":"ENSEIGNEMENT","CODE_POSTAL":44300,"WEB":null,"STATUT":"Public","TELEPHONE":"02 40 49 51 89","THEME":5,"COMMUNE":"NANTES","LIBCATEGORIE":"Elémentaire","ADRESSE":"45 Route de Paris","LIBTYPE":null,"_IDOBJ":1157,"TYPE":null,"CATEGORIE":502},"geometry":{"type":"Point","coordinates":[-1.51854629292692,47.2525680464208]}},{"type":"Feature","properties":{"geo":{"name":"Elémentaire Beaujoire"},"_l":[47.2578749670883,-1.51946479932758],"LIBTHEME":"ENSEIGNEMENT","CODE_POSTAL":44300,"WEB":null,"STATUT":"Public","TELEPHONE":"02 40 50 57 13","THEME":5,"COMMUNE":"NANTES","LIBCATEGORIE":"Elémentaire","ADRESSE":"10 Avenue de la Gare de Saint Joseph","LIBTYPE":null,"_IDOBJ":1158,"TYPE":null,"CATEGORIE":502},"geometry":{"type":"Point","coordinates":[-1.51946479932758,47.2578749670883]}},{"type":"Feature","properties":{"geo":{"name":"Elémentaire Bottière"},"_l":[47.237384320653,-1.52282878634449],"LIBTHEME":"ENSEIGNEMENT","CODE_POSTAL":44300,"WEB":null,"STATUT":"Public","TELEPHONE":"02 40 49 32 77","THEME":5,"COMMUNE":"NANTES","LIBCATEGORIE":"Elémentaire","ADRESSE":"10 Rue de la Bottière","LIBTYPE":null,"_IDOBJ":1160,"TYPE":null,"CATEGORIE":502},"geometry":{"type":"Point","coordinates":[-1.52282878634449,47.237384320653]}},{"type":"Feature","properties":{"geo":{"name":"Elémentaire Châtaigniers"},"_l":[47.2197827467309,-1.60215424741396],"LIBTHEME":"ENSEIGNEMENT","CODE_POSTAL":44100,"WEB":null,"STATUT":"Public","TELEPHONE":"02 40 46 31 05","THEME":5,"COMMUNE":"NANTES","LIBCATEGORIE":"Elémentaire","ADRESSE":"164 Rue du Corps de Garde","LIBTYPE":null,"_IDOBJ":1163,"TYPE":null,"CATEGORIE":502},"geometry":{"type":"Point","coordinates":[-1.60215424741396,47.2197827467309]}},{"type":"Feature","properties":{"geo":{"name":"Elémentaire La Chauvinière"},"_l":[47.2534657207306,-1.5741540179739],"LIBTHEME":"ENSEIGNEMENT","CODE_POSTAL":44300,"WEB":"www.ecoles.mairie-nantes.fr","STATUT":"Public","TELEPHONE":"02 40 59 03 79","THEME":5,"COMMUNE":"NANTES","LIBCATEGORIE":"Elémentaire","ADRESSE":"32 Boulevard de la Chauvinière","LIBTYPE":null,"_IDOBJ":1164,"TYPE":null,"CATEGORIE":502},"geometry":{"type":"Point","coordinates":[-1.5741540179739,47.2534657207306]}},{"type":"Feature","properties":{"geo":{"name":"Elémentaire Chêne d'Aron"},"_l":[47.2122537316794,-1.56120934356108],"LIBTHEME":"ENSEIGNEMENT","CODE_POSTAL":44000,"WEB":"www.ecoles.mairie-nantes.fr","STATUT":"Public","TELEPHONE":"02 40 73 33 00","THEME":5,"COMMUNE":"NANTES","LIBCATEGORIE":"Elémentaire","ADRESSE":"3 Rue de l'Héronnière","LIBTYPE":null,"_IDOBJ":1165,"TYPE":null,"CATEGORIE":502},"geometry":{"type":"Point","coordinates":[-1.56120934356108,47.2122537316794]}},{"type":"Feature","properties":{"geo":{"name":"Elémentaire Contrie"},"_l":[47.2157765065179,-1.60007371323462],"LIBTHEME":"ENSEIGNEMENT","CODE_POSTAL":44100,"WEB":null,"STATUT":"Public","TELEPHONE":"02 40 46 49 88","THEME":5,"COMMUNE":"NANTES","LIBCATEGORIE":"Elémentaire","ADRESSE":"19 Rue de la Petite Reine","LIBTYPE":null,"_IDOBJ":1167,"TYPE":null,"CATEGORIE":502},"geometry":{"type":"Point","coordinates":[-1.60007371323462,47.2157765065179]}},{"type":"Feature","properties":{"geo":{"name":"Elémentaire Dervallières Chézine"},"_l":[47.2265615691657,-1.59788809169881],"LIBTHEME":"ENSEIGNEMENT","CODE_POSTAL":44100,"WEB":"www.ecoles.mairie-nantes.fr","STATUT":"Public","TELEPHONE":"02 40 46 03 83","THEME":5,"COMMUNE":"NANTES","LIBCATEGORIE":"Elémentaire","ADRESSE":"1 Rue Auguste Lepère","LIBTYPE":null,"_IDOBJ":1168,"TYPE":null,"CATEGORIE":502},"geometry":{"type":"Point","coordinates":[-1.59788809169881,47.2265615691657]}},{"type":"Feature","properties":{"geo":{"name":"Elémentaire Fellonneau"},"_l":[47.2321547084807,-1.55472895556893],"LIBTHEME":"ENSEIGNEMENT","CODE_POSTAL":44000,"WEB":null,"STATUT":"Public","TELEPHONE":"02 40 74 04 72","THEME":5,"COMMUNE":"NANTES","LIBCATEGORIE":"Elémentaire","ADRESSE":"15 Rue Fellonneau","LIBTYPE":null,"_IDOBJ":1171,"TYPE":null,"CATEGORIE":502},"geometry":{"type":"Point","coordinates":[-1.55472895556893,47.2321547084807]}},{"type":"Feature","properties":{"geo":{"name":"Elémentaire Gustave Roch"},"_l":[47.2051770968525,-1.55068221653032],"LIBTHEME":"ENSEIGNEMENT","CODE_POSTAL":44200,"WEB":"www.ecoles.mairie-nantes.fr","STATUT":"Public","TELEPHONE":"02 40 47 93 38","THEME":5,"COMMUNE":"NANTES","LIBCATEGORIE":"Elémentaire","ADRESSE":"24 Boulevard Gustave Roch","LIBTYPE":null,"_IDOBJ":1172,"TYPE":null,"CATEGORIE":502},"geometry":{"type":"Point","coordinates":[-1.55068221653032,47.2051770968525]}},{"type":"Feature","properties":{"geo":{"name":"Elémentaire Gaston Serpette"},"_l":[47.2265457508509,-1.57693913628893],"LIBTHEME":"ENSEIGNEMENT","CODE_POSTAL":44000,"WEB":"www.ecoles.mairie-nantes.fr","STATUT":"Public","TELEPHONE":"02 40 76 74 04","THEME":5,"COMMUNE":"NANTES","LIBCATEGORIE":"Elémentaire","ADRESSE":"46 Rue du Douet Garnier","LIBTYPE":null,"_IDOBJ":1174,"TYPE":null,"CATEGORIE":502},"geometry":{"type":"Point","coordinates":[-1.57693913628893,47.2265457508509]}},{"type":"Feature","properties":{"geo":{"name":"Elémentaire Sully"},"_l":[47.2229245149311,-1.54916281897426],"LIBTHEME":"ENSEIGNEMENT","CODE_POSTAL":44000,"WEB":null,"STATUT":"Public","TELEPHONE":"02 51 86 44 96","THEME":5,"COMMUNE":"NANTES","LIBCATEGORIE":"Elémentaire","ADRESSE":"7 Rue Henri Cochard","LIBTYPE":null,"_IDOBJ":1176,"TYPE":null,"CATEGORIE":502},"geometry":{"type":"Point","coordinates":[-1.54916281897426,47.2229245149311]}},{"type":"Feature","properties":{"geo":{"name":"Elémentaire Jean Moulin"},"_l":[47.2156061718442,-1.52258040765671],"LIBTHEME":"ENSEIGNEMENT","CODE_POSTAL":44000,"WEB":null,"STATUT":"Public","TELEPHONE":"02 40 47 91 11","THEME":5,"COMMUNE":"NANTES","LIBCATEGORIE":"Elémentaire","ADRESSE":"Rue de Chypre","LIBTYPE":null,"_IDOBJ":1177,"TYPE":null,"CATEGORIE":502},"geometry":{"type":"Point","coordinates":[-1.52258040765671,47.2156061718442]}},{"type":"Feature","properties":{"geo":{"name":"Elémentaire Jean Zay"},"_l":[47.2092177938887,-1.6079408418065],"LIBTHEME":"ENSEIGNEMENT","CODE_POSTAL":44100,"WEB":"www.ecoles.mairie-nantes.fr","STATUT":"Public","TELEPHONE":"02 40 43 89 83","THEME":5,"COMMUNE":"NANTES","LIBCATEGORIE":"Elémentaire","ADRESSE":"15B Rue Yves Kartel","LIBTYPE":null,"_IDOBJ":1180,"TYPE":null,"CATEGORIE":502},"geometry":{"type":"Point","coordinates":[-1.6079408418065,47.2092177938887]}},{"type":"Feature","properties":{"geo":{"name":"Elémentaire Louise Michel"},"_l":[47.2058391852535,-1.53076962518963],"LIBTHEME":"ENSEIGNEMENT","CODE_POSTAL":44200,"WEB":null,"STATUT":"Public","TELEPHONE":"02 40 47 84 83","THEME":5,"COMMUNE":"NANTES","LIBCATEGORIE":"Elémentaire","ADRESSE":"21 Rue Paul Ramadier","LIBTYPE":null,"_IDOBJ":1182,"TYPE":null,"CATEGORIE":502},"geometry":{"type":"Point","coordinates":[-1.53076962518963,47.2058391852535]}},{"type":"Feature","properties":{"geo":{"name":"Elémentaire Louis Pergaud"},"_l":[47.2683692977203,-1.51931504482704],"LIBTHEME":"ENSEIGNEMENT","CODE_POSTAL":44300,"WEB":"www.ecoles.mairie-nantes.fr","STATUT":"Public","TELEPHONE":"02 40 30 20 85","THEME":5,"COMMUNE":"NANTES","LIBCATEGORIE":"Elémentaire","ADRESSE":"2 Rue Louis Pergaud","LIBTYPE":null,"_IDOBJ":1183,"TYPE":null,"CATEGORIE":502},"geometry":{"type":"Point","coordinates":[-1.51931504482704,47.2683692977203]}},{"type":"Feature","properties":{"geo":{"name":"Elémentaire Léon Say"},"_l":[47.2296909154185,-1.57005917079975],"LIBTHEME":"ENSEIGNEMENT","CODE_POSTAL":44000,"WEB":"www.ecoles.mairie-nantes.fr","STATUT":"Public","TELEPHONE":"02 40 76 51 40","THEME":5,"COMMUNE":"NANTES","LIBCATEGORIE":"Elémentaire","ADRESSE":"34 Rue Léon Say","LIBTYPE":null,"_IDOBJ":1184,"TYPE":null,"CATEGORIE":502},"geometry":{"type":"Point","coordinates":[-1.57005917079975,47.2296909154185]}},{"type":"Feature","properties":{"geo":{"name":"Elémentaire Le Baut"},"_l":[47.2541406879623,-1.56216812403375],"LIBTHEME":"ENSEIGNEMENT","CODE_POSTAL":44300,"WEB":"www.ecoles.mairie-nantes.fr","STATUT":"Public","TELEPHONE":"02 40 76 65 72","THEME":5,"COMMUNE":"NANTES","LIBCATEGORIE":"Elémentaire","ADRESSE":"2T Rue des Renards","LIBTYPE":null,"_IDOBJ":1185,"TYPE":null,"CATEGORIE":502},"geometry":{"type":"Point","coordinates":[-1.56216812403375,47.2541406879623]}},{"type":"Feature","properties":{"geo":{"name":"Elémentaire Le Linot"},"_l":[47.2680764767796,-1.52751299915447],"LIBTHEME":"ENSEIGNEMENT","CODE_POSTAL":44300,"WEB":"eepu-le-linot-44.ac-nantes.fr","STATUT":"Public","TELEPHONE":"02 40 30 33 20","THEME":5,"COMMUNE":"NANTES","LIBCATEGORIE":"Elémentaire","ADRESSE":"45 Rue du Port des Charrettes","LIBTYPE":null,"_IDOBJ":1187,"TYPE":null,"CATEGORIE":502},"geometry":{"type":"Point","coordinates":[-1.52751299915447,47.2680764767796]}},{"type":"Feature","properties":{"geo":{"name":"Elémentaire Maurice Macé"},"_l":[47.2369245691813,-1.50456639144317],"LIBTHEME":"ENSEIGNEMENT","CODE_POSTAL":44300,"WEB":"www.ecoles.mairie-nantes.fr","STATUT":"Public","TELEPHONE":"02 40 49 39 57","THEME":5,"COMMUNE":"NANTES","LIBCATEGORIE":"Elémentaire","ADRESSE":"14 Rue du Pontereau","LIBTYPE":null,"_IDOBJ":1188,"TYPE":null,"CATEGORIE":502},"geometry":{"type":"Point","coordinates":[-1.50456639144317,47.2369245691813]}},{"type":"Feature","properties":{"geo":{"name":"Elémentaire Marsauderies"},"_l":[47.2431925414488,-1.52958707532894],"LIBTHEME":"ENSEIGNEMENT","CODE_POSTAL":44300,"WEB":"www.ecoles.mairie-nantes.fr","STATUT":"Public","TELEPHONE":"02 40 49 31 20","THEME":5,"COMMUNE":"NANTES","LIBCATEGORIE":"Elémentaire","ADRESSE":"1 Rue de la Bertinière","LIBTYPE":null,"_IDOBJ":1190,"TYPE":null,"CATEGORIE":502},"geometry":{"type":"Point","coordinates":[-1.52958707532894,47.2431925414488]}},{"type":"Feature","properties":{"geo":{"name":"Elémentaire Plantes"},"_l":[47.2343011948365,-1.58326403269514],"LIBTHEME":"ENSEIGNEMENT","CODE_POSTAL":44100,"WEB":null,"STATUT":"Public","TELEPHONE":"02 40 76 90 26","THEME":5,"COMMUNE":"NANTES","LIBCATEGORIE":"Elémentaire","ADRESSE":"19 Rue des Plantes","LIBTYPE":null,"_IDOBJ":1196,"TYPE":null,"CATEGORIE":502},"geometry":{"type":"Point","coordinates":[-1.58326403269514,47.2343011948365]}},{"type":"Feature","properties":{"geo":{"name":"Elémentaire Plessis Cellier"},"_l":[47.2013500836278,-1.60632445819134],"LIBTHEME":"ENSEIGNEMENT","CODE_POSTAL":44100,"WEB":"www.ecoles.mairie-nantes.fr","STATUT":"Public","TELEPHONE":"02 40 43 49 33","THEME":5,"COMMUNE":"NANTES","LIBCATEGORIE":"Elémentaire","ADRESSE":"59 Rue des Alouettes","LIBTYPE":null,"_IDOBJ":1197,"TYPE":null,"CATEGORIE":502},"geometry":{"type":"Point","coordinates":[-1.60632445819134,47.2013500836278]}},{"type":"Feature","properties":{"geo":{"name":"Elémentaire Lucie Aubrac"},"_l":[47.2085211908765,-1.59951301172358],"LIBTHEME":"ENSEIGNEMENT","CODE_POSTAL":44100,"WEB":null,"STATUT":"Public","TELEPHONE":"02 40 46 52 50","THEME":5,"COMMUNE":"NANTES","LIBCATEGORIE":"Elémentaire","ADRESSE":"47 Boulevard Jean Moulin","LIBTYPE":null,"_IDOBJ":1198,"TYPE":null,"CATEGORIE":502},"geometry":{"type":"Point","coordinates":[-1.59951301172358,47.2085211908765]}},{"type":"Feature","properties":{"geo":{"name":"Elémentaire Port Boyer"},"_l":[47.239937802192,-1.54174629051165],"LIBTHEME":"ENSEIGNEMENT","CODE_POSTAL":44300,"WEB":null,"STATUT":"Public","TELEPHONE":"02 40 49 02 07","THEME":5,"COMMUNE":"NANTES","LIBCATEGORIE":"Elémentaire","ADRESSE":"53 Rue de l'Eraudière","LIBTYPE":null,"_IDOBJ":1199,"TYPE":null,"CATEGORIE":502},"geometry":{"type":"Point","coordinates":[-1.54174629051165,47.239937802192]}},{"type":"Feature","properties":{"geo":{"name":"Elémentaire Stalingrad"},"_l":[47.219470401664,-1.53779345981124],"LIBTHEME":"ENSEIGNEMENT","CODE_POSTAL":44000,"WEB":"www.ecoles.mairie-nantes.fr","STATUT":"Public","TELEPHONE":"02 40 74 38 64","THEME":5,"COMMUNE":"NANTES","LIBCATEGORIE":"Elémentaire","ADRESSE":"12 Boulevard de Stalingrad","LIBTYPE":null,"_IDOBJ":1207,"TYPE":null,"CATEGORIE":502},"geometry":{"type":"Point","coordinates":[-1.53779345981124,47.219470401664]}},{"type":"Feature","properties":{"geo":{"name":"Elémentaire Urbain Le Verrier"},"_l":[47.2421340768273,-1.52156499523898],"LIBTHEME":"ENSEIGNEMENT","CODE_POSTAL":44300,"WEB":"www.ecoles.mairie-nantes.fr","STATUT":"Public","TELEPHONE":"02 40 49 62 72","THEME":5,"COMMUNE":"NANTES","LIBCATEGORIE":"Elémentaire","ADRESSE":"11 Rue Urbain Le Verrier","LIBTYPE":null,"_IDOBJ":1212,"TYPE":null,"CATEGORIE":502},"geometry":{"type":"Point","coordinates":[-1.52156499523898,47.2421340768273]}},{"type":"Feature","properties":{"geo":{"name":"Elémentaire Henri Bergson"},"_l":[47.2137225426264,-1.53110874872523],"LIBTHEME":"ENSEIGNEMENT","CODE_POSTAL":44000,"WEB":"www.nantes.fr","STATUT":"Public","TELEPHONE":"02 40 47 60 89","THEME":5,"COMMUNE":"NANTES","LIBCATEGORIE":"Elémentaire","ADRESSE":"5 Rue de Madrid","LIBTYPE":null,"_IDOBJ":1231,"TYPE":null,"CATEGORIE":502},"geometry":{"type":"Point","coordinates":[-1.53110874872523,47.2137225426264]}},{"type":"Feature","properties":{"geo":{"name":"Elémentaire Soleil Levant"},"_l":[47.2202720536467,-1.61152088816877],"LIBTHEME":"ENSEIGNEMENT","CODE_POSTAL":44800,"WEB":"www.saint-herblain.fr","STATUT":"Public","TELEPHONE":"02 40 58 27 93","THEME":5,"COMMUNE":"ST-HERBLAIN","LIBCATEGORIE":"Elémentaire","ADRESSE":"38 Rue de la Blanche","LIBTYPE":null,"_IDOBJ":1892,"TYPE":null,"CATEGORIE":502},"geometry":{"type":"Point","coordinates":[-1.61152088816877,47.2202720536467]}},{"type":"Feature","properties":{"geo":{"name":"Elémentaire Le Vieux Chêne"},"_l":[47.2727241557227,-1.62464677172845],"LIBTHEME":"ENSEIGNEMENT","CODE_POSTAL":44700,"WEB":null,"STATUT":"Public","TELEPHONE":"02 28 01 11 55","THEME":5,"COMMUNE":"ORVAULT","LIBCATEGORIE":"Elémentaire","ADRESSE":"14 Rue du Raffuneau","LIBTYPE":null,"_IDOBJ":1936,"TYPE":null,"CATEGORIE":502},"geometry":{"type":"Point","coordinates":[-1.62464677172845,47.2727241557227]}},{"type":"Feature","properties":{"geo":{"name":"Elémentaire Salentine"},"_l":[47.250198612164,-1.60467248058559],"LIBTHEME":"ENSEIGNEMENT","CODE_POSTAL":44700,"WEB":"www.orvault.fr","STATUT":"Public","TELEPHONE":"02 28 07 49 54","THEME":5,"COMMUNE":"ORVAULT","LIBCATEGORIE":"Elémentaire","ADRESSE":"Allée des Tilleuls","LIBTYPE":null,"_IDOBJ":1938,"TYPE":null,"CATEGORIE":502},"geometry":{"type":"Point","coordinates":[-1.60467248058559,47.250198612164]}},{"type":"Feature","properties":{"geo":{"name":"Elémentaire Ferrière"},"_l":[47.2456384287708,-1.59091819232957],"LIBTHEME":"ENSEIGNEMENT","CODE_POSTAL":44700,"WEB":"www.orvault.fr","STATUT":"Public","TELEPHONE":"02 40 76 88 13","THEME":5,"COMMUNE":"ORVAULT","LIBCATEGORIE":"Elémentaire","ADRESSE":"6 Avenue de la Jeunesse","LIBTYPE":null,"_IDOBJ":1940,"TYPE":null,"CATEGORIE":502},"geometry":{"type":"Point","coordinates":[-1.59091819232957,47.2456384287708]}},{"type":"Feature","properties":{"geo":{"name":"Elémentaire Bois-Raguenet"},"_l":[47.2696443198266,-1.59858628870202],"LIBTHEME":"ENSEIGNEMENT","CODE_POSTAL":44700,"WEB":"www.orvault.fr","STATUT":"Public","TELEPHONE":"02 28 07 49 84","THEME":5,"COMMUNE":"ORVAULT","LIBCATEGORIE":"Elémentaire","ADRESSE":"18 Avenue du Couchant","LIBTYPE":null,"_IDOBJ":1944,"TYPE":null,"CATEGORIE":502},"geometry":{"type":"Point","coordinates":[-1.59858628870202,47.2696443198266]}},{"type":"Feature","properties":{"geo":{"name":"Elementaire Bois-Saint-Louis"},"_l":[47.2464223001285,-1.58246682006158],"LIBTHEME":"ENSEIGNEMENT","CODE_POSTAL":44700,"WEB":"www.orvault.fr","STATUT":"Public","TELEPHONE":"02 40 76 73 42","THEME":5,"COMMUNE":"ORVAULT","LIBCATEGORIE":"Elémentaire","ADRESSE":"18 Rue des Lilas","LIBTYPE":null,"_IDOBJ":1946,"TYPE":null,"CATEGORIE":502},"geometry":{"type":"Point","coordinates":[-1.58246682006158,47.2464223001285]}},{"type":"Feature","properties":{"geo":{"name":"Elémentaire Théodore Monod"},"_l":[47.2071690974453,-1.50295417256493],"LIBTHEME":"ENSEIGNEMENT","CODE_POSTAL":44230,"WEB":"www.saintsebastien.fr","STATUT":"Public","TELEPHONE":"02 40 80 79 98","THEME":5,"COMMUNE":"ST-SEBASTIEN","LIBCATEGORIE":"Elémentaire","ADRESSE":"6 Rue du Huit Mai 1945","LIBTYPE":null,"_IDOBJ":2002,"TYPE":null,"CATEGORIE":502},"geometry":{"type":"Point","coordinates":[-1.50295417256493,47.2071690974453]}},{"type":"Feature","properties":{"geo":{"name":"Elémentaire Le Douet"},"_l":[47.1912688851604,-1.51995209414919],"LIBTHEME":"ENSEIGNEMENT","CODE_POSTAL":44230,"WEB":null,"STATUT":"Public","TELEPHONE":"02 40 03 28 16","THEME":5,"COMMUNE":"ST-SEBASTIEN","LIBCATEGORIE":"Elémentaire","ADRESSE":"10B Rue Edouard Hervé","LIBTYPE":null,"_IDOBJ":2003,"TYPE":null,"CATEGORIE":502},"geometry":{"type":"Point","coordinates":[-1.51995209414919,47.1912688851604]}},{"type":"Feature","properties":{"geo":{"name":"Elémentaire La Martellière"},"_l":[47.1986322155639,-1.52611778071304],"LIBTHEME":"ENSEIGNEMENT","CODE_POSTAL":44230,"WEB":null,"STATUT":"Public","TELEPHONE":"02 40 03 35 34","THEME":5,"COMMUNE":"ST-SEBASTIEN","LIBCATEGORIE":"Elémentaire","ADRESSE":"Rue du Bois Praud","LIBTYPE":null,"_IDOBJ":2004,"TYPE":null,"CATEGORIE":502},"geometry":{"type":"Point","coordinates":[-1.52611778071304,47.1986322155639]}},{"type":"Feature","properties":{"geo":{"name":"Elémentaire Jean de La Fontaine"},"_l":[47.2069736014544,-1.49089254548434],"LIBTHEME":"ENSEIGNEMENT","CODE_POSTAL":44230,"WEB":null,"STATUT":"Public","TELEPHONE":"02 40 34 79 22","THEME":5,"COMMUNE":"ST-SEBASTIEN","LIBCATEGORIE":"Elémentaire","ADRESSE":"Rue de la Pyramide","LIBTYPE":null,"_IDOBJ":2005,"TYPE":null,"CATEGORIE":502},"geometry":{"type":"Point","coordinates":[-1.49089254548434,47.2069736014544]}},{"type":"Feature","properties":{"geo":{"name":"Elémentaire La Profondine"},"_l":[47.1953489370861,-1.48886799399421],"LIBTHEME":"ENSEIGNEMENT","CODE_POSTAL":44230,"WEB":"www.saintsebastien.fr","STATUT":"Public","TELEPHONE":"02 40 03 06 67","THEME":5,"COMMUNE":"ST-SEBASTIEN","LIBCATEGORIE":"Elémentaire","ADRESSE":"Rue de l'Allée Verte","LIBTYPE":null,"_IDOBJ":2006,"TYPE":null,"CATEGORIE":502},"geometry":{"type":"Point","coordinates":[-1.48886799399421,47.1953489370861]}},{"type":"Feature","properties":{"geo":{"name":"Elémentaire Jean Zay"},"_l":[47.1730106111394,-1.62584492444083],"LIBTHEME":"ENSEIGNEMENT","CODE_POSTAL":44340,"WEB":"www.ville-bouguenais.fr","STATUT":"Public","TELEPHONE":"02 40 65 24 88","THEME":5,"COMMUNE":"BOUGUENAIS","LIBCATEGORIE":"Elémentaire","ADRESSE":"Chemin Paul Eluard","LIBTYPE":null,"_IDOBJ":2076,"TYPE":null,"CATEGORIE":502},"geometry":{"type":"Point","coordinates":[-1.62584492444083,47.1730106111394]}},{"type":"Feature","properties":{"geo":{"name":"Elémentaire Chateaubriand"},"_l":[47.1786531370074,-1.61872205422499],"LIBTHEME":"ENSEIGNEMENT","CODE_POSTAL":44340,"WEB":"www.ville-bouguenais.fr","STATUT":"Public","TELEPHONE":"02 40 65 12 45","THEME":5,"COMMUNE":"BOUGUENAIS","LIBCATEGORIE":"Elémentaire","ADRESSE":"2 Rue de la Commune de Paris 1871","LIBTYPE":null,"_IDOBJ":2077,"TYPE":null,"CATEGORIE":502},"geometry":{"type":"Point","coordinates":[-1.61872205422499,47.1786531370074]}},{"type":"Feature","properties":{"geo":{"name":"Elémentaire Fougan-de-Mer"},"_l":[47.1827361435511,-1.57910283774046],"LIBTHEME":"ENSEIGNEMENT","CODE_POSTAL":44340,"WEB":"www.ville-bouguenais.fr","STATUT":"Public","TELEPHONE":"02 40 65 15 87","THEME":5,"COMMUNE":"BOUGUENAIS","LIBCATEGORIE":"Elémentaire","ADRESSE":"Rue Maryse Bastié","LIBTYPE":null,"_IDOBJ":2080,"TYPE":null,"CATEGORIE":502},"geometry":{"type":"Point","coordinates":[-1.57910283774046,47.1827361435511]}},{"type":"Feature","properties":{"geo":{"name":"Elémentaire Urbain le Verrier"},"_l":[47.1787759137966,-1.58924909574304],"LIBTHEME":"ENSEIGNEMENT","CODE_POSTAL":44340,"WEB":"www.ville-bouguenais.fr","STATUT":"Public","TELEPHONE":"02 40 65 17 78","THEME":5,"COMMUNE":"BOUGUENAIS","LIBCATEGORIE":"Elémentaire","ADRESSE":"Rue Urbain Le Verrier","LIBTYPE":null,"_IDOBJ":2082,"TYPE":null,"CATEGORIE":502},"geometry":{"type":"Point","coordinates":[-1.58924909574304,47.1787759137966]}},{"type":"Feature","properties":{"geo":{"name":"Elémentaire Saint Hermeland"},"_l":[47.2138458710052,-1.64992903608882],"LIBTHEME":"ENSEIGNEMENT","CODE_POSTAL":44800,"WEB":"www.saint-herblain.fr","STATUT":"Privé","TELEPHONE":"02 40 86 59 16","THEME":5,"COMMUNE":"ST-HERBLAIN","LIBCATEGORIE":"Elémentaire","ADRESSE":"20 Rue des Calvaires","LIBTYPE":null,"_IDOBJ":2237,"TYPE":null,"CATEGORIE":502},"geometry":{"type":"Point","coordinates":[-1.64992903608882,47.2138458710052]}},{"type":"Feature","properties":{"geo":{"name":"Elémentaire Le Grignon"},"_l":[47.2173890364362,-1.46689054311408],"LIBTHEME":"ENSEIGNEMENT","CODE_POSTAL":44115,"WEB":null,"STATUT":"Public","TELEPHONE":"02 40 06 01 31","THEME":5,"COMMUNE":"BASSE-GOULAINE","LIBCATEGORIE":"Elémentaire","ADRESSE":"Rue de la Poste","LIBTYPE":null,"_IDOBJ":2805,"TYPE":null,"CATEGORIE":502},"geometry":{"type":"Point","coordinates":[-1.46689054311408,47.2173890364362]}},{"type":"Feature","properties":{"geo":{"name":"Elémentaire Henri Lesage"},"_l":[47.1871250535773,-1.50050156468779],"LIBTHEME":"ENSEIGNEMENT","CODE_POSTAL":44120,"WEB":null,"STATUT":"Public","TELEPHONE":"02 51 71 06 32","THEME":5,"COMMUNE":"VERTOU","LIBCATEGORIE":"Elémentaire","ADRESSE":"27 Rue des Ecoles","LIBTYPE":null,"_IDOBJ":2808,"TYPE":null,"CATEGORIE":502},"geometry":{"type":"Point","coordinates":[-1.50050156468779,47.1871250535773]}},{"type":"Feature","properties":{"geo":{"name":"Elémentaire Maryse Bastié"},"_l":[47.1458231666132,-1.69103145718892],"LIBTHEME":"ENSEIGNEMENT","CODE_POSTAL":44830,"WEB":null,"STATUT":"Public","TELEPHONE":"02 40 65 46 40","THEME":5,"COMMUNE":"BOUAYE","LIBCATEGORIE":"Elémentaire","ADRESSE":"12 Avenue du Moulin","LIBTYPE":null,"_IDOBJ":2810,"TYPE":null,"CATEGORIE":502},"geometry":{"type":"Point","coordinates":[-1.69103145718892,47.1458231666132]}},{"type":"Feature","properties":{"geo":{"name":"Elémentaire Ledru Rollin"},"_l":[47.1921127789088,-1.53473020302025],"LIBTHEME":"ENSEIGNEMENT","CODE_POSTAL":44200,"WEB":null,"STATUT":"Public","TELEPHONE":"02 40 84 26 62","THEME":5,"COMMUNE":"NANTES","LIBCATEGORIE":"Elémentaire","ADRESSE":"47 Rue Ledru Rollin","LIBTYPE":null,"_IDOBJ":419,"TYPE":null,"CATEGORIE":502},"geometry":{"type":"Point","coordinates":[-1.53473020302025,47.1921127789088]}},{"type":"Feature","properties":{"geo":{"name":"Elémentaire Anatole de Monzie"},"_l":[47.202695868785,-1.54156980971393],"LIBTHEME":"ENSEIGNEMENT","CODE_POSTAL":44200,"WEB":null,"STATUT":"Public","TELEPHONE":"02 40 89 17 78","THEME":5,"COMMUNE":"NANTES","LIBCATEGORIE":"Elémentaire","ADRESSE":"2 Rue Léon Buerne","LIBTYPE":null,"_IDOBJ":425,"TYPE":null,"CATEGORIE":502},"geometry":{"type":"Point","coordinates":[-1.54156980971393,47.202695868785]}},{"type":"Feature","properties":{"geo":{"name":"Elémentaire Garennes"},"_l":[47.2017287218265,-1.57885466369907],"LIBTHEME":"ENSEIGNEMENT","CODE_POSTAL":44100,"WEB":null,"STATUT":"Public","TELEPHONE":"02 40 73 55 45","THEME":5,"COMMUNE":"NANTES","LIBCATEGORIE":"Elémentaire","ADRESSE":"7 Place des Garennes","LIBTYPE":null,"_IDOBJ":428,"TYPE":null,"CATEGORIE":502},"geometry":{"type":"Point","coordinates":[-1.57885466369907,47.2017287218265]}},{"type":"Feature","properties":{"geo":{"name":"Elémentaire Mutualité"},"_l":[47.2054070822712,-1.58954510248318],"LIBTHEME":"ENSEIGNEMENT","CODE_POSTAL":44100,"WEB":null,"STATUT":"Public","TELEPHONE":"02 40 46 50 76","THEME":5,"COMMUNE":"NANTES","LIBCATEGORIE":"Elémentaire","ADRESSE":"4 Rue de la Mutualité","LIBTYPE":null,"_IDOBJ":445,"TYPE":null,"CATEGORIE":502},"geometry":{"type":"Point","coordinates":[-1.58954510248318,47.2054070822712]}},{"type":"Feature","properties":{"geo":{"name":"Elémentaire Fraternité"},"_l":[47.2153807423153,-1.58632258854519],"LIBTHEME":"ENSEIGNEMENT","CODE_POSTAL":44100,"WEB":null,"STATUT":"Public","TELEPHONE":"02 40 46 14 58","THEME":5,"COMMUNE":"NANTES","LIBCATEGORIE":"Elémentaire","ADRESSE":"24 Boulevard de la Fraternité","LIBTYPE":null,"_IDOBJ":468,"TYPE":null,"CATEGORIE":502},"geometry":{"type":"Point","coordinates":[-1.58632258854519,47.2153807423153]}},{"type":"Feature","properties":{"geo":{"name":"Elémentaire l'Hermitage"},"_l":[47.1964316557237,-1.75791081148231],"LIBTHEME":"ENSEIGNEMENT","CODE_POSTAL":44640,"WEB":null,"STATUT":"Public","TELEPHONE":"02 40 04 65 49","THEME":5,"COMMUNE":"LE-PELLERIN","LIBCATEGORIE":"Elémentaire","ADRESSE":"2 Rue de l'Hermitage","LIBTYPE":null,"_IDOBJ":2842,"TYPE":null,"CATEGORIE":502},"geometry":{"type":"Point","coordinates":[-1.75791081148231,47.1964316557237]}},{"type":"Feature","properties":{"geo":{"name":"Elémentaire Aimé Césaire"},"_l":[47.1970073982388,-1.76191027106024],"LIBTHEME":"ENSEIGNEMENT","CODE_POSTAL":44640,"WEB":"www.ville-lepellerin.fr","STATUT":"Public","TELEPHONE":"02 40 04 68 90","THEME":5,"COMMUNE":"LE-PELLERIN","LIBCATEGORIE":"Elémentaire","ADRESSE":"Rue de la Génolière","LIBTYPE":null,"_IDOBJ":2844,"TYPE":null,"CATEGORIE":502},"geometry":{"type":"Point","coordinates":[-1.76191027106024,47.1970073982388]}},{"type":"Feature","properties":{"geo":{"name":"Elémentaire Jules Verne"},"_l":[47.1881133316381,-1.67551570551948],"LIBTHEME":"ENSEIGNEMENT","CODE_POSTAL":44620,"WEB":null,"STATUT":"Public","TELEPHONE":"02 40 65 70 79","THEME":5,"COMMUNE":"LA-MONTAGNE","LIBCATEGORIE":"Elémentaire","ADRESSE":"Rue Jules Verne","LIBTYPE":null,"_IDOBJ":2847,"TYPE":null,"CATEGORIE":502},"geometry":{"type":"Point","coordinates":[-1.67551570551948,47.1881133316381]}},{"type":"Feature","properties":{"geo":{"name":"Elémentaire Jules Ferry"},"_l":[47.1904780708383,-1.68757694696312],"LIBTHEME":"ENSEIGNEMENT","CODE_POSTAL":44620,"WEB":null,"STATUT":"Public","TELEPHONE":"02 40 65 75 41","THEME":5,"COMMUNE":"LA-MONTAGNE","LIBCATEGORIE":"Elémentaire","ADRESSE":"Rue Jules Ferry","LIBTYPE":null,"_IDOBJ":2848,"TYPE":null,"CATEGORIE":502},"geometry":{"type":"Point","coordinates":[-1.68757694696312,47.1904780708383]}},{"type":"Feature","properties":{"geo":{"name":"Elémentaire Pierre Mara"},"_l":[47.195626185115,-1.6486964166078],"LIBTHEME":"ENSEIGNEMENT","CODE_POSTAL":44610,"WEB":null,"STATUT":"Public","TELEPHONE":"02 40 86 06 18","THEME":5,"COMMUNE":"INDRE","LIBCATEGORIE":"Elémentaire","ADRESSE":"16 Rue Jean-Baptiste Rabillard","LIBTYPE":null,"_IDOBJ":2850,"TYPE":null,"CATEGORIE":502},"geometry":{"type":"Point","coordinates":[-1.6486964166078,47.195626185115]}},{"type":"Feature","properties":{"geo":{"name":"Elémentaire Jules Ferry"},"_l":[47.2002326595237,-1.66971511958311],"LIBTHEME":"ENSEIGNEMENT","CODE_POSTAL":44610,"WEB":null,"STATUT":"Public","TELEPHONE":"02 40 86 01 49","THEME":5,"COMMUNE":"INDRE","LIBCATEGORIE":"Elémentaire","ADRESSE":"5 Rue de la Gare","LIBTYPE":null,"_IDOBJ":2854,"TYPE":null,"CATEGORIE":502},"geometry":{"type":"Point","coordinates":[-1.66971511958311,47.2002326595237]}},{"type":"Feature","properties":{"geo":{"name":"Elémentaire Saint Symphorien"},"_l":[47.2161627839999,-1.72951666475033],"LIBTHEME":"ENSEIGNEMENT","CODE_POSTAL":44220,"WEB":null,"STATUT":"Privé","TELEPHONE":"02 40 86 12 15","THEME":5,"COMMUNE":"COUERON","LIBCATEGORIE":"Elémentaire","ADRESSE":"53 Rue Henri Gautier","LIBTYPE":null,"_IDOBJ":2855,"TYPE":null,"CATEGORIE":502},"geometry":{"type":"Point","coordinates":[-1.72951666475033,47.2161627839999]}},{"type":"Feature","properties":{"geo":{"name":"Elémentaire Paul Bert"},"_l":[47.2170314946378,-1.68451305249117],"LIBTHEME":"ENSEIGNEMENT","CODE_POSTAL":44220,"WEB":null,"STATUT":"Public","TELEPHONE":"02 40 38 00 38","THEME":5,"COMMUNE":"COUERON","LIBCATEGORIE":"Elémentaire","ADRESSE":"Rue Rouget de Lisle","LIBTYPE":null,"_IDOBJ":2857,"TYPE":null,"CATEGORIE":502},"geometry":{"type":"Point","coordinates":[-1.68451305249117,47.2170314946378]}},{"type":"Feature","properties":{"geo":{"name":"Elémentaire Marcel Gouzil"},"_l":[47.2153464885253,-1.72722333239736],"LIBTHEME":"ENSEIGNEMENT","CODE_POSTAL":44220,"WEB":null,"STATUT":"Public","TELEPHONE":"02 40 38 00 26","THEME":5,"COMMUNE":"COUERON","LIBCATEGORIE":"Elémentaire","ADRESSE":"Boulevard Francois Blancho","LIBTYPE":null,"_IDOBJ":2858,"TYPE":null,"CATEGORIE":502},"geometry":{"type":"Point","coordinates":[-1.72722333239736,47.2153464885253]}},{"type":"Feature","properties":{"geo":{"name":"Elémentaire Louise Michel"},"_l":[47.2121938517449,-1.72587696833371],"LIBTHEME":"ENSEIGNEMENT","CODE_POSTAL":44220,"WEB":null,"STATUT":"Public","TELEPHONE":"02 40 86 11 83","THEME":5,"COMMUNE":"COUERON","LIBCATEGORIE":"Elémentaire","ADRESSE":"3 Rue du Professeur Jean Bernard","LIBTYPE":null,"_IDOBJ":2860,"TYPE":null,"CATEGORIE":502},"geometry":{"type":"Point","coordinates":[-1.72587696833371,47.2121938517449]}},{"type":"Feature","properties":{"geo":{"name":"Elémentaire La Métairie"},"_l":[47.2169508085666,-1.7002907872772],"LIBTHEME":"ENSEIGNEMENT","CODE_POSTAL":44220,"WEB":null,"STATUT":"Public","TELEPHONE":"02 40 38 00 44","THEME":5,"COMMUNE":"COUERON","LIBCATEGORIE":"Elémentaire","ADRESSE":"Rue de Trévellec","LIBTYPE":null,"_IDOBJ":2862,"TYPE":null,"CATEGORIE":502},"geometry":{"type":"Point","coordinates":[-1.7002907872772,47.2169508085666]}},{"type":"Feature","properties":{"geo":{"name":"Elémentaire Aristide Briand"},"_l":[47.215055484327,-1.68242468403872],"LIBTHEME":"ENSEIGNEMENT","CODE_POSTAL":44220,"WEB":null,"STATUT":"Public","TELEPHONE":"02 40 38 01 51","THEME":5,"COMMUNE":"COUERON","LIBCATEGORIE":"Elémentaire","ADRESSE":"Rue du Premier Mai","LIBTYPE":null,"_IDOBJ":2865,"TYPE":null,"CATEGORIE":502},"geometry":{"type":"Point","coordinates":[-1.68242468403872,47.215055484327]}},{"type":"Feature","properties":{"geo":{"name":"Elémentaire Anne Franck"},"_l":[47.2149655663879,-1.71940260121321],"LIBTHEME":"ENSEIGNEMENT","CODE_POSTAL":44220,"WEB":null,"STATUT":"Public","TELEPHONE":"02 40 38 01 25","THEME":5,"COMMUNE":"COUERON","LIBCATEGORIE":"Elémentaire","ADRESSE":"Rue de la Pierre","LIBTYPE":null,"_IDOBJ":2866,"TYPE":null,"CATEGORIE":502},"geometry":{"type":"Point","coordinates":[-1.71940260121321,47.2149655663879]}},{"type":"Feature","properties":{"geo":{"name":"Elémentaire La Croix Jeannette"},"_l":[47.1722229700622,-1.62089231529402],"LIBTHEME":"ENSEIGNEMENT","CODE_POSTAL":44340,"WEB":"www.ville-bouguenais.fr","STATUT":"Public","TELEPHONE":"02 40 65 09 86","THEME":5,"COMMUNE":"BOUGUENAIS","LIBCATEGORIE":"Elémentaire","ADRESSE":"Place de la Croix Jeannette","LIBTYPE":null,"_IDOBJ":2879,"TYPE":null,"CATEGORIE":502},"geometry":{"type":"Point","coordinates":[-1.62089231529402,47.1722229700622]}},{"type":"Feature","properties":{"geo":{"name":"Elementaire La Tilleulière"},"_l":[47.1467344807957,-1.5282466279859],"LIBTHEME":"ENSEIGNEMENT","CODE_POSTAL":44840,"WEB":null,"STATUT":"Public","TELEPHONE":"02 40 05 77 07","THEME":5,"COMMUNE":"LES-SORINIERES","LIBCATEGORIE":"Elémentaire","ADRESSE":"1 Rue des Ecoles","LIBTYPE":null,"_IDOBJ":2880,"TYPE":null,"CATEGORIE":502},"geometry":{"type":"Point","coordinates":[-1.5282466279859,47.1467344807957]}},{"type":"Feature","properties":{"geo":{"name":"Elémentaire Le Clos du Moulin"},"_l":[47.1448977507314,-1.52306405010763],"LIBTHEME":"ENSEIGNEMENT","CODE_POSTAL":44840,"WEB":null,"STATUT":"Public","TELEPHONE":"02 40 05 77 16","THEME":5,"COMMUNE":"LES-SORINIERES","LIBCATEGORIE":"Elémentaire","ADRESSE":"60 Rue des Sports","LIBTYPE":null,"_IDOBJ":2883,"TYPE":null,"CATEGORIE":502},"geometry":{"type":"Point","coordinates":[-1.52306405010763,47.1448977507314]}},{"type":"Feature","properties":{"geo":{"name":"Elémentaire Pont-Marchand"},"_l":[47.2627008311884,-1.63147439318341],"LIBTHEME":"ENSEIGNEMENT","CODE_POSTAL":44700,"WEB":"www.orvault.fr","STATUT":"Public","TELEPHONE":"02 28 07 45 59","THEME":5,"COMMUNE":"ORVAULT","LIBCATEGORIE":"Elémentaire","ADRESSE":"22 Rue du Pont Marchand","LIBTYPE":null,"_IDOBJ":2887,"TYPE":null,"CATEGORIE":502},"geometry":{"type":"Point","coordinates":[-1.63147439318341,47.2627008311884]}},{"type":"Feature","properties":{"geo":{"name":"Elémentaire Roger Salengro"},"_l":[47.1842885541225,-1.54866795452829],"LIBTHEME":"ENSEIGNEMENT","CODE_POSTAL":44400,"WEB":null,"STATUT":"Public","TELEPHONE":"02 40 84 31 33","THEME":5,"COMMUNE":"REZE","LIBCATEGORIE":"Elémentaire","ADRESSE":"17 Place Roger Salengro","LIBTYPE":null,"_IDOBJ":2890,"TYPE":null,"CATEGORIE":502},"geometry":{"type":"Point","coordinates":[-1.54866795452829,47.1842885541225]}},{"type":"Feature","properties":{"geo":{"name":"Elémentaire Pauline Roland"},"_l":[47.1858270229523,-1.55774301280114],"LIBTHEME":"ENSEIGNEMENT","CODE_POSTAL":44400,"WEB":"www.reze;fr","STATUT":"Public","TELEPHONE":"02 40 75 43 46","THEME":5,"COMMUNE":"REZE","LIBCATEGORIE":"Elémentaire","ADRESSE":"5 Allée de Picardie","LIBTYPE":null,"_IDOBJ":2891,"TYPE":null,"CATEGORIE":502},"geometry":{"type":"Point","coordinates":[-1.55774301280114,47.1858270229523]}},{"type":"Feature","properties":{"geo":{"name":"Elementaire Château Sud"},"_l":[47.18134954696,-1.55821077542443],"LIBTHEME":"ENSEIGNEMENT","CODE_POSTAL":44400,"WEB":null,"STATUT":"Public","TELEPHONE":"02 40 84 31 90","THEME":5,"COMMUNE":"REZE","LIBCATEGORIE":"Elémentaire","ADRESSE":"Rue des Frères Lumière","LIBTYPE":null,"_IDOBJ":2894,"TYPE":null,"CATEGORIE":502},"geometry":{"type":"Point","coordinates":[-1.55821077542443,47.18134954696]}},{"type":"Feature","properties":{"geo":{"name":"Elémentaire Chêne Creux"},"_l":[47.1740418189186,-1.54701678194601],"LIBTHEME":"ENSEIGNEMENT","CODE_POSTAL":44400,"WEB":null,"STATUT":"Public","TELEPHONE":"02 40 75 43 55","THEME":5,"COMMUNE":"REZE","LIBCATEGORIE":"Elémentaire","ADRESSE":"31 Rue Jean-Baptiste et Henri Tendron","LIBTYPE":null,"_IDOBJ":2896,"TYPE":null,"CATEGORIE":502},"geometry":{"type":"Point","coordinates":[-1.54701678194601,47.1740418189186]}},{"type":"Feature","properties":{"geo":{"name":"Elémentaire La Houssais"},"_l":[47.1753032017663,-1.55405840375805],"LIBTHEME":"ENSEIGNEMENT","CODE_POSTAL":44400,"WEB":null,"STATUT":"Public","TELEPHONE":"02 40 04 19 30","THEME":5,"COMMUNE":"REZE","LIBCATEGORIE":"Elémentaire","ADRESSE":"101 Rue Maurice Jouaud","LIBTYPE":null,"_IDOBJ":2900,"TYPE":null,"CATEGORIE":502},"geometry":{"type":"Point","coordinates":[-1.55405840375805,47.1753032017663]}},{"type":"Feature","properties":{"geo":{"name":"Elémentaire Ouche Dinier GPE1"},"_l":[47.1790744790606,-1.53691100940641],"LIBTHEME":"ENSEIGNEMENT","CODE_POSTAL":44400,"WEB":null,"STATUT":"Public","TELEPHONE":"02 40 75 42 78","THEME":5,"COMMUNE":"REZE","LIBCATEGORIE":"Elémentaire","ADRESSE":"Rue Emile Blandin","LIBTYPE":null,"_IDOBJ":2903,"TYPE":null,"CATEGORIE":502},"geometry":{"type":"Point","coordinates":[-1.53691100940641,47.1790744790606]}},{"type":"Feature","properties":{"geo":{"name":"Elémentaire Ouche Dinier GP2"},"_l":[47.178547728653,-1.53609761688689],"LIBTHEME":"ENSEIGNEMENT","CODE_POSTAL":44400,"WEB":null,"STATUT":"Public","TELEPHONE":"02 40 84 30 66","THEME":5,"COMMUNE":"REZE","LIBCATEGORIE":"Elémentaire","ADRESSE":"Rue de l'Ouche Dinier","LIBTYPE":null,"_IDOBJ":2904,"TYPE":null,"CATEGORIE":502},"geometry":{"type":"Point","coordinates":[-1.53609761688689,47.178547728653]}},{"type":"Feature","properties":{"geo":{"name":"Elémentaire Saint Paul"},"_l":[47.1867572478688,-1.54700087410977],"LIBTHEME":"ENSEIGNEMENT","CODE_POSTAL":44400,"WEB":null,"STATUT":"Privé","TELEPHONE":"02 51 11 01 01","THEME":5,"COMMUNE":"REZE","LIBCATEGORIE":"Elémentaire","ADRESSE":"66 Rue Jean Jaurès","LIBTYPE":null,"_IDOBJ":2908,"TYPE":null,"CATEGORIE":502},"geometry":{"type":"Point","coordinates":[-1.54700087410977,47.1867572478688]}},{"type":"Feature","properties":{"geo":{"name":"Elémentaire Yvonne et Alexandre Plancher"},"_l":[47.1906201452605,-1.57155622332134],"LIBTHEME":"ENSEIGNEMENT","CODE_POSTAL":44400,"WEB":"www.reze.fr","STATUT":"Public","TELEPHONE":"02 40 75 43 47","THEME":5,"COMMUNE":"REZE","LIBCATEGORIE":"Elémentaire","ADRESSE":"5 Rue Georges Grille","LIBTYPE":null,"_IDOBJ":2911,"TYPE":null,"CATEGORIE":502},"geometry":{"type":"Point","coordinates":[-1.57155622332134,47.1906201452605]}},{"type":"Feature","properties":{"geo":{"name":"Primaire  Les Regniers"},"_l":[47.1369161035294,-1.4636373518138],"LIBTHEME":"ENSEIGNEMENT","CODE_POSTAL":44120,"WEB":null,"STATUT":"Public","TELEPHONE":"02 40 05 71 42","THEME":5,"COMMUNE":"VERTOU","LIBCATEGORIE":"Elémentaire","ADRESSE":"27 Rue des Reigniers","LIBTYPE":null,"_IDOBJ":2914,"TYPE":null,"CATEGORIE":502},"geometry":{"type":"Point","coordinates":[-1.4636373518138,47.1369161035294]}},{"type":"Feature","properties":{"geo":{"name":"Elémentaire Les Treilles"},"_l":[47.1670579135085,-1.47225387679796],"LIBTHEME":"ENSEIGNEMENT","CODE_POSTAL":44120,"WEB":"www.vertou.fr","STATUT":"Public","TELEPHONE":"02 40 34 88 99","THEME":5,"COMMUNE":"VERTOU","LIBCATEGORIE":"Elémentaire","ADRESSE":"17 Avenue de Morges","LIBTYPE":null,"_IDOBJ":2917,"TYPE":null,"CATEGORIE":502},"geometry":{"type":"Point","coordinates":[-1.47225387679796,47.1670579135085]}},{"type":"Feature","properties":{"geo":{"name":"Elémentaire Saint Jospeh"},"_l":[47.1680751201804,-1.47212547587036],"LIBTHEME":"ENSEIGNEMENT","CODE_POSTAL":44120,"WEB":"www.smsjvertou.fr","STATUT":"Privé","TELEPHONE":"02 40 34 42 58","THEME":5,"COMMUNE":"VERTOU","LIBCATEGORIE":"Elémentaire","ADRESSE":"2 Place des Dix Otages","LIBTYPE":null,"_IDOBJ":2919,"TYPE":null,"CATEGORIE":502},"geometry":{"type":"Point","coordinates":[-1.47212547587036,47.1680751201804]}},{"type":"Feature","properties":{"geo":{"name":"Elémentaire La Reinetière"},"_l":[47.2576239911867,-1.48973542737272],"LIBTHEME":"ENSEIGNEMENT","CODE_POSTAL":44980,"WEB":null,"STATUT":"Public","TELEPHONE":"02 40 25 69 26","THEME":5,"COMMUNE":"SAINTE-LUCE-SUR-LOIRE","LIBCATEGORIE":"Elémentaire","ADRESSE":"57 Boulevard Louis Pasteur","LIBTYPE":null,"_IDOBJ":2923,"TYPE":null,"CATEGORIE":502},"geometry":{"type":"Point","coordinates":[-1.48973542737272,47.2576239911867]}},{"type":"Feature","properties":{"geo":{"name":"Elémentaire Les Tilleuls"},"_l":[47.2514819832587,-1.48658280204332],"LIBTHEME":"ENSEIGNEMENT","CODE_POSTAL":44980,"WEB":null,"STATUT":"Public","TELEPHONE":"02 40 25 66 19","THEME":5,"COMMUNE":"SAINTE-LUCE-SUR-LOIRE","LIBCATEGORIE":"Elémentaire","ADRESSE":"1B Rue Jules Ferry","LIBTYPE":null,"_IDOBJ":2925,"TYPE":null,"CATEGORIE":502},"geometry":{"type":"Point","coordinates":[-1.48658280204332,47.2514819832587]}},{"type":"Feature","properties":{"geo":{"name":"Elémentaire La Cerisaie"},"_l":[47.2508975984874,-1.48561419729631],"LIBTHEME":"ENSEIGNEMENT","CODE_POSTAL":44980,"WEB":null,"STATUT":"Public","TELEPHONE":"02 40 25 66 57","THEME":5,"COMMUNE":"SAINTE-LUCE-SUR-LOIRE","LIBCATEGORIE":"Elémentaire","ADRESSE":"10 Rue Jules Ferry","LIBTYPE":null,"_IDOBJ":2926,"TYPE":null,"CATEGORIE":502},"geometry":{"type":"Point","coordinates":[-1.48561419729631,47.2508975984874]}},{"type":"Feature","properties":{"geo":{"name":"Elémentaire Paul Fort"},"_l":[47.2691673103063,-1.44141361949763],"LIBTHEME":"ENSEIGNEMENT","CODE_POSTAL":44470,"WEB":null,"STATUT":"Public","TELEPHONE":"02 40 77 56 05","THEME":5,"COMMUNE":"THOUARE-SUR-LOIRE","LIBCATEGORIE":"Elémentaire","ADRESSE":"Rue de Homberg","LIBTYPE":null,"_IDOBJ":2932,"TYPE":null,"CATEGORIE":502},"geometry":{"type":"Point","coordinates":[-1.44141361949763,47.2691673103063]}},{"type":"Feature","properties":{"geo":{"name":"Elémentaire Robert-Badinter"},"_l":[47.1951230719613,-1.72445432829662],"LIBTHEME":"ENSEIGNEMENT","CODE_POSTAL":44640,"WEB":"ecole.boiseau.free.fr","STATUT":"Public","TELEPHONE":"02 40 65 64 94","THEME":5,"COMMUNE":"SAINT-JEAN-DE-BOISEAU","LIBCATEGORIE":"Elémentaire","ADRESSE":"Avenue du Onze Novembre","LIBTYPE":null,"_IDOBJ":2934,"TYPE":null,"CATEGORIE":502},"geometry":{"type":"Point","coordinates":[-1.72445432829662,47.1951230719613]}},{"type":"Feature","properties":{"geo":{"name":"Elémentaire La Rivière"},"_l":[47.263830914977,-1.67095865919338],"LIBTHEME":"ENSEIGNEMENT","CODE_POSTAL":44880,"WEB":null,"STATUT":"Public","TELEPHONE":"02 40 63 17 87","THEME":5,"COMMUNE":"SAUTRON","LIBCATEGORIE":"Elémentaire","ADRESSE":"Rue de la Rivière","LIBTYPE":null,"_IDOBJ":2939,"TYPE":null,"CATEGORIE":502},"geometry":{"type":"Point","coordinates":[-1.67095865919338,47.263830914977]}},{"type":"Feature","properties":{"geo":{"name":"Elémentaire Angevinière"},"_l":[47.2455094431362,-1.61235662058275],"LIBTHEME":"ENSEIGNEMENT","CODE_POSTAL":44800,"WEB":"www.saint-herblain.fr","STATUT":"Public","TELEPHONE":"02 40 63 50 37","THEME":5,"COMMUNE":"ST-HERBLAIN","LIBCATEGORIE":"Elémentaire","ADRESSE":"Avenue de l'Angevinière","LIBTYPE":null,"_IDOBJ":2944,"TYPE":null,"CATEGORIE":502},"geometry":{"type":"Point","coordinates":[-1.61235662058275,47.2455094431362]}},{"type":"Feature","properties":{"geo":{"name":"Elémentaire Beauregard"},"_l":[47.2115434349795,-1.65876995594925],"LIBTHEME":"ENSEIGNEMENT","CODE_POSTAL":44800,"WEB":"www.saint-herblain.fr","STATUT":"Public","TELEPHONE":"02 40 38 36 02","THEME":5,"COMMUNE":"ST-HERBLAIN","LIBCATEGORIE":"Elémentaire","ADRESSE":"22 Avenue de Beauregard","LIBTYPE":null,"_IDOBJ":2945,"TYPE":null,"CATEGORIE":502},"geometry":{"type":"Point","coordinates":[-1.65876995594925,47.2115434349795]}},{"type":"Feature","properties":{"geo":{"name":"Elémentaire Bernardière"},"_l":[47.2066105950368,-1.6177915384289],"LIBTHEME":"ENSEIGNEMENT","CODE_POSTAL":44800,"WEB":"www.saint-herblain.fr","STATUT":"Public","TELEPHONE":"02 40 95 13 20","THEME":5,"COMMUNE":"ST-HERBLAIN","LIBCATEGORIE":"Elémentaire","ADRESSE":"5 Rue de la Lozère","LIBTYPE":null,"_IDOBJ":2946,"TYPE":null,"CATEGORIE":502},"geometry":{"type":"Point","coordinates":[-1.6177915384289,47.2066105950368]}},{"type":"Feature","properties":{"geo":{"name":"Elémentaire Condorcet"},"_l":[47.2310036737641,-1.60590555044479],"LIBTHEME":"ENSEIGNEMENT","CODE_POSTAL":44800,"WEB":"www.saint-herblain.fr","STATUT":"Public","TELEPHONE":"02 40 58 65 73","THEME":5,"COMMUNE":"ST-HERBLAIN","LIBCATEGORIE":"Elémentaire","ADRESSE":"9 Rue de Tillay","LIBTYPE":null,"_IDOBJ":2947,"TYPE":null,"CATEGORIE":502},"geometry":{"type":"Point","coordinates":[-1.60590555044479,47.2310036737641]}},{"type":"Feature","properties":{"geo":{"name":"Elémentaire Crémetterie"},"_l":[47.2156323657241,-1.60909931334529],"LIBTHEME":"ENSEIGNEMENT","CODE_POSTAL":44800,"WEB":"www.saint-herblain.fr","STATUT":"Public","TELEPHONE":"02 40 43 93 37","THEME":5,"COMMUNE":"ST-HERBLAIN","LIBCATEGORIE":"Elémentaire","ADRESSE":"15 Rue de l'Ecole","LIBTYPE":null,"_IDOBJ":2948,"TYPE":null,"CATEGORIE":502},"geometry":{"type":"Point","coordinates":[-1.60909931334529,47.2156323657241]}},{"type":"Feature","properties":{"geo":{"name":"Elémentaire Jacqueline Auriol"},"_l":[47.2123270332356,-1.64956765626286],"LIBTHEME":"ENSEIGNEMENT","CODE_POSTAL":44800,"WEB":"www.saint-herblain.fr","STATUT":"Public","TELEPHONE":"02 40 38 30 48","THEME":5,"COMMUNE":"ST-HERBLAIN","LIBCATEGORIE":"Elémentaire","ADRESSE":"33 Rue des Calvaires","LIBTYPE":null,"_IDOBJ":2949,"TYPE":null,"CATEGORIE":502},"geometry":{"type":"Point","coordinates":[-1.64956765626286,47.2123270332356]}},{"type":"Feature","properties":{"geo":{"name":"Elémentaire Joli Mai"},"_l":[47.2431575172943,-1.60149190067276],"LIBTHEME":"ENSEIGNEMENT","CODE_POSTAL":44800,"WEB":"www.saint-herblain.fr","STATUT":"Public","TELEPHONE":"02 40 76 08 14","THEME":5,"COMMUNE":"ST-HERBLAIN","LIBCATEGORIE":"Elémentaire","ADRESSE":"66 Avenue de Cheverny","LIBTYPE":null,"_IDOBJ":2950,"TYPE":null,"CATEGORIE":502},"geometry":{"type":"Point","coordinates":[-1.60149190067276,47.2431575172943]}},{"type":"Feature","properties":{"geo":{"name":"Elémentaire La Rabotière"},"_l":[47.2152744976857,-1.61659152115528],"LIBTHEME":"ENSEIGNEMENT","CODE_POSTAL":44800,"WEB":"www.saint-herblain.fr","STATUT":"Public","TELEPHONE":"02 40 95 01 43","THEME":5,"COMMUNE":"ST-HERBLAIN","LIBCATEGORIE":"Elémentaire","ADRESSE":"4 Rue de Saint Servan","LIBTYPE":null,"_IDOBJ":2952,"TYPE":null,"CATEGORIE":502},"geometry":{"type":"Point","coordinates":[-1.61659152115528,47.2152744976857]}},{"type":"Feature","properties":{"geo":{"name":"Elémentaire La Sensive"},"_l":[47.2106157194959,-1.6133526121918],"LIBTHEME":"ENSEIGNEMENT","CODE_POSTAL":44800,"WEB":"www.saint-herblain.fr","STATUT":"Public","TELEPHONE":"02 40 95 01 58","THEME":5,"COMMUNE":"ST-HERBLAIN","LIBCATEGORIE":"Elémentaire","ADRESSE":"1 Rue de la Gironde","LIBTYPE":null,"_IDOBJ":2953,"TYPE":null,"CATEGORIE":502},"geometry":{"type":"Point","coordinates":[-1.6133526121918,47.2106157194959]}},{"type":"Feature","properties":{"geo":{"name":"Elémentaire Les Grands Bois"},"_l":[47.2337411507036,-1.5913759201213],"LIBTHEME":"ENSEIGNEMENT","CODE_POSTAL":44800,"WEB":"www.saint-herblain.fr","STATUT":"Public","TELEPHONE":"02 40 59 20 54","THEME":5,"COMMUNE":"ST-HERBLAIN","LIBCATEGORIE":"Elémentaire","ADRESSE":"9 Avenue des Grands Bois","LIBTYPE":null,"_IDOBJ":2954,"TYPE":null,"CATEGORIE":502},"geometry":{"type":"Point","coordinates":[-1.5913759201213,47.2337411507036]}},{"type":"Feature","properties":{"geo":{"name":"Elémentaire René Guy Cadou"},"_l":[47.2337964064034,-1.63234798586977],"LIBTHEME":"ENSEIGNEMENT","CODE_POSTAL":44800,"WEB":"www.saint-herblain.fr","STATUT":"Public","TELEPHONE":"02 40 63 80 63","THEME":5,"COMMUNE":"ST-HERBLAIN","LIBCATEGORIE":"Elémentaire","ADRESSE":"2 Rue du Bois de Lagland","LIBTYPE":null,"_IDOBJ":2955,"TYPE":null,"CATEGORIE":502},"geometry":{"type":"Point","coordinates":[-1.63234798586977,47.2337964064034]}},{"type":"Feature","properties":{"geo":{"name":"Elémentaire Beausoleil"},"_l":[47.3041450764179,-1.56133976696503],"LIBTHEME":"ENSEIGNEMENT","CODE_POSTAL":44240,"WEB":"ec-beausoleil-44.ac-nantes.fr","STATUT":"Public","TELEPHONE":"02 40 72 06 15","THEME":5,"COMMUNE":"LA-CHAPELLE-SUR-ERDRE","LIBCATEGORIE":"Elémentaire","ADRESSE":"Rue de Beausoleil","LIBTYPE":null,"_IDOBJ":2988,"TYPE":null,"CATEGORIE":502},"geometry":{"type":"Point","coordinates":[-1.56133976696503,47.3041450764179]}},{"type":"Feature","properties":{"geo":{"name":"Elémentaire La Blanchetière"},"_l":[47.2881548480675,-1.55358654432806],"LIBTHEME":"ENSEIGNEMENT","CODE_POSTAL":44240,"WEB":"www.lachapellesurerdre.fr","STATUT":"Public","TELEPHONE":"02 40 77 80 18","THEME":5,"COMMUNE":"LA-CHAPELLE-SUR-ERDRE","LIBCATEGORIE":"Elémentaire","ADRESSE":"3 Rue de la Blanchetière","LIBTYPE":null,"_IDOBJ":2990,"TYPE":null,"CATEGORIE":502},"geometry":{"type":"Point","coordinates":[-1.55358654432806,47.2881548480675]}},{"type":"Feature","properties":{"geo":{"name":"Elémentaire La Lande de Mazaire"},"_l":[47.2963354911738,-1.55681759391203],"LIBTHEME":"ENSEIGNEMENT","CODE_POSTAL":44240,"WEB":"www.lachapellesurerdre.fr","STATUT":"Public","TELEPHONE":"02 40 72 01 96","THEME":5,"COMMUNE":"LA-CHAPELLE-SUR-ERDRE","LIBCATEGORIE":"Elémentaire","ADRESSE":"Rue de la Hautière","LIBTYPE":null,"_IDOBJ":2992,"TYPE":null,"CATEGORIE":502},"geometry":{"type":"Point","coordinates":[-1.55681759391203,47.2963354911738]}},{"type":"Feature","properties":{"geo":{"name":"Elémentaire Robert Doisneau"},"_l":[47.267672332687,-1.54955065954073],"LIBTHEME":"ENSEIGNEMENT","CODE_POSTAL":44240,"WEB":"ecolerobertdoisneau.free.fr","STATUT":"Public","TELEPHONE":"02 40 93 58 97","THEME":5,"COMMUNE":"LA-CHAPELLE-SUR-ERDRE","LIBCATEGORIE":"Elémentaire","ADRESSE":"Boulevard du Gesvres","LIBTYPE":null,"_IDOBJ":2994,"TYPE":null,"CATEGORIE":502},"geometry":{"type":"Point","coordinates":[-1.54955065954073,47.267672332687]}},{"type":"Feature","properties":{"geo":{"name":"Elémentaire de l'Enclos"},"_l":[47.1709211423589,-1.47410321159924],"LIBTHEME":"ENSEIGNEMENT","CODE_POSTAL":44120,"WEB":null,"STATUT":"Public","TELEPHONE":"02 51 71 03 65","THEME":5,"COMMUNE":"VERTOU","LIBCATEGORIE":"Elémentaire","ADRESSE":"9 Rue du Huit Mai 1945","LIBTYPE":null,"_IDOBJ":3297,"TYPE":null,"CATEGORIE":502},"geometry":{"type":"Point","coordinates":[-1.47410321159924,47.1709211423589]}},{"type":"Feature","properties":{"geo":{"name":"Elémentaire Saint Brice"},"_l":[47.2147726618515,-1.46481097718134],"LIBTHEME":"ENSEIGNEMENT","CODE_POSTAL":44115,"WEB":null,"STATUT":"Privé","TELEPHONE":"02 40 06 04 15","THEME":5,"COMMUNE":"BASSE-GOULAINE","LIBCATEGORIE":"Elémentaire","ADRESSE":"18 Place Saint Brice","LIBTYPE":null,"_IDOBJ":3384,"TYPE":null,"CATEGORIE":502},"geometry":{"type":"Point","coordinates":[-1.46481097718134,47.2147726618515]}},{"type":"Feature","properties":{"geo":{"name":"Elémentaire Joachim du Bellay"},"_l":[47.2751320270688,-1.43956162337748],"LIBTHEME":"ENSEIGNEMENT","CODE_POSTAL":44470,"WEB":null,"STATUT":"Public","TELEPHONE":"02 40 77 30 47","THEME":5,"COMMUNE":"THOUARE-SUR-LOIRE","LIBCATEGORIE":"Elémentaire","ADRESSE":"13 Rue de la Maurienne","LIBTYPE":null,"_IDOBJ":3559,"TYPE":null,"CATEGORIE":502},"geometry":{"type":"Point","coordinates":[-1.43956162337748,47.2751320270688]}}]}