{"type":"FeatureCollection","features":[{"type":"Feature","properties":{"geo":{"name":"Foyer Jeunes Travailleurs Frère Louis"},"_l":[47.1956009454992,-1.53825032136384],"LIBTHEME":"VIE SOCIALE","CODE_POSTAL":44200,"WEB":null,"STATUT":null,"TELEPHONE":"02 51 11 06 87","THEME":12,"COMMUNE":"NANTES","LIBCATEGORIE":"Jeunesse","ADRESSE":"7 Rue Frère Louis","LIBTYPE":"Foyer","_IDOBJ":3025,"TYPE":120202,"CATEGORIE":1202},"geometry":{"type":"Point","coordinates":[-1.53825032136384,47.1956009454992]}},{"type":"Feature","properties":{"geo":{"name":"Centre de loisirs l'Orée du bois"},"_l":[47.147533026361,-1.52090696069849],"LIBTHEME":"VIE SOCIALE","CODE_POSTAL":44840,"WEB":null,"STATUT":null,"TELEPHONE":"02 40 05 70 82","THEME":12,"COMMUNE":"LES-SORINIERES","LIBCATEGORIE":"Jeunesse","ADRESSE":"44 Rue des Papillons","LIBTYPE":"Centre de loisirs","_IDOBJ":3033,"TYPE":120201,"CATEGORIE":1202},"geometry":{"type":"Point","coordinates":[-1.52090696069849,47.147533026361]}},{"type":"Feature","properties":{"geo":{"name":"Centre de Loisirs Gournerie"},"_l":[47.2484810195016,-1.64009642617215],"LIBTHEME":"VIE SOCIALE","CODE_POSTAL":44800,"WEB":null,"STATUT":null,"TELEPHONE":"02 40 94 93 85","THEME":12,"COMMUNE":"ST-HERBLAIN","LIBCATEGORIE":"Jeunesse","ADRESSE":"Allée de la Ferme","LIBTYPE":"Centre de loisirs","_IDOBJ":3034,"TYPE":120201,"CATEGORIE":1202},"geometry":{"type":"Point","coordinates":[-1.64009642617215,47.2484810195016]}},{"type":"Feature","properties":{"geo":{"name":"Centre de Loisirs La Montagne"},"_l":[47.1882883560556,-1.6763016750886],"LIBTHEME":"VIE SOCIALE","CODE_POSTAL":44620,"WEB":null,"STATUT":null,"TELEPHONE":"02 40 65 81 70","THEME":12,"COMMUNE":"LA-MONTAGNE","LIBCATEGORIE":"Jeunesse","ADRESSE":"Rue Jules Verne","LIBTYPE":"Centre de loisirs","_IDOBJ":3036,"TYPE":120201,"CATEGORIE":1202},"geometry":{"type":"Point","coordinates":[-1.6763016750886,47.1882883560556]}},{"type":"Feature","properties":{"geo":{"name":"Centre de Loisirs La Presse au Vin"},"_l":[47.1783579690163,-1.48123825524826],"LIBTHEME":"VIE SOCIALE","CODE_POSTAL":44120,"WEB":null,"STATUT":null,"TELEPHONE":"02 40 34 45 91","THEME":12,"COMMUNE":"VERTOU","LIBCATEGORIE":"Jeunesse","ADRESSE":"Rue des Fraîches","LIBTYPE":"Centre de loisirs","_IDOBJ":3039,"TYPE":120201,"CATEGORIE":1202},"geometry":{"type":"Point","coordinates":[-1.48123825524826,47.1783579690163]}},{"type":"Feature","properties":{"geo":{"name":"Centre de Loisirs Blottereau C. E. SNCF"},"_l":[47.2355404366095,-1.49819691248923],"LIBTHEME":"VIE SOCIALE","CODE_POSTAL":44300,"WEB":null,"STATUT":null,"TELEPHONE":"02 40 93 96 40","THEME":12,"COMMUNE":"NANTES","LIBCATEGORIE":"Jeunesse","ADRESSE":"20 Rue Saint Médard","LIBTYPE":"Centre de loisirs","_IDOBJ":3040,"TYPE":120201,"CATEGORIE":1202},"geometry":{"type":"Point","coordinates":[-1.49819691248923,47.2355404366095]}},{"type":"Feature","properties":{"geo":{"name":"Centre de loisirs primaires - FA SI LA JOUER"},"_l":[47.1487638974025,-1.69656642641687],"LIBTHEME":"VIE SOCIALE","CODE_POSTAL":44830,"WEB":"www.bouaye.fr","STATUT":null,"TELEPHONE":"02 51 70 52 90","THEME":12,"COMMUNE":"BOUAYE","LIBCATEGORIE":"Jeunesse","ADRESSE":"2 Rue du Stade","LIBTYPE":"Centre de loisirs","_IDOBJ":3041,"TYPE":120201,"CATEGORIE":1202},"geometry":{"type":"Point","coordinates":[-1.69656642641687,47.1487638974025]}},{"type":"Feature","properties":{"geo":{"name":"Centre de Loisirs ARPEJ Chêne Gala"},"_l":[47.1868669616418,-1.53782229367269],"LIBTHEME":"VIE SOCIALE","CODE_POSTAL":44400,"WEB":null,"STATUT":null,"TELEPHONE":"02 40 04 04 43","THEME":12,"COMMUNE":"REZE","LIBCATEGORIE":"Jeunesse","ADRESSE":"99 Rue Jean Baptiste Vigier","LIBTYPE":"Centre de loisirs","_IDOBJ":3043,"TYPE":120201,"CATEGORIE":1202},"geometry":{"type":"Point","coordinates":[-1.53782229367269,47.1868669616418]}},{"type":"Feature","properties":{"geo":{"name":"Centre de Loisirs ARPEJ  Robinière"},"_l":[47.1631105357901,-1.52888988696269],"LIBTHEME":"VIE SOCIALE","CODE_POSTAL":44400,"WEB":null,"STATUT":null,"TELEPHONE":"02 51 70 21 76","THEME":12,"COMMUNE":"REZE","LIBCATEGORIE":"Jeunesse","ADRESSE":"Rue des Poyaux","LIBTYPE":"Centre de loisirs","_IDOBJ":3044,"TYPE":120201,"CATEGORIE":1202},"geometry":{"type":"Point","coordinates":[-1.52888988696269,47.1631105357901]}},{"type":"Feature","properties":{"geo":{"name":"Centre de Loisirs ARPEJ Les Guyzmos"},"_l":[47.1770790771053,-1.53401552312265],"LIBTHEME":"VIE SOCIALE","CODE_POSTAL":44400,"WEB":null,"STATUT":null,"TELEPHONE":"02 40 84 04 78","THEME":12,"COMMUNE":"REZE","LIBCATEGORIE":"Jeunesse","ADRESSE":"3 Square du Jaunais","LIBTYPE":"Centre de loisirs","_IDOBJ":3045,"TYPE":120201,"CATEGORIE":1202},"geometry":{"type":"Point","coordinates":[-1.53401552312265,47.1770790771053]}},{"type":"Feature","properties":{"geo":{"name":"Centre de Loisirs ARPEJ Les Visiteurs"},"_l":[47.1857177819363,-1.55629286667412],"LIBTHEME":"VIE SOCIALE","CODE_POSTAL":44400,"WEB":null,"STATUT":null,"TELEPHONE":"02 40 05 07 70","THEME":12,"COMMUNE":"REZE","LIBCATEGORIE":"Jeunesse","ADRESSE":"Allée de Provence","LIBTYPE":"Centre de loisirs","_IDOBJ":3047,"TYPE":120201,"CATEGORIE":1202},"geometry":{"type":"Point","coordinates":[-1.55629286667412,47.1857177819363]}},{"type":"Feature","properties":{"geo":{"name":"Centre de Loisirs ACCOORD Malakoff"},"_l":[47.2158772203713,-1.52266803066821],"LIBTHEME":"VIE SOCIALE","CODE_POSTAL":44000,"WEB":null,"STATUT":null,"TELEPHONE":"02 40 47 38 83","THEME":12,"COMMUNE":"NANTES","LIBCATEGORIE":"Jeunesse","ADRESSE":"Rue de Chypre","LIBTYPE":"Centre de loisirs","_IDOBJ":3050,"TYPE":120201,"CATEGORIE":1202},"geometry":{"type":"Point","coordinates":[-1.52266803066821,47.2158772203713]}},{"type":"Feature","properties":{"geo":{"name":"Centre Aéré Gesvrine Château de l'Hopitau"},"_l":[47.2703128805881,-1.55308740130376],"LIBTHEME":"VIE SOCIALE","CODE_POSTAL":44240,"WEB":null,"STATUT":null,"TELEPHONE":"02 40 93 52 25","THEME":12,"COMMUNE":"LA-CHAPELLE-SUR-ERDRE","LIBCATEGORIE":"Jeunesse","ADRESSE":"Boulevard de l'Hopitau","LIBTYPE":"Centre de loisirs","_IDOBJ":3051,"TYPE":120201,"CATEGORIE":1202},"geometry":{"type":"Point","coordinates":[-1.55308740130376,47.2703128805881]}},{"type":"Feature","properties":{"geo":{"name":"ALAC Château de Florigny"},"_l":[47.2974209718415,-1.48362625469766],"LIBTHEME":"VIE SOCIALE","CODE_POSTAL":44470,"WEB":"www.carquefou.fr","STATUT":null,"TELEPHONE":"02 40 52 64 68","THEME":12,"COMMUNE":"CARQUEFOU","LIBCATEGORIE":"Jeunesse","ADRESSE":"Avenue des Argonautes","LIBTYPE":"Centre de loisirs","_IDOBJ":3083,"TYPE":120201,"CATEGORIE":1202},"geometry":{"type":"Point","coordinates":[-1.48362625469766,47.2974209718415]}},{"type":"Feature","properties":{"geo":{"name":"Espace Plein Air Port Barbe ACCOORD"},"_l":[47.2641782577693,-1.54080662076801],"LIBTHEME":"VIE SOCIALE","CODE_POSTAL":44240,"WEB":null,"STATUT":null,"TELEPHONE":"02 40 72 53 29","THEME":12,"COMMUNE":"LA-CHAPELLE-SUR-ERDRE","LIBCATEGORIE":"Jeunesse","ADRESSE":"Route de la Jonelière","LIBTYPE":"Centre de loisirs","_IDOBJ":3123,"TYPE":120201,"CATEGORIE":1202},"geometry":{"type":"Point","coordinates":[-1.54080662076801,47.2641782577693]}},{"type":"Feature","properties":{"geo":{"name":"C. de Loisirs Le Petit Atelier ACCOORD"},"_l":[47.2235242398051,-1.56403278684577],"LIBTHEME":"VIE SOCIALE","CODE_POSTAL":44000,"WEB":null,"STATUT":null,"TELEPHONE":"02 40 12 42 02","THEME":12,"COMMUNE":"NANTES","LIBCATEGORIE":"Jeunesse","ADRESSE":"39 Rue des Hauts Pavés","LIBTYPE":"Centre de loisirs","_IDOBJ":3125,"TYPE":120201,"CATEGORIE":1202},"geometry":{"type":"Point","coordinates":[-1.56403278684577,47.2235242398051]}},{"type":"Feature","properties":{"geo":{"name":"Foyer Jeunes Filles Sainte Geneviève"},"_l":[47.2261467770434,-1.56077518986988],"LIBTHEME":"VIE SOCIALE","CODE_POSTAL":44000,"WEB":null,"STATUT":null,"TELEPHONE":"02 51 25 05 30","THEME":12,"COMMUNE":"NANTES","LIBCATEGORIE":"Jeunesse","ADRESSE":"91 Rue Paul Bellamy","LIBTYPE":"Foyer","_IDOBJ":3172,"TYPE":120202,"CATEGORIE":1202},"geometry":{"type":"Point","coordinates":[-1.56077518986988,47.2261467770434]}},{"type":"Feature","properties":{"geo":{"name":"Foyer Catholique des Etudiants"},"_l":[47.2147403192855,-1.5614151610593],"LIBTHEME":"VIE SOCIALE","CODE_POSTAL":44000,"WEB":null,"STATUT":null,"TELEPHONE":"02 40 48 50 75","THEME":12,"COMMUNE":"NANTES","LIBCATEGORIE":"Jeunesse","ADRESSE":"13 Rue du Chapeau Rouge","LIBTYPE":"Foyer","_IDOBJ":3173,"TYPE":120202,"CATEGORIE":1202},"geometry":{"type":"Point","coordinates":[-1.5614151610593,47.2147403192855]}},{"type":"Feature","properties":{"geo":{"name":"Foyer Catholique des Etudiants"},"_l":[47.2140600360741,-1.56974504635161],"LIBTHEME":"VIE SOCIALE","CODE_POSTAL":44100,"WEB":null,"STATUT":null,"TELEPHONE":"02 40 69 22 26","THEME":12,"COMMUNE":"NANTES","LIBCATEGORIE":"Jeunesse","ADRESSE":"13 Rue de Gigant","LIBTYPE":"Foyer","_IDOBJ":3174,"TYPE":120202,"CATEGORIE":1202},"geometry":{"type":"Point","coordinates":[-1.56974504635161,47.2140600360741]}},{"type":"Feature","properties":{"geo":{"name":"Foyer Jeunes Travailleurs Chanteclerc"},"_l":[47.2353255720706,-1.57924473728344],"LIBTHEME":"VIE SOCIALE","CODE_POSTAL":44300,"WEB":null,"STATUT":null,"TELEPHONE":null,"THEME":12,"COMMUNE":"NANTES","LIBCATEGORIE":"Jeunesse","ADRESSE":"42 Rue Chanteclerc","LIBTYPE":"Foyer","_IDOBJ":3234,"TYPE":120202,"CATEGORIE":1202},"geometry":{"type":"Point","coordinates":[-1.57924473728344,47.2353255720706]}},{"type":"Feature","properties":{"geo":{"name":"Pôle Jeunesse Ragon"},"_l":[47.1647935515926,-1.53945065159124],"LIBTHEME":"VIE SOCIALE","CODE_POSTAL":44400,"WEB":null,"STATUT":null,"TELEPHONE":null,"THEME":12,"COMMUNE":"REZE","LIBCATEGORIE":"Jeunesse","ADRESSE":"Rue de la Quératière","LIBTYPE":"Locaux jeunes","_IDOBJ":3288,"TYPE":120203,"CATEGORIE":1202},"geometry":{"type":"Point","coordinates":[-1.53945065159124,47.1647935515926]}},{"type":"Feature","properties":{"geo":{"name":"Centre de Loisirs Aimée Verbe"},"_l":[47.1930878475597,-1.48352826672196],"LIBTHEME":"VIE SOCIALE","CODE_POSTAL":44230,"WEB":null,"STATUT":null,"TELEPHONE":"02 40 03 51 79","THEME":12,"COMMUNE":"ST-SEBASTIEN","LIBCATEGORIE":"Jeunesse","ADRESSE":"Chemin de l'Ouche des Landes","LIBTYPE":"Centre de loisirs","_IDOBJ":3364,"TYPE":120201,"CATEGORIE":1202},"geometry":{"type":"Point","coordinates":[-1.48352826672196,47.1930878475597]}},{"type":"Feature","properties":{"geo":{"name":"Ferme Poisson"},"_l":[47.2687421360104,-1.59908690257486],"LIBTHEME":"VIE SOCIALE","CODE_POSTAL":44700,"WEB":null,"STATUT":null,"TELEPHONE":null,"THEME":12,"COMMUNE":"ORVAULT","LIBCATEGORIE":"Jeunesse","ADRESSE":"2 Chemin des Matines","LIBTYPE":"Locaux jeunes","_IDOBJ":3432,"TYPE":120203,"CATEGORIE":1202},"geometry":{"type":"Point","coordinates":[-1.59908690257486,47.2687421360104]}},{"type":"Feature","properties":{"geo":{"name":"Centre de Loisirs Orvault"},"_l":[47.2474836371542,-1.58585113269109],"LIBTHEME":"VIE SOCIALE","CODE_POSTAL":44700,"WEB":null,"STATUT":null,"TELEPHONE":null,"THEME":12,"COMMUNE":"ORVAULT","LIBCATEGORIE":"Jeunesse","ADRESSE":"37 Avenue de la Ferrière","LIBTYPE":"Centre de loisirs","_IDOBJ":3439,"TYPE":120201,"CATEGORIE":1202},"geometry":{"type":"Point","coordinates":[-1.58585113269109,47.2474836371542]}},{"type":"Feature","properties":{"geo":{"name":"Accueil de loisirs"},"_l":[47.2701829276471,-1.43936370124577],"LIBTHEME":"VIE SOCIALE","CODE_POSTAL":44470,"WEB":"www.thouare.fr","STATUT":null,"TELEPHONE":null,"THEME":12,"COMMUNE":"THOUARE-SUR-LOIRE","LIBCATEGORIE":"Jeunesse","ADRESSE":"20 Rue des Ecoles","LIBTYPE":"Centre de loisirs","_IDOBJ":3520,"TYPE":120201,"CATEGORIE":1202},"geometry":{"type":"Point","coordinates":[-1.43936370124577,47.2701829276471]}},{"type":"Feature","properties":{"geo":{"name":"Centre de Loisirs de l'Orangerie"},"_l":[47.2885331939767,-1.6252809043203],"LIBTHEME":"VIE SOCIALE","CODE_POSTAL":44700,"WEB":null,"STATUT":null,"TELEPHONE":null,"THEME":12,"COMMUNE":"ORVAULT","LIBCATEGORIE":"Jeunesse","ADRESSE":"Chemin de Bazoges","LIBTYPE":"Centre de loisirs","_IDOBJ":3573,"TYPE":120201,"CATEGORIE":1202},"geometry":{"type":"Point","coordinates":[-1.6252809043203,47.2885331939767]}},{"type":"Feature","properties":{"geo":{"name":"Foyer Jeunes Travailleurs Barbusse"},"_l":[47.2264529479268,-1.55294927477693],"LIBTHEME":"VIE SOCIALE","CODE_POSTAL":44000,"WEB":null,"STATUT":null,"TELEPHONE":null,"THEME":12,"COMMUNE":"NANTES","LIBCATEGORIE":"Jeunesse","ADRESSE":"61 Rue Jean Emile Laboureur","LIBTYPE":"Foyer","_IDOBJ":3588,"TYPE":120202,"CATEGORIE":1202},"geometry":{"type":"Point","coordinates":[-1.55294927477693,47.2264529479268]}},{"type":"Feature","properties":{"geo":{"name":"Centre de Loisirs Dervallières Château"},"_l":[47.2232871064153,-1.59212423566293],"LIBTHEME":"VIE SOCIALE","CODE_POSTAL":44100,"WEB":null,"STATUT":null,"TELEPHONE":null,"THEME":12,"COMMUNE":"NANTES","LIBCATEGORIE":"Jeunesse","ADRESSE":"3 Rue Auguste Renoir","LIBTYPE":"Centre de loisirs","_IDOBJ":3606,"TYPE":120201,"CATEGORIE":1202},"geometry":{"type":"Point","coordinates":[-1.59212423566293,47.2232871064153]}},{"type":"Feature","properties":{"geo":{"name":"Maison des Jeunes \"Le Cabanon\""},"_l":[47.1468252143166,-1.6973539499158],"LIBTHEME":"VIE SOCIALE","CODE_POSTAL":44830,"WEB":"www.mairie-bouaye.fr","STATUT":null,"TELEPHONE":"02 51 70 50 40","THEME":12,"COMMUNE":"BOUAYE","LIBCATEGORIE":"Jeunesse","ADRESSE":"Rue de l'Ancienne Eglise","LIBTYPE":"Locaux jeunes","_IDOBJ":3795,"TYPE":120203,"CATEGORIE":1202},"geometry":{"type":"Point","coordinates":[-1.6973539499158,47.1468252143166]}},{"type":"Feature","properties":{"geo":{"name":"Espace Jeunes"},"_l":[47.2645737677245,-1.68009782275627],"LIBTHEME":"VIE SOCIALE","CODE_POSTAL":44880,"WEB":"www.sautron.fr","STATUT":null,"TELEPHONE":"02 40 94 73 64","THEME":12,"COMMUNE":"SAUTRON","LIBCATEGORIE":"Jeunesse","ADRESSE":"1 Rue de la Ferme","LIBTYPE":"Locaux jeunes","_IDOBJ":3799,"TYPE":120203,"CATEGORIE":1202},"geometry":{"type":"Point","coordinates":[-1.68009782275627,47.2645737677245]}},{"type":"Feature","properties":{"geo":{"name":"Centre de Loisirs Bout des Pavés / Chêne des Anglais ACCOORD"},"_l":[47.2601682931023,-1.57627682515893],"LIBTHEME":"VIE SOCIALE","CODE_POSTAL":44300,"WEB":"www.accoordnantes.info","STATUT":null,"TELEPHONE":"02 40 40 19 16","THEME":12,"COMMUNE":"NANTES","LIBCATEGORIE":"Jeunesse","ADRESSE":"14 Rue de la Coulée","LIBTYPE":"Centre de loisirs","_IDOBJ":4085,"TYPE":120201,"CATEGORIE":1202},"geometry":{"type":"Point","coordinates":[-1.57627682515893,47.2601682931023]}},{"type":"Feature","properties":{"geo":{"name":"Pôle jeunesse de Trentemoult"},"_l":[47.1938694383059,-1.58081463875828],"LIBTHEME":"VIE SOCIALE","CODE_POSTAL":44400,"WEB":null,"STATUT":null,"TELEPHONE":null,"THEME":12,"COMMUNE":"REZE","LIBCATEGORIE":"Jeunesse","ADRESSE":"11 Rue Lebreton","LIBTYPE":"Centre de loisirs","_IDOBJ":4131,"TYPE":120201,"CATEGORIE":1202},"geometry":{"type":"Point","coordinates":[-1.58081463875828,47.1938694383059]}},{"type":"Feature","properties":{"geo":{"name":"Pôle Jeunesse des Trois Moulins"},"_l":[47.1780398234353,-1.54446361166524],"LIBTHEME":"VIE SOCIALE","CODE_POSTAL":44400,"WEB":"www.arpej-reze.asso.fr","STATUT":null,"TELEPHONE":"02 40 84 13 97","THEME":12,"COMMUNE":"REZE","LIBCATEGORIE":"Jeunesse","ADRESSE":"108 Rue Aristide Briand","LIBTYPE":"Centre de loisirs","_IDOBJ":4136,"TYPE":120201,"CATEGORIE":1202},"geometry":{"type":"Point","coordinates":[-1.54446361166524,47.1780398234353]}},{"type":"Feature","properties":{"geo":{"name":"Accueil de Loisirs Martray"},"_l":[47.2199098232734,-1.56009304145766],"LIBTHEME":"VIE SOCIALE","CODE_POSTAL":44000,"WEB":"www.accoordnantes.info","STATUT":null,"TELEPHONE":"02 51 82 28 58","THEME":12,"COMMUNE":"NANTES","LIBCATEGORIE":"Jeunesse","ADRESSE":"8 Allée Maud Mannoni","LIBTYPE":"Centre de loisirs","_IDOBJ":4157,"TYPE":120201,"CATEGORIE":1202},"geometry":{"type":"Point","coordinates":[-1.56009304145766,47.2199098232734]}},{"type":"Feature","properties":{"geo":{"name":"Maison des jeunes"},"_l":[47.1367444429896,-1.72115545420823],"LIBTHEME":"VIE SOCIALE","CODE_POSTAL":44710,"WEB":null,"STATUT":null,"TELEPHONE":null,"THEME":12,"COMMUNE":"SAINT-LEGER-LES-VIGNES","LIBCATEGORIE":"Jeunesse","ADRESSE":"2 Rue de la Haute Galerie","LIBTYPE":"Locaux jeunes","_IDOBJ":4165,"TYPE":120203,"CATEGORIE":1202},"geometry":{"type":"Point","coordinates":[-1.72115545420823,47.1367444429896]}},{"type":"Feature","properties":{"geo":{"name":"Accueil de Loisirs sans hébergement"},"_l":[47.1672988254331,-1.72297475729943],"LIBTHEME":"VIE SOCIALE","CODE_POSTAL":44830,"WEB":"www.mairie-brains.fr","STATUT":null,"TELEPHONE":"02 40 65 50 65","THEME":12,"COMMUNE":"BRAINS","LIBCATEGORIE":"Jeunesse","ADRESSE":"Rue des Primevères","LIBTYPE":"Centre de loisirs","_IDOBJ":4173,"TYPE":120201,"CATEGORIE":1202},"geometry":{"type":"Point","coordinates":[-1.72297475729943,47.1672988254331]}},{"type":"Feature","properties":{"geo":{"name":"Espace Jeunes"},"_l":[47.1481135575477,-1.52566618301886],"LIBTHEME":"VIE SOCIALE","CODE_POSTAL":44840,"WEB":null,"STATUT":null,"TELEPHONE":"02 40 05 73 30","THEME":12,"COMMUNE":"LES-SORINIERES","LIBCATEGORIE":"Jeunesse","ADRESSE":"10 Rue du Moulin","LIBTYPE":"Locaux jeunes","_IDOBJ":4182,"TYPE":120203,"CATEGORIE":1202},"geometry":{"type":"Point","coordinates":[-1.52566618301886,47.1481135575477]}},{"type":"Feature","properties":{"geo":{"name":"Centre de loisirs Les Petites Mains"},"_l":[47.1930095595534,-1.72492220312299],"LIBTHEME":"VIE SOCIALE","CODE_POSTAL":44640,"WEB":null,"STATUT":null,"TELEPHONE":"02 40 65 86 68","THEME":12,"COMMUNE":"SAINT-JEAN-DE-BOISEAU","LIBCATEGORIE":"Jeunesse","ADRESSE":"Rue des Violettes","LIBTYPE":"Centre de loisirs","_IDOBJ":4236,"TYPE":120201,"CATEGORIE":1202},"geometry":{"type":"Point","coordinates":[-1.72492220312299,47.1930095595534]}},{"type":"Feature","properties":{"geo":{"name":"Centre de loisirs Les Loupiots"},"_l":[47.1949177171334,-1.72450733420891],"LIBTHEME":"VIE SOCIALE","CODE_POSTAL":44640,"WEB":null,"STATUT":null,"TELEPHONE":"02 40 65 65 66","THEME":12,"COMMUNE":"SAINT-JEAN-DE-BOISEAU","LIBCATEGORIE":"Jeunesse","ADRESSE":"Avenue du Onze Novembre","LIBTYPE":"Centre de loisirs","_IDOBJ":4237,"TYPE":120201,"CATEGORIE":1202},"geometry":{"type":"Point","coordinates":[-1.72450733420891,47.1949177171334]}},{"type":"Feature","properties":{"geo":{"name":"Association Arpej"},"_l":[47.1899811437963,-1.57297264485646],"LIBTHEME":"VIE SOCIALE","CODE_POSTAL":44400,"WEB":"www.arpej-reze.asso.fr/","STATUT":null,"TELEPHONE":"02 51 83 79 20","THEME":12,"COMMUNE":"REZE","LIBCATEGORIE":"Jeunesse","ADRESSE":"6 Rue François Marchais","LIBTYPE":"Centre de loisirs","_IDOBJ":4254,"TYPE":120201,"CATEGORIE":1202},"geometry":{"type":"Point","coordinates":[-1.57297264485646,47.1899811437963]}},{"type":"Feature","properties":{"geo":{"name":"Espace Jeunes du Charbonneau"},"_l":[47.3029382608916,-1.49228822922751],"LIBTHEME":"VIE SOCIALE","CODE_POSTAL":44470,"WEB":"www.carquefou.fr","STATUT":null,"TELEPHONE":null,"THEME":12,"COMMUNE":"CARQUEFOU","LIBCATEGORIE":"Jeunesse","ADRESSE":"10 Rue Pierre Mendes France","LIBTYPE":"Foyer","_IDOBJ":4298,"TYPE":120202,"CATEGORIE":1202},"geometry":{"type":"Point","coordinates":[-1.49228822922751,47.3029382608916]}},{"type":"Feature","properties":{"geo":{"name":"Club de Jeunes de la Jouandière"},"_l":[47.2923098405427,-1.4895411230628],"LIBTHEME":"VIE SOCIALE","CODE_POSTAL":44470,"WEB":"www.carquefou.fr","STATUT":null,"TELEPHONE":null,"THEME":12,"COMMUNE":"CARQUEFOU","LIBCATEGORIE":"Jeunesse","ADRESSE":"Avenue de la Vendée","LIBTYPE":"Locaux jeunes","_IDOBJ":4306,"TYPE":120203,"CATEGORIE":1202},"geometry":{"type":"Point","coordinates":[-1.4895411230628,47.2923098405427]}},{"type":"Feature","properties":{"geo":{"name":"Accueil de Loisirs Aimé Césaire"},"_l":[47.2047657777152,-1.56545205716545],"LIBTHEME":"VIE SOCIALE","CODE_POSTAL":44200,"WEB":"www.nantes.fr","STATUT":null,"TELEPHONE":"02 44 76 11 02","THEME":12,"COMMUNE":"NANTES","LIBCATEGORIE":"Jeunesse","ADRESSE":"70 Boulevard de la Prairie au Duc","LIBTYPE":"Centre de loisirs","_IDOBJ":4365,"TYPE":120201,"CATEGORIE":1202},"geometry":{"type":"Point","coordinates":[-1.56545205716545,47.2047657777152]}},{"type":"Feature","properties":{"geo":{"name":"Centre de loisirs maternelles - Pit'chounes"},"_l":[47.1457827991254,-1.69031347740862],"LIBTHEME":"VIE SOCIALE","CODE_POSTAL":44830,"WEB":"www.bouaye.fr","STATUT":null,"TELEPHONE":"02 40 32 69 41","THEME":12,"COMMUNE":"BOUAYE","LIBCATEGORIE":"Jeunesse","ADRESSE":"12 Avenue du Moulin","LIBTYPE":"Centre de loisirs","_IDOBJ":4372,"TYPE":120201,"CATEGORIE":1202},"geometry":{"type":"Point","coordinates":[-1.69031347740862,47.1457827991254]}},{"type":"Feature","properties":{"geo":{"name":"Maison départementale des adolescents de Nantes"},"_l":[47.2075336067557,-1.56484784192801],"LIBTHEME":"VIE SOCIALE","CODE_POSTAL":44200,"WEB":"www.mda44.fr","STATUT":null,"TELEPHONE":"02 40 20 89 65","THEME":12,"COMMUNE":"NANTES","LIBCATEGORIE":"Jeunesse","ADRESSE":"7 Rue Julien Videment","LIBTYPE":"Foyer","_IDOBJ":4450,"TYPE":120202,"CATEGORIE":1202},"geometry":{"type":"Point","coordinates":[-1.56484784192801,47.2075336067557]}},{"type":"Feature","properties":{"geo":{"name":"Association pour la Réalisation d'Activités de loisirs Pour l'Enfance et la Jeun"},"_l":[47.1684162193865,-1.54638073663071],"LIBTHEME":"VIE SOCIALE","CODE_POSTAL":44400,"WEB":"www.reze.fr","STATUT":null,"TELEPHONE":"02 40 32 32 70","THEME":12,"COMMUNE":"REZE","LIBCATEGORIE":"Jeunesse","ADRESSE":"5 Rue Louise Weiss","LIBTYPE":"Centre de loisirs","_IDOBJ":4474,"TYPE":120201,"CATEGORIE":1202},"geometry":{"type":"Point","coordinates":[-1.54638073663071,47.1684162193865]}},{"type":"Feature","properties":{"geo":{"name":"Accueil de Loisirs Nantes Sud"},"_l":[47.1934093610761,-1.53351121174446],"LIBTHEME":"VIE SOCIALE","CODE_POSTAL":44200,"WEB":null,"STATUT":null,"TELEPHONE":null,"THEME":12,"COMMUNE":"NANTES","LIBCATEGORIE":"Jeunesse","ADRESSE":"38 Rue de la Ripossière","LIBTYPE":"Centre de loisirs","_IDOBJ":4497,"TYPE":120201,"CATEGORIE":1202},"geometry":{"type":"Point","coordinates":[-1.53351121174446,47.1934093610761]}},{"type":"Feature","properties":{"geo":{"name":"Espace Ado Euréka"},"_l":[47.2065677125895,-1.56393498952235],"LIBTHEME":"VIE SOCIALE","CODE_POSTAL":44200,"WEB":null,"STATUT":null,"TELEPHONE":null,"THEME":12,"COMMUNE":"NANTES","LIBCATEGORIE":"Jeunesse","ADRESSE":"7 Boulevard Léon Bureau","LIBTYPE":"Locaux jeunes","_IDOBJ":4502,"TYPE":120203,"CATEGORIE":1202},"geometry":{"type":"Point","coordinates":[-1.56393498952235,47.2065677125895]}},{"type":"Feature","properties":{"geo":{"name":"Accueil de Loisirs Grand Carcouët"},"_l":[47.227657480362,-1.59382330428036],"LIBTHEME":"VIE SOCIALE","CODE_POSTAL":44100,"WEB":null,"STATUT":null,"TELEPHONE":null,"THEME":12,"COMMUNE":"NANTES","LIBCATEGORIE":"Jeunesse","ADRESSE":"3 Rue Louis Brisset","LIBTYPE":"Centre de loisirs","_IDOBJ":4543,"TYPE":120201,"CATEGORIE":1202},"geometry":{"type":"Point","coordinates":[-1.59382330428036,47.227657480362]}},{"type":"Feature","properties":{"geo":{"name":"Accueil de Loisirs Barberie"},"_l":[47.2439537024259,-1.5715953890114],"LIBTHEME":"VIE SOCIALE","CODE_POSTAL":44300,"WEB":null,"STATUT":null,"TELEPHONE":null,"THEME":12,"COMMUNE":"NANTES","LIBCATEGORIE":"Jeunesse","ADRESSE":"25 Avenue de Tahiti","LIBTYPE":"Centre de loisirs","_IDOBJ":4544,"TYPE":120201,"CATEGORIE":1202},"geometry":{"type":"Point","coordinates":[-1.5715953890114,47.2439537024259]}},{"type":"Feature","properties":{"geo":{"name":"Accueil de Loisirs Julien Gracq"},"_l":[47.2407901638866,-1.51420989781512],"LIBTHEME":"VIE SOCIALE","CODE_POSTAL":44300,"WEB":null,"STATUT":null,"TELEPHONE":"02 40 68 95 59","THEME":12,"COMMUNE":"NANTES","LIBCATEGORIE":"Jeunesse","ADRESSE":"3 Mail Haroun Tazieff","LIBTYPE":"Centre de loisirs","_IDOBJ":4545,"TYPE":120201,"CATEGORIE":1202},"geometry":{"type":"Point","coordinates":[-1.51420989781512,47.2407901638866]}},{"type":"Feature","properties":{"geo":{"name":"Accueil de Loisirs St-Jo Le Linot"},"_l":[47.267643205927,-1.52805250254936],"LIBTHEME":"VIE SOCIALE","CODE_POSTAL":44300,"WEB":null,"STATUT":null,"TELEPHONE":"02 44 76 11 00","THEME":12,"COMMUNE":"NANTES","LIBCATEGORIE":"Jeunesse","ADRESSE":"45 Rue du Port des Charrettes","LIBTYPE":"Centre de loisirs","_IDOBJ":4546,"TYPE":120201,"CATEGORIE":1202},"geometry":{"type":"Point","coordinates":[-1.52805250254936,47.267643205927]}},{"type":"Feature","properties":{"geo":{"name":"Accueil de Loisirs Felix Thomas"},"_l":[47.2315635024368,-1.55276966917381],"LIBTHEME":"VIE SOCIALE","CODE_POSTAL":44000,"WEB":null,"STATUT":null,"TELEPHONE":"02 40 37 06 11","THEME":12,"COMMUNE":"NANTES","LIBCATEGORIE":"Jeunesse","ADRESSE":"39 Rue Félix Thomas","LIBTYPE":"Centre de loisirs","_IDOBJ":4547,"TYPE":120201,"CATEGORIE":1202},"geometry":{"type":"Point","coordinates":[-1.55276966917381,47.2315635024368]}},{"type":"Feature","properties":{"geo":{"name":"Accueil de Loisirs Petite Sensive"},"_l":[47.2608629221172,-1.5667555674544],"LIBTHEME":"VIE SOCIALE","CODE_POSTAL":44300,"WEB":null,"STATUT":null,"TELEPHONE":null,"THEME":12,"COMMUNE":"NANTES","LIBCATEGORIE":"Jeunesse","ADRESSE":"24 Rue Santos Dumont","LIBTYPE":"Centre de loisirs","_IDOBJ":4548,"TYPE":120201,"CATEGORIE":1202},"geometry":{"type":"Point","coordinates":[-1.5667555674544,47.2608629221172]}},{"type":"Feature","properties":{"geo":{"name":"Maison de l'Enfance et Terrain d'Aventure"},"_l":[47.2035453097864,-1.60730597359868],"LIBTHEME":"VIE SOCIALE","CODE_POSTAL":44100,"WEB":null,"STATUT":null,"TELEPHONE":"02 40 58 56 56","THEME":12,"COMMUNE":"NANTES","LIBCATEGORIE":"Jeunesse","ADRESSE":"20 Rue Firmin Colas","LIBTYPE":"Centre de loisirs","_IDOBJ":376,"TYPE":120201,"CATEGORIE":1202},"geometry":{"type":"Point","coordinates":[-1.60730597359868,47.2035453097864]}},{"type":"Feature","properties":{"geo":{"name":"Accueil de Loisirs Manu IV"},"_l":[47.2203249571716,-1.53543987527863],"LIBTHEME":"VIE SOCIALE","CODE_POSTAL":44000,"WEB":null,"STATUT":"Public","TELEPHONE":"02 40 37 07 87","THEME":12,"COMMUNE":"NANTES","LIBCATEGORIE":"Jeunesse","ADRESSE":"1 Place de la Manu","LIBTYPE":"Centre de loisirs","_IDOBJ":378,"TYPE":120201,"CATEGORIE":1202},"geometry":{"type":"Point","coordinates":[-1.53543987527863,47.2203249571716]}},{"type":"Feature","properties":{"geo":{"name":"Accueil de Loisirs Histoire de Jouer"},"_l":[47.2171828432197,-1.55618718951483],"LIBTHEME":"VIE SOCIALE","CODE_POSTAL":44000,"WEB":null,"STATUT":null,"TELEPHONE":"02 40 47 66 03","THEME":12,"COMMUNE":"NANTES","LIBCATEGORIE":"Jeunesse","ADRESSE":"12 Rue Armand Brossard","LIBTYPE":"Centre de loisirs","_IDOBJ":381,"TYPE":120201,"CATEGORIE":1202},"geometry":{"type":"Point","coordinates":[-1.55618718951483,47.2171828432197]}},{"type":"Feature","properties":{"geo":{"name":"Centre de Loisirs Maisdon Pajot"},"_l":[47.21791847748,-1.5856232705421],"LIBTHEME":"VIE SOCIALE","CODE_POSTAL":44100,"WEB":null,"STATUT":null,"TELEPHONE":"02 40 73 15 98","THEME":12,"COMMUNE":"NANTES","LIBCATEGORIE":"Jeunesse","ADRESSE":"25 Rue Monte Au Ciel","LIBTYPE":"Centre de loisirs","_IDOBJ":387,"TYPE":120201,"CATEGORIE":1202},"geometry":{"type":"Point","coordinates":[-1.5856232705421,47.21791847748]}},{"type":"Feature","properties":{"geo":{"name":"Centre de Loisirs Bout des Pavés ACCOORD"},"_l":[47.2566862547464,-1.57616016212572],"LIBTHEME":"VIE SOCIALE","CODE_POSTAL":44300,"WEB":null,"STATUT":null,"TELEPHONE":"02 40 40 19 16","THEME":12,"COMMUNE":"NANTES","LIBCATEGORIE":"Jeunesse","ADRESSE":"39 Route de la Chapelle Sur Erdre","LIBTYPE":"Centre de loisirs","_IDOBJ":395,"TYPE":120201,"CATEGORIE":1202},"geometry":{"type":"Point","coordinates":[-1.57616016212572,47.2566862547464]}},{"type":"Feature","properties":{"geo":{"name":"Centre de Loisirs Les Ponts ACCOORD"},"_l":[47.2063441278332,-1.54986716681084],"LIBTHEME":"VIE SOCIALE","CODE_POSTAL":44200,"WEB":null,"STATUT":null,"TELEPHONE":"02 40 48 77 27","THEME":12,"COMMUNE":"NANTES","LIBCATEGORIE":"Jeunesse","ADRESSE":"14 Rue Michel Rocher","LIBTYPE":"Centre de loisirs","_IDOBJ":400,"TYPE":120201,"CATEGORIE":1202},"geometry":{"type":"Point","coordinates":[-1.54986716681084,47.2063441278332]}},{"type":"Feature","properties":{"geo":{"name":"Accueil de Loisirs Aubinière"},"_l":[47.2585448054839,-1.49611929242603],"LIBTHEME":"VIE SOCIALE","CODE_POSTAL":44300,"WEB":null,"STATUT":null,"TELEPHONE":"02 40 25 66 31","THEME":12,"COMMUNE":"NANTES","LIBCATEGORIE":"Jeunesse","ADRESSE":"24 Chemin du Château de l'Aubinière","LIBTYPE":"Centre de loisirs","_IDOBJ":403,"TYPE":120201,"CATEGORIE":1202},"geometry":{"type":"Point","coordinates":[-1.49611929242603,47.2585448054839]}},{"type":"Feature","properties":{"geo":{"name":"Centre de Loisirs Santos Dumont ACCOORD"},"_l":[47.2598006314565,-1.56719042784691],"LIBTHEME":"VIE SOCIALE","CODE_POSTAL":44300,"WEB":null,"STATUT":null,"TELEPHONE":"02 40 94 11 79","THEME":12,"COMMUNE":"NANTES","LIBCATEGORIE":"Jeunesse","ADRESSE":"7 Rue Santos Dumont","LIBTYPE":"Centre de loisirs","_IDOBJ":938,"TYPE":120201,"CATEGORIE":1202},"geometry":{"type":"Point","coordinates":[-1.56719042784691,47.2598006314565]}},{"type":"Feature","properties":{"geo":{"name":"Espace Animation Beaulieu"},"_l":[47.2081889357792,-1.52676847942684],"LIBTHEME":"VIE SOCIALE","CODE_POSTAL":44200,"WEB":null,"STATUT":null,"TELEPHONE":"02 51 72 39 82","THEME":12,"COMMUNE":"NANTES","LIBCATEGORIE":"Jeunesse","ADRESSE":"4 Rue Marc Vaubourgoin","LIBTYPE":"Centre de loisirs","_IDOBJ":940,"TYPE":120201,"CATEGORIE":1202},"geometry":{"type":"Point","coordinates":[-1.52676847942684,47.2081889357792]}},{"type":"Feature","properties":{"geo":{"name":"Espaces d'Animation Saint Joseph"},"_l":[47.2690994177155,-1.51955864092386],"LIBTHEME":"VIE SOCIALE","CODE_POSTAL":44300,"WEB":null,"STATUT":null,"TELEPHONE":"02 40 30 19 39","THEME":12,"COMMUNE":"NANTES","LIBCATEGORIE":"Jeunesse","ADRESSE":"478 Route de Saint Joseph","LIBTYPE":"Centre de loisirs","_IDOBJ":950,"TYPE":120201,"CATEGORIE":1202},"geometry":{"type":"Point","coordinates":[-1.51955864092386,47.2690994177155]}},{"type":"Feature","properties":{"geo":{"name":"Foyer Jeunes Travailleurs Port Beaulieu"},"_l":[47.2060855308096,-1.54317922705893],"LIBTHEME":"VIE SOCIALE","CODE_POSTAL":44200,"WEB":null,"STATUT":null,"TELEPHONE":"02 40 12 24 00","THEME":12,"COMMUNE":"NANTES","LIBCATEGORIE":"Jeunesse","ADRESSE":"9 Boulevard Vincent Gâche","LIBTYPE":"Foyer","_IDOBJ":1028,"TYPE":120202,"CATEGORIE":1202},"geometry":{"type":"Point","coordinates":[-1.54317922705893,47.2060855308096]}},{"type":"Feature","properties":{"geo":{"name":"Centre Régional Information Jeunesse Pays de la Loire"},"_l":[47.2186053075286,-1.555354428925],"LIBTHEME":"VIE SOCIALE","CODE_POSTAL":44000,"WEB":"www.infos-jeunes.f","STATUT":null,"TELEPHONE":"02 51 72 94 50","THEME":12,"COMMUNE":"NANTES","LIBCATEGORIE":"Jeunesse","ADRESSE":"37 Rue Saint Léonard","LIBTYPE":"Locaux jeunes","_IDOBJ":1080,"TYPE":120203,"CATEGORIE":1202},"geometry":{"type":"Point","coordinates":[-1.555354428925,47.2186053075286]}},{"type":"Feature","properties":{"geo":{"name":"Accueil de Loisirs Cloé ACCOORD"},"_l":[47.2540722143136,-1.56333307724407],"LIBTHEME":"VIE SOCIALE","CODE_POSTAL":44300,"WEB":null,"STATUT":null,"TELEPHONE":"02 40 40 91 26","THEME":12,"COMMUNE":"NANTES","LIBCATEGORIE":"Jeunesse","ADRESSE":"4 Rue des Renards","LIBTYPE":"Centre de loisirs","_IDOBJ":1124,"TYPE":120201,"CATEGORIE":1202},"geometry":{"type":"Point","coordinates":[-1.56333307724407,47.2540722143136]}},{"type":"Feature","properties":{"geo":{"name":"Accueil de Loisirs Ange Guépin"},"_l":[47.2179792097334,-1.51938665649511],"LIBTHEME":"VIE SOCIALE","CODE_POSTAL":44000,"WEB":"www.accoordnantes.info","STATUT":null,"TELEPHONE":"02 40 08 22 54","THEME":12,"COMMUNE":"NANTES","LIBCATEGORIE":"Jeunesse","ADRESSE":"Rue de la Révolution des Oeillets","LIBTYPE":"Centre de loisirs","_IDOBJ":1262,"TYPE":120201,"CATEGORIE":1202},"geometry":{"type":"Point","coordinates":[-1.51938665649511,47.2179792097334]}},{"type":"Feature","properties":{"geo":{"name":"Centre de Loisirs Perray ACCOORD"},"_l":[47.2470913029307,-1.51249942978735],"LIBTHEME":"VIE SOCIALE","CODE_POSTAL":44300,"WEB":null,"STATUT":null,"TELEPHONE":"02 40 52 33 06","THEME":12,"COMMUNE":"NANTES","LIBCATEGORIE":"Jeunesse","ADRESSE":"7 Rue Frédéric Mistral","LIBTYPE":"Centre de loisirs","_IDOBJ":1263,"TYPE":120201,"CATEGORIE":1202},"geometry":{"type":"Point","coordinates":[-1.51249942978735,47.2470913029307]}},{"type":"Feature","properties":{"geo":{"name":"Centre de Loisirs Petite Sensive ACCOORD"},"_l":[47.2616176188386,-1.56657925614553],"LIBTHEME":"VIE SOCIALE","CODE_POSTAL":44300,"WEB":null,"STATUT":null,"TELEPHONE":"02 40 76 15 43","THEME":12,"COMMUNE":"NANTES","LIBCATEGORIE":"Jeunesse","ADRESSE":"23 Rue du Paraguay","LIBTYPE":"Centre de loisirs","_IDOBJ":1265,"TYPE":120201,"CATEGORIE":1202},"geometry":{"type":"Point","coordinates":[-1.56657925614553,47.2616176188386]}},{"type":"Feature","properties":{"geo":{"name":"Centre de Loisirs Bout des Landes Bruyères ACCOORD"},"_l":[47.2661211431866,-1.57840110855523],"LIBTHEME":"VIE SOCIALE","CODE_POSTAL":44300,"WEB":null,"STATUT":null,"TELEPHONE":"02 40 40 91 01","THEME":12,"COMMUNE":"NANTES","LIBCATEGORIE":"Jeunesse","ADRESSE":"12 Rue de Concarneau","LIBTYPE":"Centre de loisirs","_IDOBJ":1266,"TYPE":120201,"CATEGORIE":1202},"geometry":{"type":"Point","coordinates":[-1.57840110855523,47.2661211431866]}},{"type":"Feature","properties":{"geo":{"name":"Centre de Loisirs Clos du Cens ACCOORD"},"_l":[47.248448315992,-1.57461280809731],"LIBTHEME":"VIE SOCIALE","CODE_POSTAL":44300,"WEB":null,"STATUT":null,"TELEPHONE":"02 40 40 56 44","THEME":12,"COMMUNE":"NANTES","LIBCATEGORIE":"Jeunesse","ADRESSE":"19 Avenue du Clos du Cens","LIBTYPE":"Centre de loisirs","_IDOBJ":1267,"TYPE":120201,"CATEGORIE":1202},"geometry":{"type":"Point","coordinates":[-1.57461280809731,47.248448315992]}},{"type":"Feature","properties":{"geo":{"name":"Centre de Loisirs Bottière ACCOORD"},"_l":[47.2409362890364,-1.51820393849702],"LIBTHEME":"VIE SOCIALE","CODE_POSTAL":44300,"WEB":null,"STATUT":null,"TELEPHONE":"02 40 49 48 61","THEME":12,"COMMUNE":"NANTES","LIBCATEGORIE":"Jeunesse","ADRESSE":"2 Rue Urbain Le Verrier","LIBTYPE":"Centre de loisirs","_IDOBJ":1268,"TYPE":120201,"CATEGORIE":1202},"geometry":{"type":"Point","coordinates":[-1.51820393849702,47.2409362890364]}},{"type":"Feature","properties":{"geo":{"name":"Centre de Loisirs Manu ACCOORD"},"_l":[47.2198482751936,-1.53602580057569],"LIBTHEME":"VIE SOCIALE","CODE_POSTAL":44000,"WEB":null,"STATUT":null,"TELEPHONE":"02 40 29 36 35","THEME":12,"COMMUNE":"NANTES","LIBCATEGORIE":"Jeunesse","ADRESSE":"7 Cour Jules Durand","LIBTYPE":"Centre de loisirs","_IDOBJ":1269,"TYPE":120201,"CATEGORIE":1202},"geometry":{"type":"Point","coordinates":[-1.53602580057569,47.2198482751936]}},{"type":"Feature","properties":{"geo":{"name":"Comite ACCOORD Bellevue Chantenay"},"_l":[47.2078035131903,-1.60507612245133],"LIBTHEME":"VIE SOCIALE","CODE_POSTAL":44100,"WEB":null,"STATUT":null,"TELEPHONE":"02 40 58 54 90","THEME":12,"COMMUNE":"NANTES","LIBCATEGORIE":"Jeunesse","ADRESSE":"29 Rue du Jamet","LIBTYPE":"Centre de loisirs","_IDOBJ":1323,"TYPE":120201,"CATEGORIE":1202},"geometry":{"type":"Point","coordinates":[-1.60507612245133,47.2078035131903]}},{"type":"Feature","properties":{"geo":{"name":"Accueil de Loisirs l'Observatoire ACCOORD"},"_l":[47.2446031975727,-1.55928054747895],"LIBTHEME":"VIE SOCIALE","CODE_POSTAL":44300,"WEB":null,"STATUT":null,"TELEPHONE":"02 40 76 40 04","THEME":12,"COMMUNE":"NANTES","LIBCATEGORIE":"Jeunesse","ADRESSE":"4B Boulevard des Tribunes","LIBTYPE":"Centre de loisirs","_IDOBJ":1347,"TYPE":120201,"CATEGORIE":1202},"geometry":{"type":"Point","coordinates":[-1.55928054747895,47.2446031975727]}},{"type":"Feature","properties":{"geo":{"name":"Foyer Jeunes Travailleurs Edit de Nantes"},"_l":[47.2143456685545,-1.56861201165052],"LIBTHEME":"VIE SOCIALE","CODE_POSTAL":44100,"WEB":"http://www.edit-nantes.fr","STATUT":null,"TELEPHONE":"02 40 73 41 46","THEME":12,"COMMUNE":"NANTES","LIBCATEGORIE":"Jeunesse","ADRESSE":"7 Rue de Gigant","LIBTYPE":"Foyer","_IDOBJ":1355,"TYPE":120202,"CATEGORIE":1202},"geometry":{"type":"Point","coordinates":[-1.56861201165052,47.2143456685545]}},{"type":"Feature","properties":{"geo":{"name":"Foyer Jeunes Travailleurs Association Nantaise"},"_l":[47.2207020911686,-1.55881837640046],"LIBTHEME":"VIE SOCIALE","CODE_POSTAL":44000,"WEB":null,"STATUT":null,"TELEPHONE":"02 51 72 98 70","THEME":12,"COMMUNE":"NANTES","LIBCATEGORIE":"Jeunesse","ADRESSE":"6 Rue de Bel Air","LIBTYPE":"Foyer","_IDOBJ":1409,"TYPE":120202,"CATEGORIE":1202},"geometry":{"type":"Point","coordinates":[-1.55881837640046,47.2207020911686]}},{"type":"Feature","properties":{"geo":{"name":"Club Addo La Halvêque Beaujoire ACCOORD"},"_l":[47.2542084015712,-1.51927119445425],"LIBTHEME":"VIE SOCIALE","CODE_POSTAL":44300,"WEB":null,"STATUT":null,"TELEPHONE":null,"THEME":12,"COMMUNE":"NANTES","LIBCATEGORIE":"Jeunesse","ADRESSE":"23 Rue Léon Serpollet","LIBTYPE":"Centre de loisirs","_IDOBJ":1726,"TYPE":120201,"CATEGORIE":1202},"geometry":{"type":"Point","coordinates":[-1.51927119445425,47.2542084015712]}},{"type":"Feature","properties":{"geo":{"name":"Maison de l'Enfance La Halvêque Beaujoire ACCOORD"},"_l":[47.2543688230653,-1.51969641313621],"LIBTHEME":"VIE SOCIALE","CODE_POSTAL":44300,"WEB":null,"STATUT":null,"TELEPHONE":null,"THEME":12,"COMMUNE":"NANTES","LIBCATEGORIE":"Jeunesse","ADRESSE":"23 Rue Léon Serpollet","LIBTYPE":"Centre de loisirs","_IDOBJ":1727,"TYPE":120201,"CATEGORIE":1202},"geometry":{"type":"Point","coordinates":[-1.51969641313621,47.2543688230653]}},{"type":"Feature","properties":{"geo":{"name":"SPIG Bellevue ACCOORD"},"_l":[47.2079738234484,-1.61124994710893],"LIBTHEME":"VIE SOCIALE","CODE_POSTAL":44100,"WEB":null,"STATUT":null,"TELEPHONE":"02 40 46 83 35","THEME":12,"COMMUNE":"NANTES","LIBCATEGORIE":"Jeunesse","ADRESSE":"28 Boulevard Winston Churchill","LIBTYPE":"Centre de loisirs","_IDOBJ":1777,"TYPE":120201,"CATEGORIE":1202},"geometry":{"type":"Point","coordinates":[-1.61124994710893,47.2079738234484]}},{"type":"Feature","properties":{"geo":{"name":"Foyer Centre d'Apprentis du Batiment"},"_l":[47.2204509780888,-1.65260969087806],"LIBTHEME":"VIE SOCIALE","CODE_POSTAL":44800,"WEB":null,"STATUT":"Privé","TELEPHONE":"02 40 92 13 43","THEME":12,"COMMUNE":"ST-HERBLAIN","LIBCATEGORIE":"Jeunesse","ADRESSE":"27 Rue de la Rivaudière","LIBTYPE":"Foyer","_IDOBJ":1900,"TYPE":120202,"CATEGORIE":1202},"geometry":{"type":"Point","coordinates":[-1.65260969087806,47.2204509780888]}},{"type":"Feature","properties":{"geo":{"name":"Local Jeunes du Bois Raguenet"},"_l":[47.270495438801,-1.59644762124531],"LIBTHEME":"VIE SOCIALE","CODE_POSTAL":44700,"WEB":null,"STATUT":"Public","TELEPHONE":"02 40 63 75 74","THEME":12,"COMMUNE":"ORVAULT","LIBCATEGORIE":"Jeunesse","ADRESSE":"10 Rue des Porteurs d'Eau","LIBTYPE":"Locaux jeunes","_IDOBJ":1964,"TYPE":120203,"CATEGORIE":1202},"geometry":{"type":"Point","coordinates":[-1.59644762124531,47.270495438801]}},{"type":"Feature","properties":{"geo":{"name":"PIJ - Point Information Jeunesse"},"_l":[47.1724838381342,-1.62106481970733],"LIBTHEME":"VIE SOCIALE","CODE_POSTAL":44340,"WEB":"www.ville-bouguenais.fr","STATUT":"Public","TELEPHONE":"02 40 65 11 56","THEME":12,"COMMUNE":"BOUGUENAIS","LIBCATEGORIE":"Jeunesse","ADRESSE":"Place de la Croix Jeannette","LIBTYPE":"Locaux jeunes","_IDOBJ":2036,"TYPE":120203,"CATEGORIE":1202},"geometry":{"type":"Point","coordinates":[-1.62106481970733,47.1724838381342]}},{"type":"Feature","properties":{"geo":{"name":"Acceuil de Loisirs Sans Hébergement Ville-au-Denis"},"_l":[47.1556164738828,-1.6228703432478],"LIBTHEME":"VIE SOCIALE","CODE_POSTAL":44340,"WEB":"www.ville-bouguenais.fr","STATUT":"Public","TELEPHONE":"02 40 32 29 15","THEME":12,"COMMUNE":"BOUGUENAIS","LIBCATEGORIE":"Jeunesse","ADRESSE":"Allée des Soupirs","LIBTYPE":"Centre de loisirs","_IDOBJ":2096,"TYPE":120201,"CATEGORIE":1202},"geometry":{"type":"Point","coordinates":[-1.6228703432478,47.1556164738828]}},{"type":"Feature","properties":{"geo":{"name":"Maison des Jeunes et de la Culture de la Bouvardière"},"_l":[47.2356229778372,-1.59887770546516],"LIBTHEME":"VIE SOCIALE","CODE_POSTAL":44800,"WEB":"www.saint-herblain.fr","STATUT":"Public","TELEPHONE":"02 28 25 26 40","THEME":12,"COMMUNE":"ST-HERBLAIN","LIBCATEGORIE":"Jeunesse","ADRESSE":"Avenue Alain Gerbault","LIBTYPE":"Locaux jeunes","_IDOBJ":2126,"TYPE":120203,"CATEGORIE":1202},"geometry":{"type":"Point","coordinates":[-1.59887770546516,47.2356229778372]}},{"type":"Feature","properties":{"geo":{"name":"Centre de Loisirs Marcellin Verbe"},"_l":[47.1933135535023,-1.48335701362886],"LIBTHEME":"VIE SOCIALE","CODE_POSTAL":44230,"WEB":"www.saintsebastien.fr","STATUT":"Public","TELEPHONE":"02 40 34 46 18","THEME":12,"COMMUNE":"ST-SEBASTIEN","LIBCATEGORIE":"Jeunesse","ADRESSE":"Chemin de l'Ouche des Landes","LIBTYPE":"Centre de loisirs","_IDOBJ":2163,"TYPE":120201,"CATEGORIE":1202},"geometry":{"type":"Point","coordinates":[-1.48335701362886,47.1933135535023]}},{"type":"Feature","properties":{"geo":{"name":"Local de Jeunes Café Club"},"_l":[47.1760822603801,-1.59163977604865],"LIBTHEME":"VIE SOCIALE","CODE_POSTAL":44340,"WEB":null,"STATUT":"Public","TELEPHONE":"02 40 65 18 66","THEME":12,"COMMUNE":"BOUGUENAIS","LIBCATEGORIE":"Jeunesse","ADRESSE":"Rue de la Neustrie","LIBTYPE":"Locaux jeunes","_IDOBJ":2181,"TYPE":120203,"CATEGORIE":1202},"geometry":{"type":"Point","coordinates":[-1.59163977604865,47.1760822603801]}},{"type":"Feature","properties":{"geo":{"name":"Centre de Loisirs Condorcet"},"_l":[47.2304177508518,-1.60592968221689],"LIBTHEME":"VIE SOCIALE","CODE_POSTAL":44800,"WEB":"www.saint-herblain.fr","STATUT":"Public","TELEPHONE":"02 28 25 26 56","THEME":12,"COMMUNE":"ST-HERBLAIN","LIBCATEGORIE":"Jeunesse","ADRESSE":"9 Rue de Tillay","LIBTYPE":"Centre de loisirs","_IDOBJ":2219,"TYPE":120201,"CATEGORIE":1202},"geometry":{"type":"Point","coordinates":[-1.60592968221689,47.2304177508518]}},{"type":"Feature","properties":{"geo":{"name":"Centre de Loisirs Associé à l'Ecole Soleil Levant"},"_l":[47.2195841797246,-1.61110802921535],"LIBTHEME":"VIE SOCIALE","CODE_POSTAL":44800,"WEB":null,"STATUT":"Public","TELEPHONE":null,"THEME":12,"COMMUNE":"ST-HERBLAIN","LIBCATEGORIE":"Jeunesse","ADRESSE":"Rue de la Blanche","LIBTYPE":"Centre de loisirs","_IDOBJ":2226,"TYPE":120201,"CATEGORIE":1202},"geometry":{"type":"Point","coordinates":[-1.61110802921535,47.2195841797246]}},{"type":"Feature","properties":{"geo":{"name":"Bureau Information Jeunesse Rabotière"},"_l":[47.2138904457413,-1.61642121350266],"LIBTHEME":"VIE SOCIALE","CODE_POSTAL":44800,"WEB":null,"STATUT":"Public","TELEPHONE":null,"THEME":12,"COMMUNE":"ST-HERBLAIN","LIBCATEGORIE":"Jeunesse","ADRESSE":"Rue de Saint Servan","LIBTYPE":"Locaux jeunes","_IDOBJ":2228,"TYPE":120203,"CATEGORIE":1202},"geometry":{"type":"Point","coordinates":[-1.61642121350266,47.2138904457413]}},{"type":"Feature","properties":{"geo":{"name":"C. de Loisirs de la Harlière"},"_l":[47.2108667527048,-1.61049203593617],"LIBTHEME":"VIE SOCIALE","CODE_POSTAL":44800,"WEB":null,"STATUT":"Public","TELEPHONE":"02 51 80 60 35","THEME":12,"COMMUNE":"ST-HERBLAIN","LIBCATEGORIE":"Jeunesse","ADRESSE":"Rue de Bordeaux","LIBTYPE":"Centre de loisirs","_IDOBJ":2231,"TYPE":120201,"CATEGORIE":1202},"geometry":{"type":"Point","coordinates":[-1.61049203593617,47.2108667527048]}},{"type":"Feature","properties":{"geo":{"name":"Centre de Loisirs de l'Erdurière"},"_l":[47.2354536754308,-1.71798309211489],"LIBTHEME":"VIE SOCIALE","CODE_POSTAL":44220,"WEB":null,"STATUT":null,"TELEPHONE":"02 40 86 02 84","THEME":12,"COMMUNE":"COUERON","LIBCATEGORIE":"Jeunesse","ADRESSE":"CR 38","LIBTYPE":"Centre de loisirs","_IDOBJ":2478,"TYPE":120201,"CATEGORIE":1202},"geometry":{"type":"Point","coordinates":[-1.71798309211489,47.2354536754308]}},{"type":"Feature","properties":{"geo":{"name":"Centre Aéré Manoir de Bellevue"},"_l":[47.2391672748497,-1.46951727583646],"LIBTHEME":"VIE SOCIALE","CODE_POSTAL":44980,"WEB":null,"STATUT":null,"TELEPHONE":"02 40 25 68 56","THEME":12,"COMMUNE":"SAINTE-LUCE-SUR-LOIRE","LIBCATEGORIE":"Jeunesse","ADRESSE":"79 Promenade de Bellevue","LIBTYPE":"Centre de loisirs","_IDOBJ":2575,"TYPE":120201,"CATEGORIE":1202},"geometry":{"type":"Point","coordinates":[-1.46951727583646,47.2391672748497]}},{"type":"Feature","properties":{"geo":{"name":"Local Animation Jeunes Sainte Luce sur Loire"},"_l":[47.2484794187834,-1.4824947665753],"LIBTHEME":"VIE SOCIALE","CODE_POSTAL":44980,"WEB":null,"STATUT":null,"TELEPHONE":"02 40 25 64 96","THEME":12,"COMMUNE":"SAINTE-LUCE-SUR-LOIRE","LIBCATEGORIE":"Jeunesse","ADRESSE":"Mail de l'Europe","LIBTYPE":"Locaux jeunes","_IDOBJ":2598,"TYPE":120203,"CATEGORIE":1202},"geometry":{"type":"Point","coordinates":[-1.4824947665753,47.2484794187834]}}],"properties":[{"type":"Feature","properties":{"geo":{"name":"Foyer Jeunes Travailleurs Frère Louis"},"_l":[47.1956009454992,-1.53825032136384],"LIBTHEME":"VIE SOCIALE","CODE_POSTAL":44200,"WEB":null,"STATUT":null,"TELEPHONE":"02 51 11 06 87","THEME":12,"COMMUNE":"NANTES","LIBCATEGORIE":"Jeunesse","ADRESSE":"7 Rue Frère Louis","LIBTYPE":"Foyer","_IDOBJ":3025,"TYPE":120202,"CATEGORIE":1202},"geometry":{"type":"Point","coordinates":[-1.53825032136384,47.1956009454992]}},{"type":"Feature","properties":{"geo":{"name":"Centre de loisirs l'Orée du bois"},"_l":[47.147533026361,-1.52090696069849],"LIBTHEME":"VIE SOCIALE","CODE_POSTAL":44840,"WEB":null,"STATUT":null,"TELEPHONE":"02 40 05 70 82","THEME":12,"COMMUNE":"LES-SORINIERES","LIBCATEGORIE":"Jeunesse","ADRESSE":"44 Rue des Papillons","LIBTYPE":"Centre de loisirs","_IDOBJ":3033,"TYPE":120201,"CATEGORIE":1202},"geometry":{"type":"Point","coordinates":[-1.52090696069849,47.147533026361]}},{"type":"Feature","properties":{"geo":{"name":"Centre de Loisirs Gournerie"},"_l":[47.2484810195016,-1.64009642617215],"LIBTHEME":"VIE SOCIALE","CODE_POSTAL":44800,"WEB":null,"STATUT":null,"TELEPHONE":"02 40 94 93 85","THEME":12,"COMMUNE":"ST-HERBLAIN","LIBCATEGORIE":"Jeunesse","ADRESSE":"Allée de la Ferme","LIBTYPE":"Centre de loisirs","_IDOBJ":3034,"TYPE":120201,"CATEGORIE":1202},"geometry":{"type":"Point","coordinates":[-1.64009642617215,47.2484810195016]}},{"type":"Feature","properties":{"geo":{"name":"Centre de Loisirs La Montagne"},"_l":[47.1882883560556,-1.6763016750886],"LIBTHEME":"VIE SOCIALE","CODE_POSTAL":44620,"WEB":null,"STATUT":null,"TELEPHONE":"02 40 65 81 70","THEME":12,"COMMUNE":"LA-MONTAGNE","LIBCATEGORIE":"Jeunesse","ADRESSE":"Rue Jules Verne","LIBTYPE":"Centre de loisirs","_IDOBJ":3036,"TYPE":120201,"CATEGORIE":1202},"geometry":{"type":"Point","coordinates":[-1.6763016750886,47.1882883560556]}},{"type":"Feature","properties":{"geo":{"name":"Centre de Loisirs La Presse au Vin"},"_l":[47.1783579690163,-1.48123825524826],"LIBTHEME":"VIE SOCIALE","CODE_POSTAL":44120,"WEB":null,"STATUT":null,"TELEPHONE":"02 40 34 45 91","THEME":12,"COMMUNE":"VERTOU","LIBCATEGORIE":"Jeunesse","ADRESSE":"Rue des Fraîches","LIBTYPE":"Centre de loisirs","_IDOBJ":3039,"TYPE":120201,"CATEGORIE":1202},"geometry":{"type":"Point","coordinates":[-1.48123825524826,47.1783579690163]}},{"type":"Feature","properties":{"geo":{"name":"Centre de Loisirs Blottereau C. E. SNCF"},"_l":[47.2355404366095,-1.49819691248923],"LIBTHEME":"VIE SOCIALE","CODE_POSTAL":44300,"WEB":null,"STATUT":null,"TELEPHONE":"02 40 93 96 40","THEME":12,"COMMUNE":"NANTES","LIBCATEGORIE":"Jeunesse","ADRESSE":"20 Rue Saint Médard","LIBTYPE":"Centre de loisirs","_IDOBJ":3040,"TYPE":120201,"CATEGORIE":1202},"geometry":{"type":"Point","coordinates":[-1.49819691248923,47.2355404366095]}},{"type":"Feature","properties":{"geo":{"name":"Centre de loisirs primaires - FA SI LA JOUER"},"_l":[47.1487638974025,-1.69656642641687],"LIBTHEME":"VIE SOCIALE","CODE_POSTAL":44830,"WEB":"www.bouaye.fr","STATUT":null,"TELEPHONE":"02 51 70 52 90","THEME":12,"COMMUNE":"BOUAYE","LIBCATEGORIE":"Jeunesse","ADRESSE":"2 Rue du Stade","LIBTYPE":"Centre de loisirs","_IDOBJ":3041,"TYPE":120201,"CATEGORIE":1202},"geometry":{"type":"Point","coordinates":[-1.69656642641687,47.1487638974025]}},{"type":"Feature","properties":{"geo":{"name":"Centre de Loisirs ARPEJ Chêne Gala"},"_l":[47.1868669616418,-1.53782229367269],"LIBTHEME":"VIE SOCIALE","CODE_POSTAL":44400,"WEB":null,"STATUT":null,"TELEPHONE":"02 40 04 04 43","THEME":12,"COMMUNE":"REZE","LIBCATEGORIE":"Jeunesse","ADRESSE":"99 Rue Jean Baptiste Vigier","LIBTYPE":"Centre de loisirs","_IDOBJ":3043,"TYPE":120201,"CATEGORIE":1202},"geometry":{"type":"Point","coordinates":[-1.53782229367269,47.1868669616418]}},{"type":"Feature","properties":{"geo":{"name":"Centre de Loisirs ARPEJ  Robinière"},"_l":[47.1631105357901,-1.52888988696269],"LIBTHEME":"VIE SOCIALE","CODE_POSTAL":44400,"WEB":null,"STATUT":null,"TELEPHONE":"02 51 70 21 76","THEME":12,"COMMUNE":"REZE","LIBCATEGORIE":"Jeunesse","ADRESSE":"Rue des Poyaux","LIBTYPE":"Centre de loisirs","_IDOBJ":3044,"TYPE":120201,"CATEGORIE":1202},"geometry":{"type":"Point","coordinates":[-1.52888988696269,47.1631105357901]}},{"type":"Feature","properties":{"geo":{"name":"Centre de Loisirs ARPEJ Les Guyzmos"},"_l":[47.1770790771053,-1.53401552312265],"LIBTHEME":"VIE SOCIALE","CODE_POSTAL":44400,"WEB":null,"STATUT":null,"TELEPHONE":"02 40 84 04 78","THEME":12,"COMMUNE":"REZE","LIBCATEGORIE":"Jeunesse","ADRESSE":"3 Square du Jaunais","LIBTYPE":"Centre de loisirs","_IDOBJ":3045,"TYPE":120201,"CATEGORIE":1202},"geometry":{"type":"Point","coordinates":[-1.53401552312265,47.1770790771053]}},{"type":"Feature","properties":{"geo":{"name":"Centre de Loisirs ARPEJ Les Visiteurs"},"_l":[47.1857177819363,-1.55629286667412],"LIBTHEME":"VIE SOCIALE","CODE_POSTAL":44400,"WEB":null,"STATUT":null,"TELEPHONE":"02 40 05 07 70","THEME":12,"COMMUNE":"REZE","LIBCATEGORIE":"Jeunesse","ADRESSE":"Allée de Provence","LIBTYPE":"Centre de loisirs","_IDOBJ":3047,"TYPE":120201,"CATEGORIE":1202},"geometry":{"type":"Point","coordinates":[-1.55629286667412,47.1857177819363]}},{"type":"Feature","properties":{"geo":{"name":"Centre de Loisirs ACCOORD Malakoff"},"_l":[47.2158772203713,-1.52266803066821],"LIBTHEME":"VIE SOCIALE","CODE_POSTAL":44000,"WEB":null,"STATUT":null,"TELEPHONE":"02 40 47 38 83","THEME":12,"COMMUNE":"NANTES","LIBCATEGORIE":"Jeunesse","ADRESSE":"Rue de Chypre","LIBTYPE":"Centre de loisirs","_IDOBJ":3050,"TYPE":120201,"CATEGORIE":1202},"geometry":{"type":"Point","coordinates":[-1.52266803066821,47.2158772203713]}},{"type":"Feature","properties":{"geo":{"name":"Centre Aéré Gesvrine Château de l'Hopitau"},"_l":[47.2703128805881,-1.55308740130376],"LIBTHEME":"VIE SOCIALE","CODE_POSTAL":44240,"WEB":null,"STATUT":null,"TELEPHONE":"02 40 93 52 25","THEME":12,"COMMUNE":"LA-CHAPELLE-SUR-ERDRE","LIBCATEGORIE":"Jeunesse","ADRESSE":"Boulevard de l'Hopitau","LIBTYPE":"Centre de loisirs","_IDOBJ":3051,"TYPE":120201,"CATEGORIE":1202},"geometry":{"type":"Point","coordinates":[-1.55308740130376,47.2703128805881]}},{"type":"Feature","properties":{"geo":{"name":"ALAC Château de Florigny"},"_l":[47.2974209718415,-1.48362625469766],"LIBTHEME":"VIE SOCIALE","CODE_POSTAL":44470,"WEB":"www.carquefou.fr","STATUT":null,"TELEPHONE":"02 40 52 64 68","THEME":12,"COMMUNE":"CARQUEFOU","LIBCATEGORIE":"Jeunesse","ADRESSE":"Avenue des Argonautes","LIBTYPE":"Centre de loisirs","_IDOBJ":3083,"TYPE":120201,"CATEGORIE":1202},"geometry":{"type":"Point","coordinates":[-1.48362625469766,47.2974209718415]}},{"type":"Feature","properties":{"geo":{"name":"Espace Plein Air Port Barbe ACCOORD"},"_l":[47.2641782577693,-1.54080662076801],"LIBTHEME":"VIE SOCIALE","CODE_POSTAL":44240,"WEB":null,"STATUT":null,"TELEPHONE":"02 40 72 53 29","THEME":12,"COMMUNE":"LA-CHAPELLE-SUR-ERDRE","LIBCATEGORIE":"Jeunesse","ADRESSE":"Route de la Jonelière","LIBTYPE":"Centre de loisirs","_IDOBJ":3123,"TYPE":120201,"CATEGORIE":1202},"geometry":{"type":"Point","coordinates":[-1.54080662076801,47.2641782577693]}},{"type":"Feature","properties":{"geo":{"name":"C. de Loisirs Le Petit Atelier ACCOORD"},"_l":[47.2235242398051,-1.56403278684577],"LIBTHEME":"VIE SOCIALE","CODE_POSTAL":44000,"WEB":null,"STATUT":null,"TELEPHONE":"02 40 12 42 02","THEME":12,"COMMUNE":"NANTES","LIBCATEGORIE":"Jeunesse","ADRESSE":"39 Rue des Hauts Pavés","LIBTYPE":"Centre de loisirs","_IDOBJ":3125,"TYPE":120201,"CATEGORIE":1202},"geometry":{"type":"Point","coordinates":[-1.56403278684577,47.2235242398051]}},{"type":"Feature","properties":{"geo":{"name":"Foyer Jeunes Filles Sainte Geneviève"},"_l":[47.2261467770434,-1.56077518986988],"LIBTHEME":"VIE SOCIALE","CODE_POSTAL":44000,"WEB":null,"STATUT":null,"TELEPHONE":"02 51 25 05 30","THEME":12,"COMMUNE":"NANTES","LIBCATEGORIE":"Jeunesse","ADRESSE":"91 Rue Paul Bellamy","LIBTYPE":"Foyer","_IDOBJ":3172,"TYPE":120202,"CATEGORIE":1202},"geometry":{"type":"Point","coordinates":[-1.56077518986988,47.2261467770434]}},{"type":"Feature","properties":{"geo":{"name":"Foyer Catholique des Etudiants"},"_l":[47.2147403192855,-1.5614151610593],"LIBTHEME":"VIE SOCIALE","CODE_POSTAL":44000,"WEB":null,"STATUT":null,"TELEPHONE":"02 40 48 50 75","THEME":12,"COMMUNE":"NANTES","LIBCATEGORIE":"Jeunesse","ADRESSE":"13 Rue du Chapeau Rouge","LIBTYPE":"Foyer","_IDOBJ":3173,"TYPE":120202,"CATEGORIE":1202},"geometry":{"type":"Point","coordinates":[-1.5614151610593,47.2147403192855]}},{"type":"Feature","properties":{"geo":{"name":"Foyer Catholique des Etudiants"},"_l":[47.2140600360741,-1.56974504635161],"LIBTHEME":"VIE SOCIALE","CODE_POSTAL":44100,"WEB":null,"STATUT":null,"TELEPHONE":"02 40 69 22 26","THEME":12,"COMMUNE":"NANTES","LIBCATEGORIE":"Jeunesse","ADRESSE":"13 Rue de Gigant","LIBTYPE":"Foyer","_IDOBJ":3174,"TYPE":120202,"CATEGORIE":1202},"geometry":{"type":"Point","coordinates":[-1.56974504635161,47.2140600360741]}},{"type":"Feature","properties":{"geo":{"name":"Foyer Jeunes Travailleurs Chanteclerc"},"_l":[47.2353255720706,-1.57924473728344],"LIBTHEME":"VIE SOCIALE","CODE_POSTAL":44300,"WEB":null,"STATUT":null,"TELEPHONE":null,"THEME":12,"COMMUNE":"NANTES","LIBCATEGORIE":"Jeunesse","ADRESSE":"42 Rue Chanteclerc","LIBTYPE":"Foyer","_IDOBJ":3234,"TYPE":120202,"CATEGORIE":1202},"geometry":{"type":"Point","coordinates":[-1.57924473728344,47.2353255720706]}},{"type":"Feature","properties":{"geo":{"name":"Pôle Jeunesse Ragon"},"_l":[47.1647935515926,-1.53945065159124],"LIBTHEME":"VIE SOCIALE","CODE_POSTAL":44400,"WEB":null,"STATUT":null,"TELEPHONE":null,"THEME":12,"COMMUNE":"REZE","LIBCATEGORIE":"Jeunesse","ADRESSE":"Rue de la Quératière","LIBTYPE":"Locaux jeunes","_IDOBJ":3288,"TYPE":120203,"CATEGORIE":1202},"geometry":{"type":"Point","coordinates":[-1.53945065159124,47.1647935515926]}},{"type":"Feature","properties":{"geo":{"name":"Centre de Loisirs Aimée Verbe"},"_l":[47.1930878475597,-1.48352826672196],"LIBTHEME":"VIE SOCIALE","CODE_POSTAL":44230,"WEB":null,"STATUT":null,"TELEPHONE":"02 40 03 51 79","THEME":12,"COMMUNE":"ST-SEBASTIEN","LIBCATEGORIE":"Jeunesse","ADRESSE":"Chemin de l'Ouche des Landes","LIBTYPE":"Centre de loisirs","_IDOBJ":3364,"TYPE":120201,"CATEGORIE":1202},"geometry":{"type":"Point","coordinates":[-1.48352826672196,47.1930878475597]}},{"type":"Feature","properties":{"geo":{"name":"Ferme Poisson"},"_l":[47.2687421360104,-1.59908690257486],"LIBTHEME":"VIE SOCIALE","CODE_POSTAL":44700,"WEB":null,"STATUT":null,"TELEPHONE":null,"THEME":12,"COMMUNE":"ORVAULT","LIBCATEGORIE":"Jeunesse","ADRESSE":"2 Chemin des Matines","LIBTYPE":"Locaux jeunes","_IDOBJ":3432,"TYPE":120203,"CATEGORIE":1202},"geometry":{"type":"Point","coordinates":[-1.59908690257486,47.2687421360104]}},{"type":"Feature","properties":{"geo":{"name":"Centre de Loisirs Orvault"},"_l":[47.2474836371542,-1.58585113269109],"LIBTHEME":"VIE SOCIALE","CODE_POSTAL":44700,"WEB":null,"STATUT":null,"TELEPHONE":null,"THEME":12,"COMMUNE":"ORVAULT","LIBCATEGORIE":"Jeunesse","ADRESSE":"37 Avenue de la Ferrière","LIBTYPE":"Centre de loisirs","_IDOBJ":3439,"TYPE":120201,"CATEGORIE":1202},"geometry":{"type":"Point","coordinates":[-1.58585113269109,47.2474836371542]}},{"type":"Feature","properties":{"geo":{"name":"Accueil de loisirs"},"_l":[47.2701829276471,-1.43936370124577],"LIBTHEME":"VIE SOCIALE","CODE_POSTAL":44470,"WEB":"www.thouare.fr","STATUT":null,"TELEPHONE":null,"THEME":12,"COMMUNE":"THOUARE-SUR-LOIRE","LIBCATEGORIE":"Jeunesse","ADRESSE":"20 Rue des Ecoles","LIBTYPE":"Centre de loisirs","_IDOBJ":3520,"TYPE":120201,"CATEGORIE":1202},"geometry":{"type":"Point","coordinates":[-1.43936370124577,47.2701829276471]}},{"type":"Feature","properties":{"geo":{"name":"Centre de Loisirs de l'Orangerie"},"_l":[47.2885331939767,-1.6252809043203],"LIBTHEME":"VIE SOCIALE","CODE_POSTAL":44700,"WEB":null,"STATUT":null,"TELEPHONE":null,"THEME":12,"COMMUNE":"ORVAULT","LIBCATEGORIE":"Jeunesse","ADRESSE":"Chemin de Bazoges","LIBTYPE":"Centre de loisirs","_IDOBJ":3573,"TYPE":120201,"CATEGORIE":1202},"geometry":{"type":"Point","coordinates":[-1.6252809043203,47.2885331939767]}},{"type":"Feature","properties":{"geo":{"name":"Foyer Jeunes Travailleurs Barbusse"},"_l":[47.2264529479268,-1.55294927477693],"LIBTHEME":"VIE SOCIALE","CODE_POSTAL":44000,"WEB":null,"STATUT":null,"TELEPHONE":null,"THEME":12,"COMMUNE":"NANTES","LIBCATEGORIE":"Jeunesse","ADRESSE":"61 Rue Jean Emile Laboureur","LIBTYPE":"Foyer","_IDOBJ":3588,"TYPE":120202,"CATEGORIE":1202},"geometry":{"type":"Point","coordinates":[-1.55294927477693,47.2264529479268]}},{"type":"Feature","properties":{"geo":{"name":"Centre de Loisirs Dervallières Château"},"_l":[47.2232871064153,-1.59212423566293],"LIBTHEME":"VIE SOCIALE","CODE_POSTAL":44100,"WEB":null,"STATUT":null,"TELEPHONE":null,"THEME":12,"COMMUNE":"NANTES","LIBCATEGORIE":"Jeunesse","ADRESSE":"3 Rue Auguste Renoir","LIBTYPE":"Centre de loisirs","_IDOBJ":3606,"TYPE":120201,"CATEGORIE":1202},"geometry":{"type":"Point","coordinates":[-1.59212423566293,47.2232871064153]}},{"type":"Feature","properties":{"geo":{"name":"Maison des Jeunes \"Le Cabanon\""},"_l":[47.1468252143166,-1.6973539499158],"LIBTHEME":"VIE SOCIALE","CODE_POSTAL":44830,"WEB":"www.mairie-bouaye.fr","STATUT":null,"TELEPHONE":"02 51 70 50 40","THEME":12,"COMMUNE":"BOUAYE","LIBCATEGORIE":"Jeunesse","ADRESSE":"Rue de l'Ancienne Eglise","LIBTYPE":"Locaux jeunes","_IDOBJ":3795,"TYPE":120203,"CATEGORIE":1202},"geometry":{"type":"Point","coordinates":[-1.6973539499158,47.1468252143166]}},{"type":"Feature","properties":{"geo":{"name":"Espace Jeunes"},"_l":[47.2645737677245,-1.68009782275627],"LIBTHEME":"VIE SOCIALE","CODE_POSTAL":44880,"WEB":"www.sautron.fr","STATUT":null,"TELEPHONE":"02 40 94 73 64","THEME":12,"COMMUNE":"SAUTRON","LIBCATEGORIE":"Jeunesse","ADRESSE":"1 Rue de la Ferme","LIBTYPE":"Locaux jeunes","_IDOBJ":3799,"TYPE":120203,"CATEGORIE":1202},"geometry":{"type":"Point","coordinates":[-1.68009782275627,47.2645737677245]}},{"type":"Feature","properties":{"geo":{"name":"Centre de Loisirs Bout des Pavés / Chêne des Anglais ACCOORD"},"_l":[47.2601682931023,-1.57627682515893],"LIBTHEME":"VIE SOCIALE","CODE_POSTAL":44300,"WEB":"www.accoordnantes.info","STATUT":null,"TELEPHONE":"02 40 40 19 16","THEME":12,"COMMUNE":"NANTES","LIBCATEGORIE":"Jeunesse","ADRESSE":"14 Rue de la Coulée","LIBTYPE":"Centre de loisirs","_IDOBJ":4085,"TYPE":120201,"CATEGORIE":1202},"geometry":{"type":"Point","coordinates":[-1.57627682515893,47.2601682931023]}},{"type":"Feature","properties":{"geo":{"name":"Pôle jeunesse de Trentemoult"},"_l":[47.1938694383059,-1.58081463875828],"LIBTHEME":"VIE SOCIALE","CODE_POSTAL":44400,"WEB":null,"STATUT":null,"TELEPHONE":null,"THEME":12,"COMMUNE":"REZE","LIBCATEGORIE":"Jeunesse","ADRESSE":"11 Rue Lebreton","LIBTYPE":"Centre de loisirs","_IDOBJ":4131,"TYPE":120201,"CATEGORIE":1202},"geometry":{"type":"Point","coordinates":[-1.58081463875828,47.1938694383059]}},{"type":"Feature","properties":{"geo":{"name":"Pôle Jeunesse des Trois Moulins"},"_l":[47.1780398234353,-1.54446361166524],"LIBTHEME":"VIE SOCIALE","CODE_POSTAL":44400,"WEB":"www.arpej-reze.asso.fr","STATUT":null,"TELEPHONE":"02 40 84 13 97","THEME":12,"COMMUNE":"REZE","LIBCATEGORIE":"Jeunesse","ADRESSE":"108 Rue Aristide Briand","LIBTYPE":"Centre de loisirs","_IDOBJ":4136,"TYPE":120201,"CATEGORIE":1202},"geometry":{"type":"Point","coordinates":[-1.54446361166524,47.1780398234353]}},{"type":"Feature","properties":{"geo":{"name":"Accueil de Loisirs Martray"},"_l":[47.2199098232734,-1.56009304145766],"LIBTHEME":"VIE SOCIALE","CODE_POSTAL":44000,"WEB":"www.accoordnantes.info","STATUT":null,"TELEPHONE":"02 51 82 28 58","THEME":12,"COMMUNE":"NANTES","LIBCATEGORIE":"Jeunesse","ADRESSE":"8 Allée Maud Mannoni","LIBTYPE":"Centre de loisirs","_IDOBJ":4157,"TYPE":120201,"CATEGORIE":1202},"geometry":{"type":"Point","coordinates":[-1.56009304145766,47.2199098232734]}},{"type":"Feature","properties":{"geo":{"name":"Maison des jeunes"},"_l":[47.1367444429896,-1.72115545420823],"LIBTHEME":"VIE SOCIALE","CODE_POSTAL":44710,"WEB":null,"STATUT":null,"TELEPHONE":null,"THEME":12,"COMMUNE":"SAINT-LEGER-LES-VIGNES","LIBCATEGORIE":"Jeunesse","ADRESSE":"2 Rue de la Haute Galerie","LIBTYPE":"Locaux jeunes","_IDOBJ":4165,"TYPE":120203,"CATEGORIE":1202},"geometry":{"type":"Point","coordinates":[-1.72115545420823,47.1367444429896]}},{"type":"Feature","properties":{"geo":{"name":"Accueil de Loisirs sans hébergement"},"_l":[47.1672988254331,-1.72297475729943],"LIBTHEME":"VIE SOCIALE","CODE_POSTAL":44830,"WEB":"www.mairie-brains.fr","STATUT":null,"TELEPHONE":"02 40 65 50 65","THEME":12,"COMMUNE":"BRAINS","LIBCATEGORIE":"Jeunesse","ADRESSE":"Rue des Primevères","LIBTYPE":"Centre de loisirs","_IDOBJ":4173,"TYPE":120201,"CATEGORIE":1202},"geometry":{"type":"Point","coordinates":[-1.72297475729943,47.1672988254331]}},{"type":"Feature","properties":{"geo":{"name":"Espace Jeunes"},"_l":[47.1481135575477,-1.52566618301886],"LIBTHEME":"VIE SOCIALE","CODE_POSTAL":44840,"WEB":null,"STATUT":null,"TELEPHONE":"02 40 05 73 30","THEME":12,"COMMUNE":"LES-SORINIERES","LIBCATEGORIE":"Jeunesse","ADRESSE":"10 Rue du Moulin","LIBTYPE":"Locaux jeunes","_IDOBJ":4182,"TYPE":120203,"CATEGORIE":1202},"geometry":{"type":"Point","coordinates":[-1.52566618301886,47.1481135575477]}},{"type":"Feature","properties":{"geo":{"name":"Centre de loisirs Les Petites Mains"},"_l":[47.1930095595534,-1.72492220312299],"LIBTHEME":"VIE SOCIALE","CODE_POSTAL":44640,"WEB":null,"STATUT":null,"TELEPHONE":"02 40 65 86 68","THEME":12,"COMMUNE":"SAINT-JEAN-DE-BOISEAU","LIBCATEGORIE":"Jeunesse","ADRESSE":"Rue des Violettes","LIBTYPE":"Centre de loisirs","_IDOBJ":4236,"TYPE":120201,"CATEGORIE":1202},"geometry":{"type":"Point","coordinates":[-1.72492220312299,47.1930095595534]}},{"type":"Feature","properties":{"geo":{"name":"Centre de loisirs Les Loupiots"},"_l":[47.1949177171334,-1.72450733420891],"LIBTHEME":"VIE SOCIALE","CODE_POSTAL":44640,"WEB":null,"STATUT":null,"TELEPHONE":"02 40 65 65 66","THEME":12,"COMMUNE":"SAINT-JEAN-DE-BOISEAU","LIBCATEGORIE":"Jeunesse","ADRESSE":"Avenue du Onze Novembre","LIBTYPE":"Centre de loisirs","_IDOBJ":4237,"TYPE":120201,"CATEGORIE":1202},"geometry":{"type":"Point","coordinates":[-1.72450733420891,47.1949177171334]}},{"type":"Feature","properties":{"geo":{"name":"Association Arpej"},"_l":[47.1899811437963,-1.57297264485646],"LIBTHEME":"VIE SOCIALE","CODE_POSTAL":44400,"WEB":"www.arpej-reze.asso.fr/","STATUT":null,"TELEPHONE":"02 51 83 79 20","THEME":12,"COMMUNE":"REZE","LIBCATEGORIE":"Jeunesse","ADRESSE":"6 Rue François Marchais","LIBTYPE":"Centre de loisirs","_IDOBJ":4254,"TYPE":120201,"CATEGORIE":1202},"geometry":{"type":"Point","coordinates":[-1.57297264485646,47.1899811437963]}},{"type":"Feature","properties":{"geo":{"name":"Espace Jeunes du Charbonneau"},"_l":[47.3029382608916,-1.49228822922751],"LIBTHEME":"VIE SOCIALE","CODE_POSTAL":44470,"WEB":"www.carquefou.fr","STATUT":null,"TELEPHONE":null,"THEME":12,"COMMUNE":"CARQUEFOU","LIBCATEGORIE":"Jeunesse","ADRESSE":"10 Rue Pierre Mendes France","LIBTYPE":"Foyer","_IDOBJ":4298,"TYPE":120202,"CATEGORIE":1202},"geometry":{"type":"Point","coordinates":[-1.49228822922751,47.3029382608916]}},{"type":"Feature","properties":{"geo":{"name":"Club de Jeunes de la Jouandière"},"_l":[47.2923098405427,-1.4895411230628],"LIBTHEME":"VIE SOCIALE","CODE_POSTAL":44470,"WEB":"www.carquefou.fr","STATUT":null,"TELEPHONE":null,"THEME":12,"COMMUNE":"CARQUEFOU","LIBCATEGORIE":"Jeunesse","ADRESSE":"Avenue de la Vendée","LIBTYPE":"Locaux jeunes","_IDOBJ":4306,"TYPE":120203,"CATEGORIE":1202},"geometry":{"type":"Point","coordinates":[-1.4895411230628,47.2923098405427]}},{"type":"Feature","properties":{"geo":{"name":"Accueil de Loisirs Aimé Césaire"},"_l":[47.2047657777152,-1.56545205716545],"LIBTHEME":"VIE SOCIALE","CODE_POSTAL":44200,"WEB":"www.nantes.fr","STATUT":null,"TELEPHONE":"02 44 76 11 02","THEME":12,"COMMUNE":"NANTES","LIBCATEGORIE":"Jeunesse","ADRESSE":"70 Boulevard de la Prairie au Duc","LIBTYPE":"Centre de loisirs","_IDOBJ":4365,"TYPE":120201,"CATEGORIE":1202},"geometry":{"type":"Point","coordinates":[-1.56545205716545,47.2047657777152]}},{"type":"Feature","properties":{"geo":{"name":"Centre de loisirs maternelles - Pit'chounes"},"_l":[47.1457827991254,-1.69031347740862],"LIBTHEME":"VIE SOCIALE","CODE_POSTAL":44830,"WEB":"www.bouaye.fr","STATUT":null,"TELEPHONE":"02 40 32 69 41","THEME":12,"COMMUNE":"BOUAYE","LIBCATEGORIE":"Jeunesse","ADRESSE":"12 Avenue du Moulin","LIBTYPE":"Centre de loisirs","_IDOBJ":4372,"TYPE":120201,"CATEGORIE":1202},"geometry":{"type":"Point","coordinates":[-1.69031347740862,47.1457827991254]}},{"type":"Feature","properties":{"geo":{"name":"Maison départementale des adolescents de Nantes"},"_l":[47.2075336067557,-1.56484784192801],"LIBTHEME":"VIE SOCIALE","CODE_POSTAL":44200,"WEB":"www.mda44.fr","STATUT":null,"TELEPHONE":"02 40 20 89 65","THEME":12,"COMMUNE":"NANTES","LIBCATEGORIE":"Jeunesse","ADRESSE":"7 Rue Julien Videment","LIBTYPE":"Foyer","_IDOBJ":4450,"TYPE":120202,"CATEGORIE":1202},"geometry":{"type":"Point","coordinates":[-1.56484784192801,47.2075336067557]}},{"type":"Feature","properties":{"geo":{"name":"Association pour la Réalisation d'Activités de loisirs Pour l'Enfance et la Jeun"},"_l":[47.1684162193865,-1.54638073663071],"LIBTHEME":"VIE SOCIALE","CODE_POSTAL":44400,"WEB":"www.reze.fr","STATUT":null,"TELEPHONE":"02 40 32 32 70","THEME":12,"COMMUNE":"REZE","LIBCATEGORIE":"Jeunesse","ADRESSE":"5 Rue Louise Weiss","LIBTYPE":"Centre de loisirs","_IDOBJ":4474,"TYPE":120201,"CATEGORIE":1202},"geometry":{"type":"Point","coordinates":[-1.54638073663071,47.1684162193865]}},{"type":"Feature","properties":{"geo":{"name":"Accueil de Loisirs Nantes Sud"},"_l":[47.1934093610761,-1.53351121174446],"LIBTHEME":"VIE SOCIALE","CODE_POSTAL":44200,"WEB":null,"STATUT":null,"TELEPHONE":null,"THEME":12,"COMMUNE":"NANTES","LIBCATEGORIE":"Jeunesse","ADRESSE":"38 Rue de la Ripossière","LIBTYPE":"Centre de loisirs","_IDOBJ":4497,"TYPE":120201,"CATEGORIE":1202},"geometry":{"type":"Point","coordinates":[-1.53351121174446,47.1934093610761]}},{"type":"Feature","properties":{"geo":{"name":"Espace Ado Euréka"},"_l":[47.2065677125895,-1.56393498952235],"LIBTHEME":"VIE SOCIALE","CODE_POSTAL":44200,"WEB":null,"STATUT":null,"TELEPHONE":null,"THEME":12,"COMMUNE":"NANTES","LIBCATEGORIE":"Jeunesse","ADRESSE":"7 Boulevard Léon Bureau","LIBTYPE":"Locaux jeunes","_IDOBJ":4502,"TYPE":120203,"CATEGORIE":1202},"geometry":{"type":"Point","coordinates":[-1.56393498952235,47.2065677125895]}},{"type":"Feature","properties":{"geo":{"name":"Accueil de Loisirs Grand Carcouët"},"_l":[47.227657480362,-1.59382330428036],"LIBTHEME":"VIE SOCIALE","CODE_POSTAL":44100,"WEB":null,"STATUT":null,"TELEPHONE":null,"THEME":12,"COMMUNE":"NANTES","LIBCATEGORIE":"Jeunesse","ADRESSE":"3 Rue Louis Brisset","LIBTYPE":"Centre de loisirs","_IDOBJ":4543,"TYPE":120201,"CATEGORIE":1202},"geometry":{"type":"Point","coordinates":[-1.59382330428036,47.227657480362]}},{"type":"Feature","properties":{"geo":{"name":"Accueil de Loisirs Barberie"},"_l":[47.2439537024259,-1.5715953890114],"LIBTHEME":"VIE SOCIALE","CODE_POSTAL":44300,"WEB":null,"STATUT":null,"TELEPHONE":null,"THEME":12,"COMMUNE":"NANTES","LIBCATEGORIE":"Jeunesse","ADRESSE":"25 Avenue de Tahiti","LIBTYPE":"Centre de loisirs","_IDOBJ":4544,"TYPE":120201,"CATEGORIE":1202},"geometry":{"type":"Point","coordinates":[-1.5715953890114,47.2439537024259]}},{"type":"Feature","properties":{"geo":{"name":"Accueil de Loisirs Julien Gracq"},"_l":[47.2407901638866,-1.51420989781512],"LIBTHEME":"VIE SOCIALE","CODE_POSTAL":44300,"WEB":null,"STATUT":null,"TELEPHONE":"02 40 68 95 59","THEME":12,"COMMUNE":"NANTES","LIBCATEGORIE":"Jeunesse","ADRESSE":"3 Mail Haroun Tazieff","LIBTYPE":"Centre de loisirs","_IDOBJ":4545,"TYPE":120201,"CATEGORIE":1202},"geometry":{"type":"Point","coordinates":[-1.51420989781512,47.2407901638866]}},{"type":"Feature","properties":{"geo":{"name":"Accueil de Loisirs St-Jo Le Linot"},"_l":[47.267643205927,-1.52805250254936],"LIBTHEME":"VIE SOCIALE","CODE_POSTAL":44300,"WEB":null,"STATUT":null,"TELEPHONE":"02 44 76 11 00","THEME":12,"COMMUNE":"NANTES","LIBCATEGORIE":"Jeunesse","ADRESSE":"45 Rue du Port des Charrettes","LIBTYPE":"Centre de loisirs","_IDOBJ":4546,"TYPE":120201,"CATEGORIE":1202},"geometry":{"type":"Point","coordinates":[-1.52805250254936,47.267643205927]}},{"type":"Feature","properties":{"geo":{"name":"Accueil de Loisirs Felix Thomas"},"_l":[47.2315635024368,-1.55276966917381],"LIBTHEME":"VIE SOCIALE","CODE_POSTAL":44000,"WEB":null,"STATUT":null,"TELEPHONE":"02 40 37 06 11","THEME":12,"COMMUNE":"NANTES","LIBCATEGORIE":"Jeunesse","ADRESSE":"39 Rue Félix Thomas","LIBTYPE":"Centre de loisirs","_IDOBJ":4547,"TYPE":120201,"CATEGORIE":1202},"geometry":{"type":"Point","coordinates":[-1.55276966917381,47.2315635024368]}},{"type":"Feature","properties":{"geo":{"name":"Accueil de Loisirs Petite Sensive"},"_l":[47.2608629221172,-1.5667555674544],"LIBTHEME":"VIE SOCIALE","CODE_POSTAL":44300,"WEB":null,"STATUT":null,"TELEPHONE":null,"THEME":12,"COMMUNE":"NANTES","LIBCATEGORIE":"Jeunesse","ADRESSE":"24 Rue Santos Dumont","LIBTYPE":"Centre de loisirs","_IDOBJ":4548,"TYPE":120201,"CATEGORIE":1202},"geometry":{"type":"Point","coordinates":[-1.5667555674544,47.2608629221172]}},{"type":"Feature","properties":{"geo":{"name":"Maison de l'Enfance et Terrain d'Aventure"},"_l":[47.2035453097864,-1.60730597359868],"LIBTHEME":"VIE SOCIALE","CODE_POSTAL":44100,"WEB":null,"STATUT":null,"TELEPHONE":"02 40 58 56 56","THEME":12,"COMMUNE":"NANTES","LIBCATEGORIE":"Jeunesse","ADRESSE":"20 Rue Firmin Colas","LIBTYPE":"Centre de loisirs","_IDOBJ":376,"TYPE":120201,"CATEGORIE":1202},"geometry":{"type":"Point","coordinates":[-1.60730597359868,47.2035453097864]}},{"type":"Feature","properties":{"geo":{"name":"Accueil de Loisirs Manu IV"},"_l":[47.2203249571716,-1.53543987527863],"LIBTHEME":"VIE SOCIALE","CODE_POSTAL":44000,"WEB":null,"STATUT":"Public","TELEPHONE":"02 40 37 07 87","THEME":12,"COMMUNE":"NANTES","LIBCATEGORIE":"Jeunesse","ADRESSE":"1 Place de la Manu","LIBTYPE":"Centre de loisirs","_IDOBJ":378,"TYPE":120201,"CATEGORIE":1202},"geometry":{"type":"Point","coordinates":[-1.53543987527863,47.2203249571716]}},{"type":"Feature","properties":{"geo":{"name":"Accueil de Loisirs Histoire de Jouer"},"_l":[47.2171828432197,-1.55618718951483],"LIBTHEME":"VIE SOCIALE","CODE_POSTAL":44000,"WEB":null,"STATUT":null,"TELEPHONE":"02 40 47 66 03","THEME":12,"COMMUNE":"NANTES","LIBCATEGORIE":"Jeunesse","ADRESSE":"12 Rue Armand Brossard","LIBTYPE":"Centre de loisirs","_IDOBJ":381,"TYPE":120201,"CATEGORIE":1202},"geometry":{"type":"Point","coordinates":[-1.55618718951483,47.2171828432197]}},{"type":"Feature","properties":{"geo":{"name":"Centre de Loisirs Maisdon Pajot"},"_l":[47.21791847748,-1.5856232705421],"LIBTHEME":"VIE SOCIALE","CODE_POSTAL":44100,"WEB":null,"STATUT":null,"TELEPHONE":"02 40 73 15 98","THEME":12,"COMMUNE":"NANTES","LIBCATEGORIE":"Jeunesse","ADRESSE":"25 Rue Monte Au Ciel","LIBTYPE":"Centre de loisirs","_IDOBJ":387,"TYPE":120201,"CATEGORIE":1202},"geometry":{"type":"Point","coordinates":[-1.5856232705421,47.21791847748]}},{"type":"Feature","properties":{"geo":{"name":"Centre de Loisirs Bout des Pavés ACCOORD"},"_l":[47.2566862547464,-1.57616016212572],"LIBTHEME":"VIE SOCIALE","CODE_POSTAL":44300,"WEB":null,"STATUT":null,"TELEPHONE":"02 40 40 19 16","THEME":12,"COMMUNE":"NANTES","LIBCATEGORIE":"Jeunesse","ADRESSE":"39 Route de la Chapelle Sur Erdre","LIBTYPE":"Centre de loisirs","_IDOBJ":395,"TYPE":120201,"CATEGORIE":1202},"geometry":{"type":"Point","coordinates":[-1.57616016212572,47.2566862547464]}},{"type":"Feature","properties":{"geo":{"name":"Centre de Loisirs Les Ponts ACCOORD"},"_l":[47.2063441278332,-1.54986716681084],"LIBTHEME":"VIE SOCIALE","CODE_POSTAL":44200,"WEB":null,"STATUT":null,"TELEPHONE":"02 40 48 77 27","THEME":12,"COMMUNE":"NANTES","LIBCATEGORIE":"Jeunesse","ADRESSE":"14 Rue Michel Rocher","LIBTYPE":"Centre de loisirs","_IDOBJ":400,"TYPE":120201,"CATEGORIE":1202},"geometry":{"type":"Point","coordinates":[-1.54986716681084,47.2063441278332]}},{"type":"Feature","properties":{"geo":{"name":"Accueil de Loisirs Aubinière"},"_l":[47.2585448054839,-1.49611929242603],"LIBTHEME":"VIE SOCIALE","CODE_POSTAL":44300,"WEB":null,"STATUT":null,"TELEPHONE":"02 40 25 66 31","THEME":12,"COMMUNE":"NANTES","LIBCATEGORIE":"Jeunesse","ADRESSE":"24 Chemin du Château de l'Aubinière","LIBTYPE":"Centre de loisirs","_IDOBJ":403,"TYPE":120201,"CATEGORIE":1202},"geometry":{"type":"Point","coordinates":[-1.49611929242603,47.2585448054839]}},{"type":"Feature","properties":{"geo":{"name":"Centre de Loisirs Santos Dumont ACCOORD"},"_l":[47.2598006314565,-1.56719042784691],"LIBTHEME":"VIE SOCIALE","CODE_POSTAL":44300,"WEB":null,"STATUT":null,"TELEPHONE":"02 40 94 11 79","THEME":12,"COMMUNE":"NANTES","LIBCATEGORIE":"Jeunesse","ADRESSE":"7 Rue Santos Dumont","LIBTYPE":"Centre de loisirs","_IDOBJ":938,"TYPE":120201,"CATEGORIE":1202},"geometry":{"type":"Point","coordinates":[-1.56719042784691,47.2598006314565]}},{"type":"Feature","properties":{"geo":{"name":"Espace Animation Beaulieu"},"_l":[47.2081889357792,-1.52676847942684],"LIBTHEME":"VIE SOCIALE","CODE_POSTAL":44200,"WEB":null,"STATUT":null,"TELEPHONE":"02 51 72 39 82","THEME":12,"COMMUNE":"NANTES","LIBCATEGORIE":"Jeunesse","ADRESSE":"4 Rue Marc Vaubourgoin","LIBTYPE":"Centre de loisirs","_IDOBJ":940,"TYPE":120201,"CATEGORIE":1202},"geometry":{"type":"Point","coordinates":[-1.52676847942684,47.2081889357792]}},{"type":"Feature","properties":{"geo":{"name":"Espaces d'Animation Saint Joseph"},"_l":[47.2690994177155,-1.51955864092386],"LIBTHEME":"VIE SOCIALE","CODE_POSTAL":44300,"WEB":null,"STATUT":null,"TELEPHONE":"02 40 30 19 39","THEME":12,"COMMUNE":"NANTES","LIBCATEGORIE":"Jeunesse","ADRESSE":"478 Route de Saint Joseph","LIBTYPE":"Centre de loisirs","_IDOBJ":950,"TYPE":120201,"CATEGORIE":1202},"geometry":{"type":"Point","coordinates":[-1.51955864092386,47.2690994177155]}},{"type":"Feature","properties":{"geo":{"name":"Foyer Jeunes Travailleurs Port Beaulieu"},"_l":[47.2060855308096,-1.54317922705893],"LIBTHEME":"VIE SOCIALE","CODE_POSTAL":44200,"WEB":null,"STATUT":null,"TELEPHONE":"02 40 12 24 00","THEME":12,"COMMUNE":"NANTES","LIBCATEGORIE":"Jeunesse","ADRESSE":"9 Boulevard Vincent Gâche","LIBTYPE":"Foyer","_IDOBJ":1028,"TYPE":120202,"CATEGORIE":1202},"geometry":{"type":"Point","coordinates":[-1.54317922705893,47.2060855308096]}},{"type":"Feature","properties":{"geo":{"name":"Centre Régional Information Jeunesse Pays de la Loire"},"_l":[47.2186053075286,-1.555354428925],"LIBTHEME":"VIE SOCIALE","CODE_POSTAL":44000,"WEB":"www.infos-jeunes.f","STATUT":null,"TELEPHONE":"02 51 72 94 50","THEME":12,"COMMUNE":"NANTES","LIBCATEGORIE":"Jeunesse","ADRESSE":"37 Rue Saint Léonard","LIBTYPE":"Locaux jeunes","_IDOBJ":1080,"TYPE":120203,"CATEGORIE":1202},"geometry":{"type":"Point","coordinates":[-1.555354428925,47.2186053075286]}},{"type":"Feature","properties":{"geo":{"name":"Accueil de Loisirs Cloé ACCOORD"},"_l":[47.2540722143136,-1.56333307724407],"LIBTHEME":"VIE SOCIALE","CODE_POSTAL":44300,"WEB":null,"STATUT":null,"TELEPHONE":"02 40 40 91 26","THEME":12,"COMMUNE":"NANTES","LIBCATEGORIE":"Jeunesse","ADRESSE":"4 Rue des Renards","LIBTYPE":"Centre de loisirs","_IDOBJ":1124,"TYPE":120201,"CATEGORIE":1202},"geometry":{"type":"Point","coordinates":[-1.56333307724407,47.2540722143136]}},{"type":"Feature","properties":{"geo":{"name":"Accueil de Loisirs Ange Guépin"},"_l":[47.2179792097334,-1.51938665649511],"LIBTHEME":"VIE SOCIALE","CODE_POSTAL":44000,"WEB":"www.accoordnantes.info","STATUT":null,"TELEPHONE":"02 40 08 22 54","THEME":12,"COMMUNE":"NANTES","LIBCATEGORIE":"Jeunesse","ADRESSE":"Rue de la Révolution des Oeillets","LIBTYPE":"Centre de loisirs","_IDOBJ":1262,"TYPE":120201,"CATEGORIE":1202},"geometry":{"type":"Point","coordinates":[-1.51938665649511,47.2179792097334]}},{"type":"Feature","properties":{"geo":{"name":"Centre de Loisirs Perray ACCOORD"},"_l":[47.2470913029307,-1.51249942978735],"LIBTHEME":"VIE SOCIALE","CODE_POSTAL":44300,"WEB":null,"STATUT":null,"TELEPHONE":"02 40 52 33 06","THEME":12,"COMMUNE":"NANTES","LIBCATEGORIE":"Jeunesse","ADRESSE":"7 Rue Frédéric Mistral","LIBTYPE":"Centre de loisirs","_IDOBJ":1263,"TYPE":120201,"CATEGORIE":1202},"geometry":{"type":"Point","coordinates":[-1.51249942978735,47.2470913029307]}},{"type":"Feature","properties":{"geo":{"name":"Centre de Loisirs Petite Sensive ACCOORD"},"_l":[47.2616176188386,-1.56657925614553],"LIBTHEME":"VIE SOCIALE","CODE_POSTAL":44300,"WEB":null,"STATUT":null,"TELEPHONE":"02 40 76 15 43","THEME":12,"COMMUNE":"NANTES","LIBCATEGORIE":"Jeunesse","ADRESSE":"23 Rue du Paraguay","LIBTYPE":"Centre de loisirs","_IDOBJ":1265,"TYPE":120201,"CATEGORIE":1202},"geometry":{"type":"Point","coordinates":[-1.56657925614553,47.2616176188386]}},{"type":"Feature","properties":{"geo":{"name":"Centre de Loisirs Bout des Landes Bruyères ACCOORD"},"_l":[47.2661211431866,-1.57840110855523],"LIBTHEME":"VIE SOCIALE","CODE_POSTAL":44300,"WEB":null,"STATUT":null,"TELEPHONE":"02 40 40 91 01","THEME":12,"COMMUNE":"NANTES","LIBCATEGORIE":"Jeunesse","ADRESSE":"12 Rue de Concarneau","LIBTYPE":"Centre de loisirs","_IDOBJ":1266,"TYPE":120201,"CATEGORIE":1202},"geometry":{"type":"Point","coordinates":[-1.57840110855523,47.2661211431866]}},{"type":"Feature","properties":{"geo":{"name":"Centre de Loisirs Clos du Cens ACCOORD"},"_l":[47.248448315992,-1.57461280809731],"LIBTHEME":"VIE SOCIALE","CODE_POSTAL":44300,"WEB":null,"STATUT":null,"TELEPHONE":"02 40 40 56 44","THEME":12,"COMMUNE":"NANTES","LIBCATEGORIE":"Jeunesse","ADRESSE":"19 Avenue du Clos du Cens","LIBTYPE":"Centre de loisirs","_IDOBJ":1267,"TYPE":120201,"CATEGORIE":1202},"geometry":{"type":"Point","coordinates":[-1.57461280809731,47.248448315992]}},{"type":"Feature","properties":{"geo":{"name":"Centre de Loisirs Bottière ACCOORD"},"_l":[47.2409362890364,-1.51820393849702],"LIBTHEME":"VIE SOCIALE","CODE_POSTAL":44300,"WEB":null,"STATUT":null,"TELEPHONE":"02 40 49 48 61","THEME":12,"COMMUNE":"NANTES","LIBCATEGORIE":"Jeunesse","ADRESSE":"2 Rue Urbain Le Verrier","LIBTYPE":"Centre de loisirs","_IDOBJ":1268,"TYPE":120201,"CATEGORIE":1202},"geometry":{"type":"Point","coordinates":[-1.51820393849702,47.2409362890364]}},{"type":"Feature","properties":{"geo":{"name":"Centre de Loisirs Manu ACCOORD"},"_l":[47.2198482751936,-1.53602580057569],"LIBTHEME":"VIE SOCIALE","CODE_POSTAL":44000,"WEB":null,"STATUT":null,"TELEPHONE":"02 40 29 36 35","THEME":12,"COMMUNE":"NANTES","LIBCATEGORIE":"Jeunesse","ADRESSE":"7 Cour Jules Durand","LIBTYPE":"Centre de loisirs","_IDOBJ":1269,"TYPE":120201,"CATEGORIE":1202},"geometry":{"type":"Point","coordinates":[-1.53602580057569,47.2198482751936]}},{"type":"Feature","properties":{"geo":{"name":"Comite ACCOORD Bellevue Chantenay"},"_l":[47.2078035131903,-1.60507612245133],"LIBTHEME":"VIE SOCIALE","CODE_POSTAL":44100,"WEB":null,"STATUT":null,"TELEPHONE":"02 40 58 54 90","THEME":12,"COMMUNE":"NANTES","LIBCATEGORIE":"Jeunesse","ADRESSE":"29 Rue du Jamet","LIBTYPE":"Centre de loisirs","_IDOBJ":1323,"TYPE":120201,"CATEGORIE":1202},"geometry":{"type":"Point","coordinates":[-1.60507612245133,47.2078035131903]}},{"type":"Feature","properties":{"geo":{"name":"Accueil de Loisirs l'Observatoire ACCOORD"},"_l":[47.2446031975727,-1.55928054747895],"LIBTHEME":"VIE SOCIALE","CODE_POSTAL":44300,"WEB":null,"STATUT":null,"TELEPHONE":"02 40 76 40 04","THEME":12,"COMMUNE":"NANTES","LIBCATEGORIE":"Jeunesse","ADRESSE":"4B Boulevard des Tribunes","LIBTYPE":"Centre de loisirs","_IDOBJ":1347,"TYPE":120201,"CATEGORIE":1202},"geometry":{"type":"Point","coordinates":[-1.55928054747895,47.2446031975727]}},{"type":"Feature","properties":{"geo":{"name":"Foyer Jeunes Travailleurs Edit de Nantes"},"_l":[47.2143456685545,-1.56861201165052],"LIBTHEME":"VIE SOCIALE","CODE_POSTAL":44100,"WEB":"http://www.edit-nantes.fr","STATUT":null,"TELEPHONE":"02 40 73 41 46","THEME":12,"COMMUNE":"NANTES","LIBCATEGORIE":"Jeunesse","ADRESSE":"7 Rue de Gigant","LIBTYPE":"Foyer","_IDOBJ":1355,"TYPE":120202,"CATEGORIE":1202},"geometry":{"type":"Point","coordinates":[-1.56861201165052,47.2143456685545]}},{"type":"Feature","properties":{"geo":{"name":"Foyer Jeunes Travailleurs Association Nantaise"},"_l":[47.2207020911686,-1.55881837640046],"LIBTHEME":"VIE SOCIALE","CODE_POSTAL":44000,"WEB":null,"STATUT":null,"TELEPHONE":"02 51 72 98 70","THEME":12,"COMMUNE":"NANTES","LIBCATEGORIE":"Jeunesse","ADRESSE":"6 Rue de Bel Air","LIBTYPE":"Foyer","_IDOBJ":1409,"TYPE":120202,"CATEGORIE":1202},"geometry":{"type":"Point","coordinates":[-1.55881837640046,47.2207020911686]}},{"type":"Feature","properties":{"geo":{"name":"Club Addo La Halvêque Beaujoire ACCOORD"},"_l":[47.2542084015712,-1.51927119445425],"LIBTHEME":"VIE SOCIALE","CODE_POSTAL":44300,"WEB":null,"STATUT":null,"TELEPHONE":null,"THEME":12,"COMMUNE":"NANTES","LIBCATEGORIE":"Jeunesse","ADRESSE":"23 Rue Léon Serpollet","LIBTYPE":"Centre de loisirs","_IDOBJ":1726,"TYPE":120201,"CATEGORIE":1202},"geometry":{"type":"Point","coordinates":[-1.51927119445425,47.2542084015712]}},{"type":"Feature","properties":{"geo":{"name":"Maison de l'Enfance La Halvêque Beaujoire ACCOORD"},"_l":[47.2543688230653,-1.51969641313621],"LIBTHEME":"VIE SOCIALE","CODE_POSTAL":44300,"WEB":null,"STATUT":null,"TELEPHONE":null,"THEME":12,"COMMUNE":"NANTES","LIBCATEGORIE":"Jeunesse","ADRESSE":"23 Rue Léon Serpollet","LIBTYPE":"Centre de loisirs","_IDOBJ":1727,"TYPE":120201,"CATEGORIE":1202},"geometry":{"type":"Point","coordinates":[-1.51969641313621,47.2543688230653]}},{"type":"Feature","properties":{"geo":{"name":"SPIG Bellevue ACCOORD"},"_l":[47.2079738234484,-1.61124994710893],"LIBTHEME":"VIE SOCIALE","CODE_POSTAL":44100,"WEB":null,"STATUT":null,"TELEPHONE":"02 40 46 83 35","THEME":12,"COMMUNE":"NANTES","LIBCATEGORIE":"Jeunesse","ADRESSE":"28 Boulevard Winston Churchill","LIBTYPE":"Centre de loisirs","_IDOBJ":1777,"TYPE":120201,"CATEGORIE":1202},"geometry":{"type":"Point","coordinates":[-1.61124994710893,47.2079738234484]}},{"type":"Feature","properties":{"geo":{"name":"Foyer Centre d'Apprentis du Batiment"},"_l":[47.2204509780888,-1.65260969087806],"LIBTHEME":"VIE SOCIALE","CODE_POSTAL":44800,"WEB":null,"STATUT":"Privé","TELEPHONE":"02 40 92 13 43","THEME":12,"COMMUNE":"ST-HERBLAIN","LIBCATEGORIE":"Jeunesse","ADRESSE":"27 Rue de la Rivaudière","LIBTYPE":"Foyer","_IDOBJ":1900,"TYPE":120202,"CATEGORIE":1202},"geometry":{"type":"Point","coordinates":[-1.65260969087806,47.2204509780888]}},{"type":"Feature","properties":{"geo":{"name":"Local Jeunes du Bois Raguenet"},"_l":[47.270495438801,-1.59644762124531],"LIBTHEME":"VIE SOCIALE","CODE_POSTAL":44700,"WEB":null,"STATUT":"Public","TELEPHONE":"02 40 63 75 74","THEME":12,"COMMUNE":"ORVAULT","LIBCATEGORIE":"Jeunesse","ADRESSE":"10 Rue des Porteurs d'Eau","LIBTYPE":"Locaux jeunes","_IDOBJ":1964,"TYPE":120203,"CATEGORIE":1202},"geometry":{"type":"Point","coordinates":[-1.59644762124531,47.270495438801]}},{"type":"Feature","properties":{"geo":{"name":"PIJ - Point Information Jeunesse"},"_l":[47.1724838381342,-1.62106481970733],"LIBTHEME":"VIE SOCIALE","CODE_POSTAL":44340,"WEB":"www.ville-bouguenais.fr","STATUT":"Public","TELEPHONE":"02 40 65 11 56","THEME":12,"COMMUNE":"BOUGUENAIS","LIBCATEGORIE":"Jeunesse","ADRESSE":"Place de la Croix Jeannette","LIBTYPE":"Locaux jeunes","_IDOBJ":2036,"TYPE":120203,"CATEGORIE":1202},"geometry":{"type":"Point","coordinates":[-1.62106481970733,47.1724838381342]}},{"type":"Feature","properties":{"geo":{"name":"Acceuil de Loisirs Sans Hébergement Ville-au-Denis"},"_l":[47.1556164738828,-1.6228703432478],"LIBTHEME":"VIE SOCIALE","CODE_POSTAL":44340,"WEB":"www.ville-bouguenais.fr","STATUT":"Public","TELEPHONE":"02 40 32 29 15","THEME":12,"COMMUNE":"BOUGUENAIS","LIBCATEGORIE":"Jeunesse","ADRESSE":"Allée des Soupirs","LIBTYPE":"Centre de loisirs","_IDOBJ":2096,"TYPE":120201,"CATEGORIE":1202},"geometry":{"type":"Point","coordinates":[-1.6228703432478,47.1556164738828]}},{"type":"Feature","properties":{"geo":{"name":"Maison des Jeunes et de la Culture de la Bouvardière"},"_l":[47.2356229778372,-1.59887770546516],"LIBTHEME":"VIE SOCIALE","CODE_POSTAL":44800,"WEB":"www.saint-herblain.fr","STATUT":"Public","TELEPHONE":"02 28 25 26 40","THEME":12,"COMMUNE":"ST-HERBLAIN","LIBCATEGORIE":"Jeunesse","ADRESSE":"Avenue Alain Gerbault","LIBTYPE":"Locaux jeunes","_IDOBJ":2126,"TYPE":120203,"CATEGORIE":1202},"geometry":{"type":"Point","coordinates":[-1.59887770546516,47.2356229778372]}},{"type":"Feature","properties":{"geo":{"name":"Centre de Loisirs Marcellin Verbe"},"_l":[47.1933135535023,-1.48335701362886],"LIBTHEME":"VIE SOCIALE","CODE_POSTAL":44230,"WEB":"www.saintsebastien.fr","STATUT":"Public","TELEPHONE":"02 40 34 46 18","THEME":12,"COMMUNE":"ST-SEBASTIEN","LIBCATEGORIE":"Jeunesse","ADRESSE":"Chemin de l'Ouche des Landes","LIBTYPE":"Centre de loisirs","_IDOBJ":2163,"TYPE":120201,"CATEGORIE":1202},"geometry":{"type":"Point","coordinates":[-1.48335701362886,47.1933135535023]}},{"type":"Feature","properties":{"geo":{"name":"Local de Jeunes Café Club"},"_l":[47.1760822603801,-1.59163977604865],"LIBTHEME":"VIE SOCIALE","CODE_POSTAL":44340,"WEB":null,"STATUT":"Public","TELEPHONE":"02 40 65 18 66","THEME":12,"COMMUNE":"BOUGUENAIS","LIBCATEGORIE":"Jeunesse","ADRESSE":"Rue de la Neustrie","LIBTYPE":"Locaux jeunes","_IDOBJ":2181,"TYPE":120203,"CATEGORIE":1202},"geometry":{"type":"Point","coordinates":[-1.59163977604865,47.1760822603801]}},{"type":"Feature","properties":{"geo":{"name":"Centre de Loisirs Condorcet"},"_l":[47.2304177508518,-1.60592968221689],"LIBTHEME":"VIE SOCIALE","CODE_POSTAL":44800,"WEB":"www.saint-herblain.fr","STATUT":"Public","TELEPHONE":"02 28 25 26 56","THEME":12,"COMMUNE":"ST-HERBLAIN","LIBCATEGORIE":"Jeunesse","ADRESSE":"9 Rue de Tillay","LIBTYPE":"Centre de loisirs","_IDOBJ":2219,"TYPE":120201,"CATEGORIE":1202},"geometry":{"type":"Point","coordinates":[-1.60592968221689,47.2304177508518]}},{"type":"Feature","properties":{"geo":{"name":"Centre de Loisirs Associé à l'Ecole Soleil Levant"},"_l":[47.2195841797246,-1.61110802921535],"LIBTHEME":"VIE SOCIALE","CODE_POSTAL":44800,"WEB":null,"STATUT":"Public","TELEPHONE":null,"THEME":12,"COMMUNE":"ST-HERBLAIN","LIBCATEGORIE":"Jeunesse","ADRESSE":"Rue de la Blanche","LIBTYPE":"Centre de loisirs","_IDOBJ":2226,"TYPE":120201,"CATEGORIE":1202},"geometry":{"type":"Point","coordinates":[-1.61110802921535,47.2195841797246]}},{"type":"Feature","properties":{"geo":{"name":"Bureau Information Jeunesse Rabotière"},"_l":[47.2138904457413,-1.61642121350266],"LIBTHEME":"VIE SOCIALE","CODE_POSTAL":44800,"WEB":null,"STATUT":"Public","TELEPHONE":null,"THEME":12,"COMMUNE":"ST-HERBLAIN","LIBCATEGORIE":"Jeunesse","ADRESSE":"Rue de Saint Servan","LIBTYPE":"Locaux jeunes","_IDOBJ":2228,"TYPE":120203,"CATEGORIE":1202},"geometry":{"type":"Point","coordinates":[-1.61642121350266,47.2138904457413]}},{"type":"Feature","properties":{"geo":{"name":"C. de Loisirs de la Harlière"},"_l":[47.2108667527048,-1.61049203593617],"LIBTHEME":"VIE SOCIALE","CODE_POSTAL":44800,"WEB":null,"STATUT":"Public","TELEPHONE":"02 51 80 60 35","THEME":12,"COMMUNE":"ST-HERBLAIN","LIBCATEGORIE":"Jeunesse","ADRESSE":"Rue de Bordeaux","LIBTYPE":"Centre de loisirs","_IDOBJ":2231,"TYPE":120201,"CATEGORIE":1202},"geometry":{"type":"Point","coordinates":[-1.61049203593617,47.2108667527048]}},{"type":"Feature","properties":{"geo":{"name":"Centre de Loisirs de l'Erdurière"},"_l":[47.2354536754308,-1.71798309211489],"LIBTHEME":"VIE SOCIALE","CODE_POSTAL":44220,"WEB":null,"STATUT":null,"TELEPHONE":"02 40 86 02 84","THEME":12,"COMMUNE":"COUERON","LIBCATEGORIE":"Jeunesse","ADRESSE":"CR 38","LIBTYPE":"Centre de loisirs","_IDOBJ":2478,"TYPE":120201,"CATEGORIE":1202},"geometry":{"type":"Point","coordinates":[-1.71798309211489,47.2354536754308]}},{"type":"Feature","properties":{"geo":{"name":"Centre Aéré Manoir de Bellevue"},"_l":[47.2391672748497,-1.46951727583646],"LIBTHEME":"VIE SOCIALE","CODE_POSTAL":44980,"WEB":null,"STATUT":null,"TELEPHONE":"02 40 25 68 56","THEME":12,"COMMUNE":"SAINTE-LUCE-SUR-LOIRE","LIBCATEGORIE":"Jeunesse","ADRESSE":"79 Promenade de Bellevue","LIBTYPE":"Centre de loisirs","_IDOBJ":2575,"TYPE":120201,"CATEGORIE":1202},"geometry":{"type":"Point","coordinates":[-1.46951727583646,47.2391672748497]}},{"type":"Feature","properties":{"geo":{"name":"Local Animation Jeunes Sainte Luce sur Loire"},"_l":[47.2484794187834,-1.4824947665753],"LIBTHEME":"VIE SOCIALE","CODE_POSTAL":44980,"WEB":null,"STATUT":null,"TELEPHONE":"02 40 25 64 96","THEME":12,"COMMUNE":"SAINTE-LUCE-SUR-LOIRE","LIBCATEGORIE":"Jeunesse","ADRESSE":"Mail de l'Europe","LIBTYPE":"Locaux jeunes","_IDOBJ":2598,"TYPE":120203,"CATEGORIE":1202},"geometry":{"type":"Point","coordinates":[-1.4824947665753,47.2484794187834]}}]}