{"type":"FeatureCollection","features":[{"type":"Feature","properties":{"title":"Salle de Musculation du Jamet - Bellevue","Catégorie":"Autre équipement","Statut":"Ville de Nantes","Adresse":"61 Route de Saint Herblain","Code postal":44100,"Commune":"NANTES","Téléphone":"02 40 95 03 55","Site Internet":null,"icon":"default"},"geometry":{"type":"Point","coordinates":[-1.60302864200755,47.2103400239408]}},{"type":"Feature","properties":{"title":"Parc des Capucins","Catégorie":"Espace Sportif de Proximité","Statut":"Ville de Nantes","Adresse":"14 Rue du Ballet","Code postal":44000,"Commune":"NANTES","Téléphone":null,"Site Internet":null,"icon":"default"},"geometry":{"type":"Point","coordinates":[-1.56087286086086,47.2318677534785]}},{"type":"Feature","properties":{"title":"Gymnase Lycée Michelet","Catégorie":"Gymnase","Statut":"Région","Adresse":"41 Boulevard Michelet","Code postal":44300,"Commune":"NANTES","Téléphone":null,"Site Internet":null,"icon":"default"},"geometry":{"type":"Point","coordinates":[-1.55849994541011,47.235080589508]}},{"type":"Feature","properties":{"title":"Espace Sportif Malakoff","Catégorie":"Espace Sportif de Proximité","Statut":"Ville de Nantes","Adresse":"Rue de Corse","Code postal":44000,"Commune":"NANTES","Téléphone":null,"Site Internet":null,"icon":"default"},"geometry":{"type":"Point","coordinates":[-1.52077937985436,47.2162064931775]}},{"type":"Feature","properties":{"title":"Espace Sportif Noe Mitrie","Catégorie":"Espace Sportif de Proximité","Statut":"Ville de Nantes","Adresse":"5 Boulevard Ernest Dalby","Code postal":44000,"Commune":"NANTES","Téléphone":null,"Site Internet":null,"icon":"default"},"geometry":{"type":"Point","coordinates":[-1.52658005689645,47.2279471253864]}},{"type":"Feature","properties":{"title":"Espace Sportif Moutonnerie","Catégorie":"Espace Sportif de Proximité","Statut":"Ville de Nantes","Adresse":"Rue Francisco Ferrer","Code postal":44000,"Commune":"NANTES","Téléphone":null,"Site Internet":null,"icon":"default"},"geometry":{"type":"Point","coordinates":[-1.53331754447398,47.2207787374955]}},{"type":"Feature","properties":{"title":"Gymnase Caserne Gouzet","Catégorie":"Gymnase","Statut":"Département","Adresse":"47 Rue Maréchal Joffre","Code postal":44000,"Commune":"NANTES","Téléphone":null,"Site Internet":null,"icon":"default"},"geometry":{"type":"Point","coordinates":[-1.54784219590003,47.2211726221364]}},{"type":"Feature","properties":{"title":"Gymnase Lycée Livet","Catégorie":"Gymnase","Statut":"Région","Adresse":"16 Rue Dufour","Code postal":44000,"Commune":"NANTES","Téléphone":null,"Site Internet":null,"icon":"default"},"geometry":{"type":"Point","coordinates":[-1.54480366255878,47.2252434277332]}},{"type":"Feature","properties":{"title":"Espace Sportif J.B Barré","Catégorie":"Espace Sportif de Proximité","Statut":"Ville de Nantes","Adresse":"Rue Jean Baptiste Barre","Code postal":44000,"Commune":"NANTES","Téléphone":null,"Site Internet":null,"icon":"default"},"geometry":{"type":"Point","coordinates":[-1.52763753422257,47.2226560400484]}},{"type":"Feature","properties":{"title":"Espace Sportif du Vertais","Catégorie":"Espace Sportif de Proximité","Statut":"Ville de Nantes","Adresse":"Boulevard Adolphe Billault","Code postal":44200,"Commune":"NANTES","Téléphone":null,"Site Internet":null,"icon":"default"},"geometry":{"type":"Point","coordinates":[-1.54630730371806,47.2021164463731]}},{"type":"Feature","properties":{"title":"Terrain multisports Sébilleau","Catégorie":"Espace Sportif de Proximité","Statut":"Ville de Nantes","Adresse":"Rue Docteur Jules Sébilleau","Code postal":44200,"Commune":"NANTES","Téléphone":null,"Site Internet":"www.iledenantes.com","icon":"default"},"geometry":{"type":"Point","coordinates":[-1.53163551400006,47.2052549515569]}},{"type":"Feature","properties":{"title":"Boulodrome du Breil","Catégorie":"Autre équipement","Statut":"Ville de Nantes","Adresse":"Rue de Malville","Code postal":44100,"Commune":"NANTES","Téléphone":null,"Site Internet":null,"icon":"default"},"geometry":{"type":"Point","coordinates":[-1.58297132901189,47.2317842546256]}},{"type":"Feature","properties":{"title":"Square Gaston Michel","Catégorie":"Espace Sportif de Proximité","Statut":"Ville de Nantes","Adresse":"28 Boulevard des Américains","Code postal":44300,"Commune":"NANTES","Téléphone":null,"Site Internet":null,"icon":"default"},"geometry":{"type":"Point","coordinates":[-1.57146369210094,47.2350892226826]}},{"type":"Feature","properties":{"title":"Skate Schuman","Catégorie":"Autre équipement","Statut":"Ville de Nantes","Adresse":"Boulevard Robert Schuman","Code postal":44300,"Commune":"NANTES","Téléphone":null,"Site Internet":null,"icon":"default"},"geometry":{"type":"Point","coordinates":[-1.5727031517998,47.2416435521858]}},{"type":"Feature","properties":{"title":"Base Nautique de l'UNA","Catégorie":"Autre équipement","Statut":"Etat","Adresse":"Chemin de la Houssinière","Code postal":44300,"Commune":"NANTES","Téléphone":null,"Site Internet":null,"icon":"default"},"geometry":{"type":"Point","coordinates":[-1.55129617973765,47.2367088534381]}},{"type":"Feature","properties":{"title":"Stand de Tir des Jamonières","Catégorie":"Autre équipement","Statut":"Ville de Nantes","Adresse":"Route de la Jonelière","Code postal":44240,"Commune":"LA-CHAPELLE-SUR-ERDRE","Téléphone":null,"Site Internet":null,"icon":"default"},"geometry":{"type":"Point","coordinates":[-1.540807058322,47.2570977823384]}},{"type":"Feature","properties":{"title":"Plateau Sportif Winnipeg","Catégorie":"Espace Sportif de Proximité","Statut":"Ville de Nantes","Adresse":"Rue de Vancouver","Code postal":44300,"Commune":"NANTES","Téléphone":null,"Site Internet":null,"icon":"default"},"geometry":{"type":"Point","coordinates":[-1.57826013212345,47.2595297012164]}},{"type":"Feature","properties":{"title":"Plateau Sportif André Chénier","Catégorie":"Espace Sportif de Proximité","Statut":"Ville de Nantes","Adresse":"Rue André Chénier","Code postal":44300,"Commune":"NANTES","Téléphone":null,"Site Internet":null,"icon":"default"},"geometry":{"type":"Point","coordinates":[-1.56724591076149,47.2533733262975]}},{"type":"Feature","properties":{"title":"Espace Sportif Paul Gauguin","Catégorie":"Espace Sportif de Proximité","Statut":"Ville de Nantes","Adresse":"Rue Paul Gauguin","Code postal":44100,"Commune":"NANTES","Téléphone":null,"Site Internet":null,"icon":"default"},"geometry":{"type":"Point","coordinates":[-1.59330467562418,47.219890502139]}},{"type":"Feature","properties":{"title":"Plateau Sportif de la Géraudière","Catégorie":"Espace Sportif de Proximité","Statut":"Ville de Nantes","Adresse":"Rue des Renards","Code postal":44300,"Commune":"NANTES","Téléphone":null,"Site Internet":null,"icon":"default"},"geometry":{"type":"Point","coordinates":[-1.56767475232835,47.258481052182]}},{"type":"Feature","properties":{"title":"Centre Sportif de la Faculté de Lettres","Catégorie":"Centre sportif","Statut":"Etat","Adresse":"Rue de l'Ile d'Yeu","Code postal":44300,"Commune":"NANTES","Téléphone":null,"Site Internet":null,"icon":"default"},"geometry":{"type":"Point","coordinates":[-1.54886479935527,47.245440041888]}},{"type":"Feature","properties":{"title":"UFR STAPS","Catégorie":"Gymnase","Statut":"Etat","Adresse":"25 Boulevard Guy Mollet","Code postal":44300,"Commune":"NANTES","Téléphone":null,"Site Internet":null,"icon":"default"},"geometry":{"type":"Point","coordinates":[-1.55531376070076,47.2516895143255]}},{"type":"Feature","properties":{"title":"Plaine de Jeux St-Joseph de Porterie","Catégorie":"Plaine de jeux","Statut":"Ville de Nantes","Adresse":"Route de Saint Joseph","Code postal":44300,"Commune":"NANTES","Téléphone":null,"Site Internet":null,"icon":"default"},"geometry":{"type":"Point","coordinates":[-1.51866644850178,47.2717515568959]}},{"type":"Feature","properties":{"title":"Equipement Sportif Jardin des 4 Jeudis","Catégorie":"Espace Sportif de Proximité","Statut":"Ville de Nantes","Adresse":"Passage des Tauzins","Code postal":44300,"Commune":"NANTES","Téléphone":null,"Site Internet":null,"icon":"default"},"geometry":{"type":"Point","coordinates":[-1.52053450198753,47.2662235402302]}},{"type":"Feature","properties":{"title":"Equipement Sportif Parc du Plessis Tison","Catégorie":"Espace Sportif de Proximité","Statut":"Ville de Nantes","Adresse":"Boulevard Jules Verne","Code postal":44300,"Commune":"NANTES","Téléphone":null,"Site Internet":null,"icon":"default"},"geometry":{"type":"Point","coordinates":[-1.53598801890693,47.2345490826472]}},{"type":"Feature","properties":{"title":"Espace Sportif Louis Pergaud","Catégorie":"Espace Sportif de Proximité","Statut":"Ville de Nantes","Adresse":"Route de Saint Joseph","Code postal":44300,"Commune":"NANTES","Téléphone":null,"Site Internet":null,"icon":"default"},"geometry":{"type":"Point","coordinates":[-1.51982819492898,47.2680687130896]}},{"type":"Feature","properties":{"title":"Espace Sportif Ecole du Linot","Catégorie":"Espace Sportif de Proximité","Statut":"Ville de Nantes","Adresse":"43B Rue du Port des Charrettes","Code postal":44300,"Commune":"NANTES","Téléphone":null,"Site Internet":null,"icon":"default"},"geometry":{"type":"Point","coordinates":[-1.5285551638079,47.2682287243193]}},{"type":"Feature","properties":{"title":"Complexe Sportif Ecole des Mines","Catégorie":"Centre sportif","Statut":"Etat","Adresse":"4 Rue Alfred Kastler","Code postal":44300,"Commune":"NANTES","Téléphone":null,"Site Internet":null,"icon":"default"},"geometry":{"type":"Point","coordinates":[-1.52093090870516,47.2817070942818]}},{"type":"Feature","properties":{"title":"Plaine de Jeux du Lycée de la Colinière","Catégorie":"Plaine de jeux","Statut":"Région","Adresse":"129 Rue du Landreau","Code postal":44300,"Commune":"NANTES","Téléphone":null,"Site Internet":null,"icon":"default"},"geometry":{"type":"Point","coordinates":[-1.51229825260666,47.2354161995634]}},{"type":"Feature","properties":{"title":"Halle de Tennis de la Marrière","Catégorie":"Tennis","Statut":"Ville de Nantes","Adresse":"95 Rue de la Marrière","Code postal":44300,"Commune":"NANTES","Téléphone":null,"Site Internet":null,"icon":"default"},"geometry":{"type":"Point","coordinates":[-1.52784818256959,47.2368185757269]}},{"type":"Feature","properties":{"title":"Equipement Sportif Marché de la Marrière","Catégorie":"Espace Sportif de Proximité","Statut":"Ville de Nantes","Adresse":"27 Rue de la Marrière","Code postal":44300,"Commune":"NANTES","Téléphone":null,"Site Internet":null,"icon":"default"},"geometry":{"type":"Point","coordinates":[-1.53288256925048,47.2342436241766]}},{"type":"Feature","properties":{"title":"AEP Saint-Médard","Catégorie":"Centre sportif","Statut":"Privé","Adresse":"72 Rue du Pontereau","Code postal":44300,"Commune":"NANTES","Téléphone":null,"Site Internet":null,"icon":"default"},"geometry":{"type":"Point","coordinates":[-1.5051183545599,47.239935244659]}},{"type":"Feature","properties":{"title":"Equipement Sportif du Square A. Fresnel","Catégorie":"Espace Sportif de Proximité","Statut":"Ville de Nantes","Adresse":"Rue Augustin Fresnel","Code postal":44300,"Commune":"NANTES","Téléphone":null,"Site Internet":null,"icon":"default"},"geometry":{"type":"Point","coordinates":[-1.52314881010186,47.2428333984534]}},{"type":"Feature","properties":{"title":"Plaine de Jeux de la Noë Lambert","Catégorie":"Plaine de jeux","Statut":"Ville de Nantes","Adresse":"21 Route de Sainte Luce","Code postal":44300,"Commune":"NANTES","Téléphone":null,"Site Internet":null,"icon":"default"},"geometry":{"type":"Point","coordinates":[-1.52586312329866,47.2300547381758]}},{"type":"Feature","properties":{"title":"Salle de Boxe Bottière Nantes Est","Catégorie":"Autre équipement","Statut":"Ville de Nantes","Adresse":"83 Rue Félix Ménétrier","Code postal":44300,"Commune":"NANTES","Téléphone":null,"Site Internet":null,"icon":"default"},"geometry":{"type":"Point","coordinates":[-1.52102580886387,47.2406744968973]}},{"type":"Feature","properties":{"title":"Equipement Sportif de la Haluchère","Catégorie":"Espace Sportif de Proximité","Statut":"Ville de Nantes","Adresse":"Rue Jules Grandjouan","Code postal":44300,"Commune":"NANTES","Téléphone":null,"Site Internet":null,"icon":"default"},"geometry":{"type":"Point","coordinates":[-1.51227991311785,47.2474595193242]}},{"type":"Feature","properties":{"title":"Equipement Sportif de la Bottière","Catégorie":"Espace Sportif de Proximité","Statut":"Ville de Nantes","Adresse":"Rue Alfred Nobel","Code postal":44300,"Commune":"NANTES","Téléphone":null,"Site Internet":null,"icon":"default"},"geometry":{"type":"Point","coordinates":[-1.51988070382336,47.2358561844833]}},{"type":"Feature","properties":{"title":"Equipement Sportif de la Pilotière","Catégorie":"Espace Sportif de Proximité","Statut":"Ville de Nantes","Adresse":"Boulevard de la Pilotière","Code postal":44300,"Commune":"NANTES","Téléphone":null,"Site Internet":null,"icon":"default"},"geometry":{"type":"Point","coordinates":[-1.52499144594017,47.2449426596168]}},{"type":"Feature","properties":{"title":"Basket Ecole Ste Thérèse","Catégorie":"Autre équipement","Statut":"Et. scolaire privé","Adresse":"11 Rue de la Papotière","Code postal":44300,"Commune":"NANTES","Téléphone":null,"Site Internet":null,"icon":"default"},"geometry":{"type":"Point","coordinates":[-1.50288162761495,47.2368338714551]}},{"type":"Feature","properties":{"title":"Gymnase Lycée L. de Vinci","Catégorie":"Gymnase","Statut":"Région","Adresse":"31 Rue de la Bottière","Code postal":44300,"Commune":"NANTES","Téléphone":null,"Site Internet":null,"icon":"default"},"geometry":{"type":"Point","coordinates":[-1.52201727131023,47.2382229711751]}},{"type":"Feature","properties":{"title":"Terrain de Handball Notre Dame de la Sagesse","Catégorie":"Autre équipement","Statut":"Et. scolaire privé","Adresse":"14 Rue Frère Louis","Code postal":44200,"Commune":"NANTES","Téléphone":null,"Site Internet":null,"icon":"default"},"geometry":{"type":"Point","coordinates":[-1.53959049891492,47.1955645171836]}},{"type":"Feature","properties":{"title":"Boulodrome du Bèle","Catégorie":"Autre équipement","Statut":"Ville de Nantes","Adresse":"16 Boulevard de la Beaujoire","Code postal":44300,"Commune":"NANTES","Téléphone":null,"Site Internet":null,"icon":"default"},"geometry":{"type":"Point","coordinates":[-1.51301291030959,47.2598818439842]}},{"type":"Feature","properties":{"title":"Bowling de l'Erdre","Catégorie":"Autre équipement","Statut":null,"Adresse":"24 Boulevard Ampère","Code postal":44470,"Commune":"CARQUEFOU","Téléphone":"02 40 52 79 12","Site Internet":"www.bowling-erdre.fr","icon":"default"},"geometry":{"type":"Point","coordinates":[-1.50361701293574,47.3018248360051]}},{"type":"Feature","properties":{"title":"Terrain multisports Millerand","Catégorie":"Espace Sportif de Proximité","Statut":"Ville de Nantes","Adresse":"Rue du Général de Bollardière","Code postal":44200,"Commune":"NANTES","Téléphone":null,"Site Internet":"www.iledenantes.com","icon":"default"},"geometry":{"type":"Point","coordinates":[-1.53037444889631,47.2091102616296]}},{"type":"Feature","properties":{"title":"Espace Sportif Le Souchais","Catégorie":"Centre sportif","Statut":null,"Adresse":"1 Avenue de la Loire","Code postal":44470,"Commune":"CARQUEFOU","Téléphone":null,"Site Internet":"www.carquefou.fr","icon":"default"},"geometry":{"type":"Point","coordinates":[-1.50241580552544,47.3039615378976]}},{"type":"Feature","properties":{"title":"Espace Sportif Louis Le Nain","Catégorie":"Espace Sportif de Proximité","Statut":"Public","Adresse":"Rue Louis Le Nain","Code postal":44100,"Commune":"NANTES","Téléphone":null,"Site Internet":"www.nantes.fr","icon":"default"},"geometry":{"type":"Point","coordinates":[-1.59833762499666,47.2259499623719]}},{"type":"Feature","properties":{"title":"Gymnase Bottière Chênaie","Catégorie":"Gymnase","Statut":null,"Adresse":"Rue des Carnavaliers","Code postal":44300,"Commune":"NANTES","Téléphone":"02 40 50 40 38","Site Internet":null,"icon":"default"},"geometry":{"type":"Point","coordinates":[-1.51413692175225,47.237434063416]}},{"type":"Feature","properties":{"title":"Stadium Métropolitain Pierre Quinon","Catégorie":"Gymnase","Statut":null,"Adresse":"19 Boulevard Guy Mollet","Code postal":44300,"Commune":"NANTES","Téléphone":null,"Site Internet":"www.nantesmetropole.fr","icon":"default"},"geometry":{"type":"Point","coordinates":[-1.55557682568905,47.2488734221852]}},{"type":"Feature","properties":{"title":"Gymnase Port-au-Blé","Catégorie":"Gymnase","Statut":null,"Adresse":"Avenue André Malraux","Code postal":44400,"Commune":"REZE","Téléphone":null,"Site Internet":"www.reze.fr","icon":"default"},"geometry":{"type":"Point","coordinates":[-1.55287080054853,47.1902520445376]}},{"type":"Feature","properties":{"title":"Gymnase Arthur-Dugast","Catégorie":"Gymnase","Statut":null,"Adresse":"22 Boulevard Jean Monnet","Code postal":44400,"Commune":"REZE","Téléphone":"02 40 32 51 20","Site Internet":"www.reze.fr","icon":"default"},"geometry":{"type":"Point","coordinates":[-1.54438743967666,47.1654797011878]}},{"type":"Feature","properties":{"title":"Espace Multisport Solvardière","Catégorie":"Plaine de jeux","Statut":null,"Adresse":"5 Chemin de la Solvardière","Code postal":44800,"Commune":"ST-HERBLAIN","Téléphone":null,"Site Internet":null,"icon":"default"},"geometry":{"type":"Point","coordinates":[-1.64176082507584,47.2166995009956]}},{"type":"Feature","properties":{"title":"Espace Multisport Censive","Catégorie":"Plaine de jeux","Statut":null,"Adresse":"21 Rue de Bordeaux","Code postal":44800,"Commune":"ST-HERBLAIN","Téléphone":null,"Site Internet":"www.saint-herblain.fr","icon":"default"},"geometry":{"type":"Point","coordinates":[-1.61158809549252,47.2104096584847]}},{"type":"Feature","properties":{"title":"Espace Multisport Crémetterie","Catégorie":"Plaine de jeux","Statut":null,"Adresse":"15 Rue de l'Ecole","Code postal":44800,"Commune":"ST-HERBLAIN","Téléphone":null,"Site Internet":"www.saint-herblain.fr","icon":"default"},"geometry":{"type":"Point","coordinates":[-1.60905162935041,47.215451784303]}},{"type":"Feature","properties":{"title":"Tennis","Catégorie":"Tennis","Statut":null,"Adresse":"Rue de la Rive","Code postal":44710,"Commune":"SAINT-LEGER-LES-VIGNES","Téléphone":null,"Site Internet":null,"icon":"default"},"geometry":{"type":"Point","coordinates":[-1.73271134771113,47.1345345540375]}},{"type":"Feature","properties":{"title":"Court de Tennis","Catégorie":"Tennis","Statut":null,"Adresse":"Rue de la Gare","Code postal":44610,"Commune":"INDRE","Téléphone":null,"Site Internet":null,"icon":"default"},"geometry":{"type":"Point","coordinates":[-1.66875796124264,47.2009617615033]}},{"type":"Feature","properties":{"title":"Cercle Nautique d'Indre","Catégorie":"Centre sportif","Statut":null,"Adresse":"Quai Henri Brunais","Code postal":44610,"Commune":"INDRE","Téléphone":"02 40 85 05 37","Site Internet":null,"icon":"default"},"geometry":{"type":"Point","coordinates":[-1.66910329129323,47.1960700438542]}},{"type":"Feature","properties":{"title":"Skate Park Brains","Catégorie":"Autre équipement","Statut":null,"Adresse":"Rue Professeur Yves Boquien","Code postal":44830,"Commune":"BRAINS","Téléphone":null,"Site Internet":null,"icon":"default"},"geometry":{"type":"Point","coordinates":[-1.71740328001877,47.1717279732956]}},{"type":"Feature","properties":{"title":"Aire de jeux multisports Brains","Catégorie":"Autre équipement","Statut":null,"Adresse":"Rue Professeur Yves Boquien","Code postal":44830,"Commune":"BRAINS","Téléphone":null,"Site Internet":null,"icon":"default"},"geometry":{"type":"Point","coordinates":[-1.71741348723713,47.1715714181572]}},{"type":"Feature","properties":{"title":"Karaté","Catégorie":"Autre équipement","Statut":null,"Adresse":"Rue des Papillons","Code postal":44840,"Commune":"LES-SORINIERES","Téléphone":null,"Site Internet":null,"icon":"default"},"geometry":{"type":"Point","coordinates":[-1.52263459405555,47.1480518339684]}},{"type":"Feature","properties":{"title":"Aire multisports","Catégorie":"Plaine de jeux","Statut":null,"Adresse":"Rue de la Maillardière","Code postal":44840,"Commune":"LES-SORINIERES","Téléphone":null,"Site Internet":null,"icon":"default"},"geometry":{"type":"Point","coordinates":[-1.52301319853266,47.1574985364247]}},{"type":"Feature","properties":{"title":"Aire multisports","Catégorie":"Plaine de jeux","Statut":null,"Adresse":"Impasse de la Forge","Code postal":44840,"Commune":"LES-SORINIERES","Téléphone":null,"Site Internet":null,"icon":"default"},"geometry":{"type":"Point","coordinates":[-1.53387347807476,47.1488585941618]}},{"type":"Feature","properties":{"title":"Centre equestre Poney Club","Catégorie":"Centre sportif","Statut":null,"Adresse":"Rue de la Poste","Code postal":44840,"Commune":"LES-SORINIERES","Téléphone":null,"Site Internet":null,"icon":"default"},"geometry":{"type":"Point","coordinates":[-1.54402353337293,47.1448969479154]}},{"type":"Feature","properties":{"title":"Centre aquatique So.Pool","Catégorie":"Piscine","Statut":null,"Adresse":"2 Rue de Tasmanie","Code postal":44115,"Commune":"BASSE-GOULAINE","Téléphone":null,"Site Internet":null,"icon":"default"},"geometry":{"type":"Point","coordinates":[-1.47341691893707,47.1895837223825]}},{"type":"Feature","properties":{"title":"Salle omnisport de Bellestre","Catégorie":"Gymnase","Statut":null,"Adresse":"Rue du Stade","Code postal":44830,"Commune":"BOUAYE","Téléphone":null,"Site Internet":"www.bouaye.fr","icon":"default"},"geometry":{"type":"Point","coordinates":[-1.69621586994762,47.1500759089382]}},{"type":"Feature","properties":{"title":"Court de Tennis","Catégorie":"Tennis","Statut":null,"Adresse":"Chemin de la Piogerie","Code postal":44830,"Commune":"BOUAYE","Téléphone":null,"Site Internet":null,"icon":"default"},"geometry":{"type":"Point","coordinates":[-1.69262060484085,47.1506353405133]}},{"type":"Feature","properties":{"title":"Skatepark","Catégorie":"Autre équipement","Statut":null,"Adresse":"Esplanade de l'Edit de Nantes","Code postal":44830,"Commune":"BOUAYE","Téléphone":null,"Site Internet":null,"icon":"default"},"geometry":{"type":"Point","coordinates":[-1.68029644310577,47.1546780883818]}},{"type":"Feature","properties":{"title":"Salle de sport de la Belle Etoile","Catégorie":"Gymnase","Statut":null,"Adresse":"Avenue du Parc des Sports","Code postal":44470,"Commune":"THOUARE-SUR-LOIRE","Téléphone":null,"Site Internet":null,"icon":"default"},"geometry":{"type":"Point","coordinates":[-1.45322268077049,47.260932282872]}},{"type":"Feature","properties":{"title":"Salle de Tennis du Guette Loup","Catégorie":"Tennis","Statut":null,"Adresse":"Route de la Barre","Code postal":44470,"Commune":"THOUARE-SUR-LOIRE","Téléphone":null,"Site Internet":null,"icon":"default"},"geometry":{"type":"Point","coordinates":[-1.45519991438981,47.2625548892178]}},{"type":"Feature","properties":{"title":"Salle Omnisport","Catégorie":"Gymnase","Statut":null,"Adresse":"Voie Non Dénommée 2041149","Code postal":44470,"Commune":"THOUARE-SUR-LOIRE","Téléphone":null,"Site Internet":null,"icon":"default"},"geometry":{"type":"Point","coordinates":[-1.45608305074378,47.2631952890256]}},{"type":"Feature","properties":{"title":"Court de Tennis","Catégorie":"Tennis","Statut":null,"Adresse":"Rue de la Poste","Code postal":44115,"Commune":"BASSE-GOULAINE","Téléphone":null,"Site Internet":null,"icon":"default"},"geometry":{"type":"Point","coordinates":[-1.46781574720677,47.2185329342019]}},{"type":"Feature","properties":{"title":"Stades de Football","Catégorie":"Stade","Statut":null,"Adresse":"Rue de la Poste","Code postal":44115,"Commune":"BASSE-GOULAINE","Téléphone":null,"Site Internet":null,"icon":"default"},"geometry":{"type":"Point","coordinates":[-1.46645497803417,47.218460390894]}},{"type":"Feature","properties":{"title":"Dojo Goulainais","Catégorie":"Autre équipement","Statut":null,"Adresse":"Rue de la Poste","Code postal":44115,"Commune":"BASSE-GOULAINE","Téléphone":null,"Site Internet":null,"icon":"default"},"geometry":{"type":"Point","coordinates":[-1.46748951112505,47.2167943071233]}},{"type":"Feature","properties":{"title":"Boulodrome","Catégorie":"Autre équipement","Statut":null,"Adresse":"Rue de la Poste","Code postal":44115,"Commune":"BASSE-GOULAINE","Téléphone":null,"Site Internet":null,"icon":"default"},"geometry":{"type":"Point","coordinates":[-1.46807115962903,47.2166199319565]}},{"type":"Feature","properties":{"title":"Skate Park","Catégorie":"Autre équipement","Statut":null,"Adresse":"Square de Theley","Code postal":44115,"Commune":"BASSE-GOULAINE","Téléphone":null,"Site Internet":null,"icon":"default"},"geometry":{"type":"Point","coordinates":[-1.46573542845903,47.2178756582812]}},{"type":"Feature","properties":{"title":"Terrain multisport","Catégorie":"Autre équipement","Statut":null,"Adresse":"Square de Theley","Code postal":44115,"Commune":"BASSE-GOULAINE","Téléphone":null,"Site Internet":null,"icon":"default"},"geometry":{"type":"Point","coordinates":[-1.46578072150551,47.2176312634001]}},{"type":"Feature","properties":{"title":"Boulodrome","Catégorie":"Autre équipement","Statut":null,"Adresse":"Route du Lac","Code postal":44860,"Commune":"SAINT-AIGNAN-GRANDLIEU","Téléphone":null,"Site Internet":null,"icon":"default"},"geometry":{"type":"Point","coordinates":[-1.63771789549553,47.1203301600343]}},{"type":"Feature","properties":{"title":"Skate-Park","Catégorie":"Autre équipement","Statut":null,"Adresse":"Place Saint Amani","Code postal":44860,"Commune":"SAINT-AIGNAN-GRANDLIEU","Téléphone":null,"Site Internet":null,"icon":"default"},"geometry":{"type":"Point","coordinates":[-1.6372830000767,47.1211603599007]}},{"type":"Feature","properties":{"title":"Terrain de Basket","Catégorie":"Autre équipement","Statut":null,"Adresse":"Place Saint Amani","Code postal":44860,"Commune":"SAINT-AIGNAN-GRANDLIEU","Téléphone":null,"Site Internet":null,"icon":"default"},"geometry":{"type":"Point","coordinates":[-1.63719841649588,47.1210002452753]}},{"type":"Feature","properties":{"title":"Tir à l'Arc","Catégorie":"Autre équipement","Statut":null,"Adresse":"Chemin de la Coulée","Code postal":44640,"Commune":"SAINT-JEAN-DE-BOISEAU","Téléphone":null,"Site Internet":"lesarchersdupe.jimdo.com","icon":"default"},"geometry":{"type":"Point","coordinates":[-1.70998017391629,47.1862942742528]}},{"type":"Feature","properties":{"title":"Skate Park","Catégorie":"Autre équipement","Statut":null,"Adresse":"153 Route de Bouguenais","Code postal":44620,"Commune":"LA-MONTAGNE","Téléphone":null,"Site Internet":null,"icon":"default"},"geometry":{"type":"Point","coordinates":[-1.68685033383099,47.186997597229]}},{"type":"Feature","properties":{"title":"Skatepark","Catégorie":"Autre équipement","Statut":null,"Adresse":"Allée de la Vigne de Pâques","Code postal":44120,"Commune":"VERTOU","Téléphone":null,"Site Internet":null,"icon":"default"},"geometry":{"type":"Point","coordinates":[-1.46618353240723,47.1632053229194]}},{"type":"Feature","properties":{"title":"Terrain de Tennis","Catégorie":"Tennis","Statut":null,"Adresse":"Allée de la Vigne de Pâques","Code postal":44120,"Commune":"VERTOU","Téléphone":null,"Site Internet":null,"icon":"default"},"geometry":{"type":"Point","coordinates":[-1.46673883456256,47.1639364142099]}},{"type":"Feature","properties":{"title":"Terrain de Tennis","Catégorie":"Tennis","Statut":null,"Adresse":"Impasse du Stade Raymond Durand","Code postal":44120,"Commune":"VERTOU","Téléphone":null,"Site Internet":null,"icon":"default"},"geometry":{"type":"Point","coordinates":[-1.49828335754745,47.1832575358085]}},{"type":"Feature","properties":{"title":"Entente Tennis Vertou","Catégorie":"Tennis","Statut":null,"Adresse":"Impasse de la Foresterie","Code postal":44120,"Commune":"VERTOU","Téléphone":"02 51 79 17 10","Site Internet":"http://www.club.fft.fr/","icon":"default"},"geometry":{"type":"Point","coordinates":[-1.46318253916213,47.1785373270275]}},{"type":"Feature","properties":{"title":"Salle spécifique de gymnastique","Catégorie":"Gymnase","Statut":null,"Adresse":"Allée de la Vigne de Pâques","Code postal":44120,"Commune":"VERTOU","Téléphone":null,"Site Internet":null,"icon":"default"},"geometry":{"type":"Point","coordinates":[-1.46713546740473,47.1652390708765]}},{"type":"Feature","properties":{"title":"Terrain de Pétanque des Reigners","Catégorie":"Autre équipement","Statut":null,"Adresse":"Rue des Reigniers","Code postal":44120,"Commune":"VERTOU","Téléphone":null,"Site Internet":null,"icon":"default"},"geometry":{"type":"Point","coordinates":[-1.46445035062312,47.1376168981039]}},{"type":"Feature","properties":{"title":"Skatepark","Catégorie":"Autre équipement","Statut":null,"Adresse":"Rue des Reigniers","Code postal":44120,"Commune":"VERTOU","Téléphone":null,"Site Internet":null,"icon":"default"},"geometry":{"type":"Point","coordinates":[-1.46506122696991,47.137740018999]}},{"type":"Feature","properties":{"title":"Salle Antarès","Catégorie":"Gymnase","Statut":null,"Adresse":"Rue de la Forêt","Code postal":44880,"Commune":"SAUTRON","Téléphone":null,"Site Internet":"www.sautron.fr","icon":"default"},"geometry":{"type":"Point","coordinates":[-1.67944111191122,47.2662087671741]}},{"type":"Feature","properties":{"title":"Salle de Tennis Centaure","Catégorie":"Tennis","Statut":null,"Adresse":"Rue de la Forêt","Code postal":44880,"Commune":"SAUTRON","Téléphone":null,"Site Internet":null,"icon":"default"},"geometry":{"type":"Point","coordinates":[-1.67886425849015,47.2669270963193]}},{"type":"Feature","properties":{"title":"Salle de Pétanque Electra","Catégorie":"Autre équipement","Statut":null,"Adresse":"Rue de la Forêt","Code postal":44880,"Commune":"SAUTRON","Téléphone":null,"Site Internet":null,"icon":"default"},"geometry":{"type":"Point","coordinates":[-1.67811198422129,47.2658821247271]}},{"type":"Feature","properties":{"title":"Salle de Tennis Cassiopée","Catégorie":"Tennis","Statut":null,"Adresse":"Rue de la Forêt","Code postal":44880,"Commune":"SAUTRON","Téléphone":null,"Site Internet":null,"icon":"default"},"geometry":{"type":"Point","coordinates":[-1.67923508048179,47.2666474812869]}},{"type":"Feature","properties":{"title":"Salle Omnisport Delta","Catégorie":"Gymnase","Statut":null,"Adresse":"Rue de la Forêt","Code postal":44880,"Commune":"SAUTRON","Téléphone":null,"Site Internet":null,"icon":"default"},"geometry":{"type":"Point","coordinates":[-1.67787222373831,47.266164291383]}},{"type":"Feature","properties":{"title":"Salle Omnisport Bellatrix","Catégorie":"Gymnase","Statut":null,"Adresse":"Rue de la Forêt","Code postal":44880,"Commune":"SAUTRON","Téléphone":null,"Site Internet":null,"icon":"default"},"geometry":{"type":"Point","coordinates":[-1.67874386609388,47.2660375779804]}},{"type":"Feature","properties":{"title":"Terrains de tennis","Catégorie":"Tennis","Statut":null,"Adresse":"Rue de la Forêt","Code postal":44880,"Commune":"SAUTRON","Téléphone":null,"Site Internet":null,"icon":"default"},"geometry":{"type":"Point","coordinates":[-1.67841905846459,47.2665123104871]}},{"type":"Feature","properties":{"title":"Terrains de pétanque","Catégorie":"Autre équipement","Statut":null,"Adresse":"Rue de la Forêt","Code postal":44880,"Commune":"SAUTRON","Téléphone":null,"Site Internet":null,"icon":"default"},"geometry":{"type":"Point","coordinates":[-1.67792360967436,47.2670126159199]}},{"type":"Feature","properties":{"title":"Skatepark","Catégorie":"Autre équipement","Statut":null,"Adresse":"Rue de la Forêt","Code postal":44880,"Commune":"SAUTRON","Téléphone":null,"Site Internet":null,"icon":"default"},"geometry":{"type":"Point","coordinates":[-1.67980908258144,47.2662524329902]}},{"type":"Feature","properties":{"title":"Tennis Country Club","Catégorie":"Tennis","Statut":null,"Adresse":"Voie Non Dénommée 0471861","Code postal":44220,"Commune":"COUERON","Téléphone":"02 40 86 40 90","Site Internet":"cours-tennis-club.countryclubnantais.fr","icon":"default"},"geometry":{"type":"Point","coordinates":[-1.70438066734281,47.2445883438036]}},{"type":"Feature","properties":{"title":"Centre équestre Poney-Club","Catégorie":"Centre sportif","Statut":null,"Adresse":"RD 101","Code postal":44220,"Commune":"COUERON","Téléphone":null,"Site Internet":null,"icon":"default"},"geometry":{"type":"Point","coordinates":[-1.70455122124794,47.2460107847443]}},{"type":"Feature","properties":{"title":"Boulodrome","Catégorie":"Autre équipement","Statut":null,"Adresse":"Rue de la Noë Allais","Code postal":44220,"Commune":"COUERON","Téléphone":null,"Site Internet":"www.ville-coueron.fr","icon":"default"},"geometry":{"type":"Point","coordinates":[-1.68393059268241,47.2193163005765]}},{"type":"Feature","properties":{"title":"Tennis","Catégorie":"Tennis","Statut":null,"Adresse":"Rue Marcel de la Provoté","Code postal":44220,"Commune":"COUERON","Téléphone":null,"Site Internet":null,"icon":"default"},"geometry":{"type":"Point","coordinates":[-1.73813547120881,47.2117152639444]}},{"type":"Feature","properties":{"title":"Stade René Gaudin","Catégorie":"Stade","Statut":null,"Adresse":"Boulevard Francois Blancho","Code postal":44220,"Commune":"COUERON","Téléphone":"02 40 86 70 52","Site Internet":"www.ville-coueron.fr","icon":"default"},"geometry":{"type":"Point","coordinates":[-1.73688201873656,47.2124692994787]}},{"type":"Feature","properties":{"title":"Skatepark Romain Douillard","Catégorie":"Autre équipement","Statut":null,"Adresse":"Rue Marcel de la Provoté","Code postal":44220,"Commune":"COUERON","Téléphone":"02 40 38 32 11","Site Internet":"www.ville-coueron.fr","icon":"default"},"geometry":{"type":"Point","coordinates":[-1.73831246720018,47.212189124209]}},{"type":"Feature","properties":{"title":"City Stade","Catégorie":"Espace Sportif de Proximité","Statut":null,"Adresse":"Rue du Premier Mai","Code postal":44220,"Commune":"COUERON","Téléphone":null,"Site Internet":"www.ville-coueron.fr","icon":"default"},"geometry":{"type":"Point","coordinates":[-1.68346476489689,47.2140442390179]}},{"type":"Feature","properties":{"title":"Gymnase Eersel","Catégorie":"Gymnase","Statut":null,"Adresse":"Rue du Moulin Boisseau","Code postal":44470,"Commune":"CARQUEFOU","Téléphone":null,"Site Internet":"www.carquefou.fr","icon":"default"},"geometry":{"type":"Point","coordinates":[-1.4830005017521,47.2855739091227]}},{"type":"Feature","properties":{"title":"Piste de bicross","Catégorie":"Autre équipement","Statut":null,"Adresse":"Rue Victor Hugo","Code postal":44470,"Commune":"CARQUEFOU","Téléphone":null,"Site Internet":"www.carquefou.fr","icon":"default"},"geometry":{"type":"Point","coordinates":[-1.48138210872558,47.2814486517006]}},{"type":"Feature","properties":{"title":"Terrain de Pétanque","Catégorie":"Autre équipement","Statut":null,"Adresse":"Rue Victor Hugo","Code postal":44470,"Commune":"CARQUEFOU","Téléphone":null,"Site Internet":"www.carquefou.fr","icon":"default"},"geometry":{"type":"Point","coordinates":[-1.48128079092291,47.2822277108609]}},{"type":"Feature","properties":{"title":"Tennis","Catégorie":"Tennis","Statut":null,"Adresse":"Rue du Moulin Boisseau","Code postal":44470,"Commune":"CARQUEFOU","Téléphone":null,"Site Internet":"www.carquefou.fr","icon":"default"},"geometry":{"type":"Point","coordinates":[-1.48341346932704,47.2844351822684]}},{"type":"Feature","properties":{"title":"Stand de Tir","Catégorie":"Autre équipement","Statut":null,"Adresse":"Chemin des Pâtureaux","Code postal":44470,"Commune":"CARQUEFOU","Téléphone":null,"Site Internet":"www.carquefou.fr","icon":"default"},"geometry":{"type":"Point","coordinates":[-1.47070687781425,47.3182432264806]}},{"type":"Feature","properties":{"title":"Sport Nautique de l'Ouest","Catégorie":"Centre sportif","Statut":null,"Adresse":"17 Chemin de Port Breton","Code postal":44470,"Commune":"CARQUEFOU","Téléphone":"02 40 50 81 51","Site Internet":"www.snonantes.com","icon":"default"},"geometry":{"type":"Point","coordinates":[-1.52641524899551,47.3014057422845]}},{"type":"Feature","properties":{"title":"Color'ado","Catégorie":"Autre équipement","Statut":null,"Adresse":"Rue Pierre Mendes France","Code postal":44470,"Commune":"CARQUEFOU","Téléphone":null,"Site Internet":"www.carquefou.fr","icon":"default"},"geometry":{"type":"Point","coordinates":[-1.49269654987027,47.3029252594488]}},{"type":"Feature","properties":{"title":"Gymnase Pré-Gauchet","Catégorie":"Gymnase","Statut":null,"Adresse":"13 Rue Nina Simone","Code postal":44000,"Commune":"NANTES","Téléphone":null,"Site Internet":"www.nantes.fr","icon":"default"},"geometry":{"type":"Point","coordinates":[-1.53530393844997,47.2171288108494]}},{"type":"Feature","properties":{"title":"Boulodrome","Catégorie":"Autre équipement","Statut":null,"Adresse":"Chemin des Garettes","Code postal":44700,"Commune":"ORVAULT","Téléphone":null,"Site Internet":null,"icon":"default"},"geometry":{"type":"Point","coordinates":[-1.62505307890939,47.27434615242]}},{"type":"Feature","properties":{"title":"Tennis Frébaudière","Catégorie":"Tennis","Statut":null,"Adresse":"Chemin des Garettes","Code postal":44700,"Commune":"ORVAULT","Téléphone":null,"Site Internet":null,"icon":"default"},"geometry":{"type":"Point","coordinates":[-1.62560460051723,47.2744022434315]}},{"type":"Feature","properties":{"title":"Skatepark","Catégorie":"Autre équipement","Statut":null,"Adresse":"Chemin des Garettes","Code postal":44700,"Commune":"ORVAULT","Téléphone":null,"Site Internet":null,"icon":"default"},"geometry":{"type":"Point","coordinates":[-1.62611737840092,47.2744176896823]}},{"type":"Feature","properties":{"title":"Bike-Park","Catégorie":"Autre équipement","Statut":null,"Adresse":"4 Chemin de Gagné","Code postal":44700,"Commune":"ORVAULT","Téléphone":null,"Site Internet":"www.orvault.fr","icon":"default"},"geometry":{"type":"Point","coordinates":[-1.62959729620603,47.2818757473023]}},{"type":"Feature","properties":{"title":"Boulodrome","Catégorie":"Autre équipement","Statut":null,"Adresse":"48 Avenue Alexandre Goupil","Code postal":44700,"Commune":"ORVAULT","Téléphone":null,"Site Internet":null,"icon":"default"},"geometry":{"type":"Point","coordinates":[-1.5983966005253,47.2540770172418]}},{"type":"Feature","properties":{"title":"Skatepark","Catégorie":"Autre équipement","Statut":null,"Adresse":"Avenue de Beauregard","Code postal":44240,"Commune":"LA-CHAPELLE-SUR-ERDRE","Téléphone":null,"Site Internet":"www.lachapellesurerdre.fr","icon":"default"},"geometry":{"type":"Point","coordinates":[-1.55578638712424,47.2960789946463]}},{"type":"Feature","properties":{"title":"Piste d'athlétisme","Catégorie":"Stade","Statut":null,"Adresse":"Rue Louis Maisonneuve","Code postal":44240,"Commune":"LA-CHAPELLE-SUR-ERDRE","Téléphone":null,"Site Internet":null,"icon":"default"},"geometry":{"type":"Point","coordinates":[-1.55717877351555,47.2981980314539]}},{"type":"Feature","properties":{"title":"Boulodrome de Massigné","Catégorie":"Autre équipement","Statut":null,"Adresse":"Rue Louis Maisonneuve","Code postal":44240,"Commune":"LA-CHAPELLE-SUR-ERDRE","Téléphone":null,"Site Internet":null,"icon":"default"},"geometry":{"type":"Point","coordinates":[-1.55900172096383,47.2991404935532]}},{"type":"Feature","properties":{"title":"Courts de Tennis du Gesvres","Catégorie":"Tennis","Statut":null,"Adresse":"Boulevard du Gesvres","Code postal":44240,"Commune":"LA-CHAPELLE-SUR-ERDRE","Téléphone":null,"Site Internet":"www.lachapellesurerdre.fr","icon":"default"},"geometry":{"type":"Point","coordinates":[-1.55164077434728,47.2672520042777]}},{"type":"Feature","properties":{"title":"Terrain multisports de Gesvres","Catégorie":"Autre équipement","Statut":null,"Adresse":"Boulevard du Gesvres","Code postal":44240,"Commune":"LA-CHAPELLE-SUR-ERDRE","Téléphone":null,"Site Internet":"www.lachapellesurerdre.fr","icon":"default"},"geometry":{"type":"Point","coordinates":[-1.55129377312182,47.2669945793363]}},{"type":"Feature","properties":{"title":"Plateau sportif Gesvres","Catégorie":"Stade","Statut":null,"Adresse":"Boulevard du Gesvres","Code postal":44240,"Commune":"LA-CHAPELLE-SUR-ERDRE","Téléphone":null,"Site Internet":"www.lachapellesurerdre.fr","icon":"default"},"geometry":{"type":"Point","coordinates":[-1.5510211970947,47.2668362406531]}},{"type":"Feature","properties":{"title":"Poney-club de Port-Barbe","Catégorie":"Centre sportif","Statut":null,"Adresse":"Route de la Jonelière","Code postal":44240,"Commune":"LA-CHAPELLE-SUR-ERDRE","Téléphone":"02 40 72 89 32","Site Internet":"www.accoordnantes.info","icon":"default"},"geometry":{"type":"Point","coordinates":[-1.54243680963377,47.2647855333542]}},{"type":"Feature","properties":{"title":"Swing-Golf de Port-Barbe","Catégorie":"Centre sportif","Statut":null,"Adresse":"Route de la Jonelière","Code postal":44240,"Commune":"LA-CHAPELLE-SUR-ERDRE","Téléphone":null,"Site Internet":"www.accoordnantes.info","icon":"default"},"geometry":{"type":"Point","coordinates":[-1.54072241592381,47.2635553088015]}},{"type":"Feature","properties":{"title":"Halle des Sports de Mazaire","Catégorie":"Gymnase","Statut":null,"Adresse":"Rue de la Hautière","Code postal":44240,"Commune":"LA-CHAPELLE-SUR-ERDRE","Téléphone":"02 51 81 87 22","Site Internet":"www.lachapellesurerdre.fr","icon":"default"},"geometry":{"type":"Point","coordinates":[-1.55784797877258,47.2963662110068]}},{"type":"Feature","properties":{"title":"Salle de Gymnastique Jacques Canzillon","Catégorie":"Gymnase","Statut":null,"Adresse":"Rue de la Hautière","Code postal":44240,"Commune":"LA-CHAPELLE-SUR-ERDRE","Téléphone":"02 51 81 87 22","Site Internet":"www.lachapellesurerdre.fr","icon":"default"},"geometry":{"type":"Point","coordinates":[-1.55853957466216,47.2966402742367]}},{"type":"Feature","properties":{"title":"Salles Duruy et Petipa","Catégorie":"Autre équipement","Statut":null,"Adresse":"Rue Pablo Neruda","Code postal":44340,"Commune":"BOUGUENAIS","Téléphone":"02 40 26 95 34","Site Internet":"www.ville-bouguenais.fr","icon":"default"},"geometry":{"type":"Point","coordinates":[-1.62176824826453,47.1710656961929]}},{"type":"Feature","properties":{"title":"Salle des Samouraïs","Catégorie":"Autre équipement","Statut":null,"Adresse":"Rue Pablo Neruda","Code postal":44340,"Commune":"BOUGUENAIS","Téléphone":"02 40 26 95 34","Site Internet":"www.ville-bouguenais.fr","icon":"default"},"geometry":{"type":"Point","coordinates":[-1.62186477405135,47.1713225991909]}},{"type":"Feature","properties":{"title":"Complexe sportif de la Neustrie","Catégorie":"Centre sportif","Statut":null,"Adresse":"Chemin de la Neustrie","Code postal":44340,"Commune":"BOUGUENAIS","Téléphone":null,"Site Internet":"www.ville-bouguenais.fr","icon":"default"},"geometry":{"type":"Point","coordinates":[-1.59176000805947,47.1762824412455]}},{"type":"Feature","properties":{"title":"Skatepark","Catégorie":"Autre équipement","Statut":null,"Adresse":null,"Code postal":44340,"Commune":null,"Téléphone":null,"Site Internet":"www.ville-bouguenais.fr","icon":"default"},"geometry":{"type":"Point","coordinates":[-1.62429652739744,47.173403266949]}},{"type":"Feature","properties":{"title":"Complexe sportif de la Croix-Jeannette","Catégorie":"Centre sportif","Statut":null,"Adresse":"Rue Pablo Neruda","Code postal":44340,"Commune":"BOUGUENAIS","Téléphone":null,"Site Internet":"www.ville-bouguenais.fr","icon":"default"},"geometry":{"type":"Point","coordinates":[-1.62199440933209,47.1715985404301]}},{"type":"Feature","properties":{"title":"Terrain de boules de Beauvoir","Catégorie":"Autre équipement","Statut":null,"Adresse":"Rue de Beauvoir","Code postal":44340,"Commune":"BOUGUENAIS","Téléphone":null,"Site Internet":"www.ville-bouguenais.fr","icon":"default"},"geometry":{"type":"Point","coordinates":[-1.62643250012879,47.1791113975866]}},{"type":"Feature","properties":{"title":"Terrain multisports de la Pierre Blanche","Catégorie":"Autre équipement","Statut":null,"Adresse":"Rue du Carrousel","Code postal":44340,"Commune":"BOUGUENAIS","Téléphone":null,"Site Internet":"www.ville-bouguenais.fr","icon":"default"},"geometry":{"type":"Point","coordinates":[-1.62536528312159,47.1667816209015]}},{"type":"Feature","properties":{"title":"Skatepark","Catégorie":"Autre équipement","Statut":null,"Adresse":"Allée de la Communauté Rurale de Ballou","Code postal":44340,"Commune":"BOUGUENAIS","Téléphone":null,"Site Internet":"www.ville-bouguenais.fr","icon":"default"},"geometry":{"type":"Point","coordinates":[-1.6298593988431,47.1778083499968]}},{"type":"Feature","properties":{"title":"Espace René Cassin - salle Gilles de la Bourdonnaye","Catégorie":"Gymnase","Statut":null,"Adresse":"Rue de la Jouardais","Code postal":44640,"Commune":"LE-PELLERIN","Téléphone":null,"Site Internet":"www.ville-lepellerin.fr","icon":"default"},"geometry":{"type":"Point","coordinates":[-1.76211029913759,47.1942539117923]}},{"type":"Feature","properties":{"title":"Espace René Cassin - salle Cécile Nowak","Catégorie":"Gymnase","Statut":null,"Adresse":"Rue de la Jouardais","Code postal":44640,"Commune":"LE-PELLERIN","Téléphone":null,"Site Internet":"www.ville-lepellerin.fr","icon":"default"},"geometry":{"type":"Point","coordinates":[-1.76175348369782,47.1941796772969]}},{"type":"Feature","properties":{"title":"Terrain de basket","Catégorie":"Autre équipement","Statut":null,"Adresse":"Rue de la Jouardais","Code postal":44640,"Commune":"LE-PELLERIN","Téléphone":null,"Site Internet":"www.ville-lepellerin.fr","icon":"default"},"geometry":{"type":"Point","coordinates":[-1.75847864387058,47.1959542284627]}},{"type":"Feature","properties":{"title":"Terrain Multisports","Catégorie":"Autre équipement","Statut":null,"Adresse":"Rue de la Jouardais","Code postal":44640,"Commune":"LE-PELLERIN","Téléphone":null,"Site Internet":"www.ville-lepellerin.fr","icon":"default"},"geometry":{"type":"Point","coordinates":[-1.75819683229684,47.1958049825886]}},{"type":"Feature","properties":{"title":"Amicale Laïque du Pellerin Tir Sportif","Catégorie":"Autre équipement","Statut":null,"Adresse":"2 Rue de la Paix","Code postal":44640,"Commune":"LE-PELLERIN","Téléphone":null,"Site Internet":"www.ville-lepellerin.fr","icon":"default"},"geometry":{"type":"Point","coordinates":[-1.75902876489526,47.200727477551]}},{"type":"Feature","properties":{"title":"Skatepark","Catégorie":"Autre équipement","Statut":null,"Adresse":"Quai du Docteur Provost","Code postal":44640,"Commune":"LE-PELLERIN","Téléphone":null,"Site Internet":"www.ville-lepellerin.fr","icon":"default"},"geometry":{"type":"Point","coordinates":[-1.75010863427358,47.2019454287438]}},{"type":"Feature","properties":{"title":"Terrain multisports","Catégorie":"Espace Sportif de Proximité","Statut":null,"Adresse":"Boulevard des Pas Enchantés","Code postal":44230,"Commune":"ST-SEBASTIEN","Téléphone":null,"Site Internet":null,"icon":"default"},"geometry":{"type":"Point","coordinates":[-1.51306868442501,47.2103948934432]}},{"type":"Feature","properties":{"title":"Courts de Tennis","Catégorie":"Tennis","Statut":null,"Adresse":"Rue des Saulzais","Code postal":44470,"Commune":"MAUVES-SUR-LOIRE","Téléphone":null,"Site Internet":null,"icon":"default"},"geometry":{"type":"Point","coordinates":[-1.39092544393487,47.2934626531311]}},{"type":"Feature","properties":{"title":"Gymnase CCS Saint Félix","Catégorie":"Gymnase","Statut":"Et. scolaire privé","Adresse":"7 Rue Saint Jean Baptiste de la Salle","Code postal":44000,"Commune":"NANTES","Téléphone":"02 40 74 61 45","Site Internet":null,"icon":"default"},"geometry":{"type":"Point","coordinates":[-1.56137948105567,47.2325398279629]}},{"type":"Feature","properties":{"title":"Stade Marcel Saupin","Catégorie":"Stade","Statut":"Ville de Nantes","Adresse":"31 Quai Malakoff","Code postal":44000,"Commune":"NANTES","Téléphone":"02 40 47 69 68","Site Internet":null,"icon":"default"},"geometry":{"type":"Point","coordinates":[-1.53864710450033,47.2128111349278]}},{"type":"Feature","properties":{"title":"Stade de la Beaujoire Louis Fonteneau","Catégorie":"Stade","Statut":"Ville de Nantes","Adresse":"330 Route de Saint Joseph","Code postal":44300,"Commune":"NANTES","Téléphone":"02 40 30 11 22","Site Internet":null,"icon":"default"},"geometry":{"type":"Point","coordinates":[-1.52470397906934,47.2560188243375]}},{"type":"Feature","properties":{"title":"Plaine de Jeux Colinière","Catégorie":"Plaine de jeux","Statut":"Ville de Nantes","Adresse":"121 Rue du Landreau","Code postal":44300,"Commune":"NANTES","Téléphone":"02 40 50 02 62","Site Internet":null,"icon":"default"},"geometry":{"type":"Point","coordinates":[-1.50912108377823,47.235680359333]}},{"type":"Feature","properties":{"title":"Plaine de Jeux Basses Landes","Catégorie":"Plaine de jeux","Statut":"Ville de Nantes","Adresse":"6 Chemin de la Justice","Code postal":44300,"Commune":"NANTES","Téléphone":"02 40 76 08 22","Site Internet":null,"icon":"default"},"geometry":{"type":"Point","coordinates":[-1.58761947508981,47.2676862436873]}},{"type":"Feature","properties":{"title":"Vélodrome Stade Petit Breton","Catégorie":"Stade","Statut":"Ville de Nantes","Adresse":"14 Rue de la Durantière","Code postal":44100,"Commune":"NANTES","Téléphone":"02 40 46 48 19","Site Internet":null,"icon":"default"},"geometry":{"type":"Point","coordinates":[-1.60046869676866,47.2138786486921]}},{"type":"Feature","properties":{"title":"Plaine de Jeux Durantière","Catégorie":"Plaine de jeux","Statut":"Ville de Nantes","Adresse":"11 Rue de la Durantière","Code postal":44100,"Commune":"NANTES","Téléphone":"02 40 46 92 87","Site Internet":null,"icon":"default"},"geometry":{"type":"Point","coordinates":[-1.60037031182162,47.2117738156213]}},{"type":"Feature","properties":{"title":"Piscine du Petit Port","Catégorie":"Piscine","Statut":"Ville de Nantes","Adresse":"Boulevard du Petit Port","Code postal":44300,"Commune":"NANTES","Téléphone":"02 51 84 94 50","Site Internet":"www.nge-nantes.fr","icon":"default"},"geometry":{"type":"Point","coordinates":[-1.55446089756306,47.2428434218458]}},{"type":"Feature","properties":{"title":"Piscine Durantière","Catégorie":"Piscine","Statut":"Ville de Nantes","Adresse":"11 Rue de la Durantière","Code postal":44100,"Commune":"NANTES","Téléphone":"02 40 58 24 90","Site Internet":null,"icon":"default"},"geometry":{"type":"Point","coordinates":[-1.59872468497865,47.212756571105]}},{"type":"Feature","properties":{"title":"Piscine Dervallières","Catégorie":"Piscine","Statut":"Ville de Nantes","Adresse":"21 Rue Professeur Dubuisson","Code postal":44100,"Commune":"NANTES","Téléphone":"02 40 40 57 74","Site Internet":null,"icon":"default"},"geometry":{"type":"Point","coordinates":[-1.59218618244518,47.2275397157953]}},{"type":"Feature","properties":{"title":"Piscine Léo Lagrange Ile Gloriette","Catégorie":"Piscine","Statut":"Ville de Nantes","Adresse":"Rue Deurbroucq","Code postal":44000,"Commune":"NANTES","Téléphone":"02 40 99 26 50","Site Internet":null,"icon":"default"},"geometry":{"type":"Point","coordinates":[-1.56006613543103,47.2098578332065]}},{"type":"Feature","properties":{"title":"Club Léo Lagranfe Nantes Aviron","Catégorie":"Centre sportif","Statut":"Ville de Nantes","Adresse":"9 Chemin de Belle Ile","Code postal":44300,"Commune":"NANTES","Téléphone":"02 40 93 07 59","Site Internet":"www.aviron-nantes-cll.com","icon":"default"},"geometry":{"type":"Point","coordinates":[-1.54388993682305,47.2457334512595]}},{"type":"Feature","properties":{"title":"Golf Nantes Erdre","Catégorie":"Autre équipement","Statut":"Ville de Nantes","Adresse":"90 Avenue du Bout des Landes","Code postal":44300,"Commune":"NANTES","Téléphone":"02 40 59 21 21","Site Internet":null,"icon":"default"},"geometry":{"type":"Point","coordinates":[-1.57977559307076,47.2692656930341]}},{"type":"Feature","properties":{"title":"Base d'Aviron Universitaire","Catégorie":"Centre sportif","Statut":"Etat","Adresse":"2 Chemin de la Houssinière","Code postal":44300,"Commune":"NANTES","Téléphone":"02 51 12 58 81","Site Internet":"www.avironfrance.asso.fr","icon":"default"},"geometry":{"type":"Point","coordinates":[-1.55129581053572,47.2365563818049]}},{"type":"Feature","properties":{"title":"Plaine de Jeux de la Beaujoire","Catégorie":"Plaine de jeux","Statut":"Ville de Nantes","Adresse":null,"Code postal":44300,"Commune":null,"Téléphone":"02 40 30 30 85","Site Internet":null,"icon":"default"},"geometry":{"type":"Point","coordinates":[-1.53194549265442,47.2635497653568]}},{"type":"Feature","properties":{"title":"Stade La Halvêque","Catégorie":"Stade","Statut":"Ville de Nantes","Adresse":"23 Rue Léon Serpollet","Code postal":44300,"Commune":"NANTES","Téléphone":null,"Site Internet":null,"icon":"default"},"geometry":{"type":"Point","coordinates":[-1.5186951525008,47.2538292977411]}},{"type":"Feature","properties":{"title":"Stade Joseph Geoffroy La Saint-Pierre","Catégorie":"Stade","Statut":"Privé","Adresse":"25 Rue du Port Boyer","Code postal":44300,"Commune":"NANTES","Téléphone":null,"Site Internet":null,"icon":"default"},"geometry":{"type":"Point","coordinates":[-1.53322853170605,47.2394743300945]}},{"type":"Feature","properties":{"title":"Stade Batignolles","Catégorie":"Stade","Statut":"Privé","Adresse":"20 Rue de Koufra","Code postal":44300,"Commune":"NANTES","Téléphone":null,"Site Internet":null,"icon":"default"},"geometry":{"type":"Point","coordinates":[-1.527166617003,47.2455707001361]}},{"type":"Feature","properties":{"title":"Stade de l'Institut la Papotière","Catégorie":"Stade","Statut":"Et. scolaire privé","Adresse":"56 Rue de la Papotière","Code postal":44300,"Commune":"NANTES","Téléphone":null,"Site Internet":null,"icon":"default"},"geometry":{"type":"Point","coordinates":[-1.49501795862794,47.2388744677726]}},{"type":"Feature","properties":{"title":"Plateau Sportif du Port Boyer","Catégorie":"Plaine de jeux","Statut":"Ville de Nantes","Adresse":"73 Rue du Port Boyer","Code postal":44300,"Commune":"NANTES","Téléphone":null,"Site Internet":null,"icon":"default"},"geometry":{"type":"Point","coordinates":[-1.5382437472223,47.239566753449]}},{"type":"Feature","properties":{"title":"Stade Annexe Louis Fonteneau","Catégorie":"Stade","Statut":"Ville de Nantes","Adresse":"330 Route de Saint Joseph","Code postal":44300,"Commune":"NANTES","Téléphone":"02 40 30 11 22","Site Internet":null,"icon":"default"},"geometry":{"type":"Point","coordinates":[-1.52284092753319,47.2575049256793]}},{"type":"Feature","properties":{"title":"Espace de Proximité La Grande Noue","Catégorie":"Stade","Statut":"Ville de Nantes","Adresse":"10 Rue de la Bottière","Code postal":44300,"Commune":"NANTES","Téléphone":null,"Site Internet":null,"icon":"default"},"geometry":{"type":"Point","coordinates":[-1.52203929092366,47.2368726881607]}},{"type":"Feature","properties":{"title":"Stade Caserne Quartier Mellinet","Catégorie":"Stade","Statut":"Etat","Adresse":"4 Place du 51ième RA","Code postal":44000,"Commune":"NANTES","Téléphone":null,"Site Internet":null,"icon":"default"},"geometry":{"type":"Point","coordinates":[-1.53947196044704,47.227779950368]}},{"type":"Feature","properties":{"title":"Stade Gendarmerie Mobile","Catégorie":"Stade","Statut":"Etat","Adresse":"4 Rue d'Allonville","Code postal":44000,"Commune":"NANTES","Téléphone":null,"Site Internet":null,"icon":"default"},"geometry":{"type":"Point","coordinates":[-1.53461190449211,47.2240896402131]}},{"type":"Feature","properties":{"title":"Stade Racing Athlétic Club Cheminots","Catégorie":"Stade","Statut":"Privé","Adresse":"8 Avenue Enklays","Code postal":44300,"Commune":"NANTES","Téléphone":null,"Site Internet":null,"icon":"default"},"geometry":{"type":"Point","coordinates":[-1.49807801672287,47.2336750987808]}},{"type":"Feature","properties":{"title":"Espace Sportif de Proximité du Clos Toreau","Catégorie":"Stade","Statut":"Ville de Nantes","Adresse":"3 Rue d'Hasparren","Code postal":44200,"Commune":"NANTES","Téléphone":null,"Site Internet":null,"icon":"default"},"geometry":{"type":"Point","coordinates":[-1.52649869561317,47.1958427694973]}},{"type":"Feature","properties":{"title":"Stade de la Gilarderie","Catégorie":"Stade","Statut":"Ville de Nantes","Adresse":"115 Rue de la Gilarderie","Code postal":44200,"Commune":"NANTES","Téléphone":null,"Site Internet":null,"icon":"default"},"geometry":{"type":"Point","coordinates":[-1.5216741682041,47.1883637645113]}},{"type":"Feature","properties":{"title":"Plaine de Jeux des Bourdonnières","Catégorie":"Plaine de jeux","Statut":"Région","Adresse":"6 Rue de la Perrière","Code postal":44200,"Commune":"NANTES","Téléphone":"02 40 34 02 60","Site Internet":"http://lyc-bourdonnieres-44.ac-nantes.fr/site/Accueil.html","icon":"default"},"geometry":{"type":"Point","coordinates":[-1.51960027094327,47.1848018764143]}},{"type":"Feature","properties":{"title":"Gymnase ENITIA","Catégorie":"Gymnase","Statut":"Etat","Adresse":"64 Rue de la Geraudiere","Code postal":44300,"Commune":"NANTES","Téléphone":null,"Site Internet":null,"icon":"default"},"geometry":{"type":"Point","coordinates":[-1.56475369357076,47.265295034229]}},{"type":"Feature","properties":{"title":"Stade Lycée La Chauvinière","Catégorie":"Stade","Statut":"Région","Adresse":"2 Rue de la Fantaisie","Code postal":44300,"Commune":"NANTES","Téléphone":"02 40 76 50 22","Site Internet":null,"icon":"default"},"geometry":{"type":"Point","coordinates":[-1.57272183211182,47.2528460550251]}},{"type":"Feature","properties":{"title":"Plaine de Jeux du Petit Port","Catégorie":"Plaine de jeux","Statut":"Ville de Nantes","Adresse":"2 Boulevard des Tribunes","Code postal":44300,"Commune":"NANTES","Téléphone":"02 40 76 24 54","Site Internet":null,"icon":"default"},"geometry":{"type":"Point","coordinates":[-1.56425119081402,47.2487969793589]}},{"type":"Feature","properties":{"title":"Stade Launay Violette","Catégorie":"Stade","Statut":"Etat","Adresse":"Impasse Charles Chassin","Code postal":44300,"Commune":"NANTES","Téléphone":null,"Site Internet":null,"icon":"default"},"geometry":{"type":"Point","coordinates":[-1.55734123748702,47.2490898325466]}},{"type":"Feature","properties":{"title":"Stade Ecole Centrale","Catégorie":"Stade","Statut":"Etat","Adresse":"32 Route de la Jonelière","Code postal":44300,"Commune":"NANTES","Téléphone":null,"Site Internet":null,"icon":"default"},"geometry":{"type":"Point","coordinates":[-1.54656830645655,47.2500622500176]}},{"type":"Feature","properties":{"title":"Stade Lycée Saint Stanislas","Catégorie":"Stade","Statut":"Et. scolaire privé","Adresse":"2 Rue Saint Stanislas","Code postal":44000,"Commune":"NANTES","Téléphone":null,"Site Internet":null,"icon":"default"},"geometry":{"type":"Point","coordinates":[-1.55716309906843,47.2241931200579]}},{"type":"Feature","properties":{"title":"Stade Procé","Catégorie":"Stade","Statut":"Ville de Nantes","Adresse":"13 Boulevard Clovis Constant","Code postal":44000,"Commune":"NANTES","Téléphone":"02 40 76 85 58","Site Internet":null,"icon":"default"},"geometry":{"type":"Point","coordinates":[-1.57960754014384,47.2245648578804]}},{"type":"Feature","properties":{"title":"Stade Annexe de Procé","Catégorie":"Stade","Statut":"Ville de Nantes","Adresse":"Rue des Dervallières","Code postal":44100,"Commune":"NANTES","Téléphone":null,"Site Internet":null,"icon":"default"},"geometry":{"type":"Point","coordinates":[-1.5798631559538,47.2218250939351]}},{"type":"Feature","properties":{"title":"Plaine de Jeux Bernardière","Catégorie":"Plaine de jeux","Statut":"Ville de Nantes","Adresse":"Rue de la Fontaine Salée","Code postal":44100,"Commune":"NANTES","Téléphone":"02 40 46 35 64","Site Internet":null,"icon":"default"},"geometry":{"type":"Point","coordinates":[-1.61578032556758,47.2022635523877]}},{"type":"Feature","properties":{"title":"Stade Bois de la Musse Espérance St-Yves","Catégorie":"Stade","Statut":"Privé","Adresse":"9 Rue Marange Sylvange","Code postal":44100,"Commune":"NANTES","Téléphone":null,"Site Internet":null,"icon":"default"},"geometry":{"type":"Point","coordinates":[-1.61194218184324,47.2016418613322]}},{"type":"Feature","properties":{"title":"Plaine de Jeux Lycée Albert Camus","Catégorie":"Plaine de jeux","Statut":"Ville de Nantes","Adresse":"2 Rue du Bois de la Musse","Code postal":44100,"Commune":"NANTES","Téléphone":null,"Site Internet":null,"icon":"default"},"geometry":{"type":"Point","coordinates":[-1.61000448546101,47.203030129374]}},{"type":"Feature","properties":{"title":"Stade La Mellinet-Audrain","Catégorie":"Stade","Statut":"Privé","Adresse":"57 Rue de la Marzelle de Grillaud","Code postal":44100,"Commune":"NANTES","Téléphone":"02 40 46 99 11","Site Internet":null,"icon":"default"},"geometry":{"type":"Point","coordinates":[-1.59233703828921,47.2202754799175]}},{"type":"Feature","properties":{"title":"Stade Lycée Carcouët","Catégorie":"Stade","Statut":"Région","Adresse":"115 Boulevard du Massacre","Code postal":44100,"Commune":"NANTES","Téléphone":null,"Site Internet":null,"icon":"default"},"geometry":{"type":"Point","coordinates":[-1.59273541081586,47.2294568688571]}},{"type":"Feature","properties":{"title":"Plaine de Jeux des Dervallières","Catégorie":"Plaine de jeux","Statut":"Ville de Nantes","Adresse":"19 Rue Jean Marc Nattier","Code postal":44100,"Commune":"NANTES","Téléphone":"02 40 46 13 04","Site Internet":null,"icon":"default"},"geometry":{"type":"Point","coordinates":[-1.59173381084188,47.2258733469599]}},{"type":"Feature","properties":{"title":"Stade Pascal-Laporte","Catégorie":"Stade","Statut":"Ville de Nantes","Adresse":"74 Boulevard des Anglais","Code postal":44100,"Commune":"NANTES","Téléphone":"02 40 76 94 63","Site Internet":"www.stadenantais-rugby.com","icon":"default"},"geometry":{"type":"Point","coordinates":[-1.58189404120653,47.2293146065473]}},{"type":"Feature","properties":{"title":"Stade Lycée Externat des Enfants Nantais","Catégorie":"Stade","Statut":"Privé","Adresse":"31 Avenue Camus","Code postal":44000,"Commune":"NANTES","Téléphone":null,"Site Internet":null,"icon":"default"},"geometry":{"type":"Point","coordinates":[-1.57321007071901,47.2170884875442]}},{"type":"Feature","properties":{"title":"Gymnase du Club Athlétic Nantais","Catégorie":"Gymnase","Statut":"Privé","Adresse":"20 Rue Ampère","Code postal":44100,"Commune":"NANTES","Téléphone":null,"Site Internet":null,"icon":"default"},"geometry":{"type":"Point","coordinates":[-1.58463937662557,47.2121674917616]}},{"type":"Feature","properties":{"title":"Gymnase Agenêts","Catégorie":"Gymnase","Statut":"Ville de Nantes","Adresse":"30 Rue du Casterneau","Code postal":44000,"Commune":"NANTES","Téléphone":"02 40 49 96 32","Site Internet":null,"icon":"default"},"geometry":{"type":"Point","coordinates":[-1.53111131447497,47.2272167095547]}},{"type":"Feature","properties":{"title":"Gymnase Chantenay","Catégorie":"Gymnase","Statut":"Ville de Nantes","Adresse":"7 Rue de la Croix","Code postal":44100,"Commune":"NANTES","Téléphone":"02 51 80 73 53","Site Internet":null,"icon":"default"},"geometry":{"type":"Point","coordinates":[-1.59478761421589,47.1986446498102]}},{"type":"Feature","properties":{"title":"Gymnase du Collège Talence","Catégorie":"Gymnase","Statut":"Département","Adresse":"122 Boulevard Robert Schuman","Code postal":44300,"Commune":"NANTES","Téléphone":"02 40 76 73 79","Site Internet":null,"icon":"default"},"geometry":{"type":"Point","coordinates":[-1.57014614761606,47.2402951470831]}},{"type":"Feature","properties":{"title":"Piscine Jules Verne Haluchère","Catégorie":"Piscine","Statut":"Ville de Nantes","Adresse":"41 Rue Jules Grandjouan","Code postal":44300,"Commune":"NANTES","Téléphone":"02 51 89 16 20","Site Internet":null,"icon":"default"},"geometry":{"type":"Point","coordinates":[-1.51718485734589,47.2481805318152]}},{"type":"Feature","properties":{"title":"Stade Jean Jacques Audubon","Catégorie":"Stade","Statut":"Ville de Nantes","Adresse":"45 Rue Jean Jacques Audubon","Code postal":44300,"Commune":"NANTES","Téléphone":"02 40 52 24 94","Site Internet":null,"icon":"default"},"geometry":{"type":"Point","coordinates":[-1.50438306254425,47.2401710295351]}},{"type":"Feature","properties":{"title":"Plaine de Jeux Jonelière","Catégorie":"Plaine de jeux","Statut":null,"Adresse":"Route de la Jonelière","Code postal":44240,"Commune":"LA-CHAPELLE-SUR-ERDRE","Téléphone":"02 40 29 01 60","Site Internet":"www.lachapellesurerdre.fr","icon":"default"},"geometry":{"type":"Point","coordinates":[-1.54361455419714,47.2614441001634]}},{"type":"Feature","properties":{"title":"Plaine de Jeux de la Mainguais","Catégorie":"Plaine de jeux","Statut":null,"Adresse":"Rue de la Mainguais","Code postal":44470,"Commune":"CARQUEFOU","Téléphone":"02 40 30 01 11","Site Internet":"www.carquefou.fr","icon":"default"},"geometry":{"type":"Point","coordinates":[-1.49038565539999,47.2795087823725]}},{"type":"Feature","properties":{"title":"Plaine de Jeux l'Eraudière","Catégorie":"Plaine de jeux","Statut":"Ville de Nantes","Adresse":"11 Rue du Stade de la Noue","Code postal":44300,"Commune":"NANTES","Téléphone":"02 40 52 32 63","Site Internet":null,"icon":"default"},"geometry":{"type":"Point","coordinates":[-1.53534434965587,47.2479389858742]}},{"type":"Feature","properties":{"title":"Equipement Sportif de Proximité La Halvêque","Catégorie":"Plaine de jeux","Statut":"Ville de Nantes","Adresse":"23 Rue Léon Serpollet","Code postal":44300,"Commune":"NANTES","Téléphone":null,"Site Internet":null,"icon":"default"},"geometry":{"type":"Point","coordinates":[-1.51918435758604,47.2544314236596]}},{"type":"Feature","properties":{"title":"Plaine de Jeux Marrière","Catégorie":"Plaine de jeux","Statut":"Ville de Nantes","Adresse":"95 Rue de la Marrière","Code postal":44300,"Commune":"NANTES","Téléphone":"02 40 49 98 61","Site Internet":null,"icon":"default"},"geometry":{"type":"Point","coordinates":[-1.52871415356151,47.2366966931512]}},{"type":"Feature","properties":{"title":"Plaine de Jeux Sévres","Catégorie":"Plaine de jeux","Statut":"Ville de Nantes","Adresse":"Rue de l'Olivraie","Code postal":44200,"Commune":"NANTES","Téléphone":"02 40 03 00 71","Site Internet":null,"icon":"default"},"geometry":{"type":"Point","coordinates":[-1.53165351828126,47.1846104468124]}},{"type":"Feature","properties":{"title":"Plaines de jeux Gaston Turpin","Catégorie":"Plaine de jeux","Statut":"Ville de Nantes","Adresse":"33 Rue Gaston Turpin","Code postal":44000,"Commune":"NANTES","Téléphone":"02 40 29 23 23","Site Internet":null,"icon":"default"},"geometry":{"type":"Point","coordinates":[-1.54071562690763,47.2243971830527]}},{"type":"Feature","properties":{"title":"Stade de la Gilarderie","Catégorie":"Plaine de jeux","Statut":"Ville de Nantes","Adresse":"115 Rue de la Gilarderie","Code postal":44200,"Commune":"NANTES","Téléphone":"02 40 34 05 82","Site Internet":null,"icon":"default"},"geometry":{"type":"Point","coordinates":[-1.52090854220605,47.1883016759169]}},{"type":"Feature","properties":{"title":"Stade Etoile du Cens","Catégorie":"Stade","Statut":"Privé","Adresse":"24 Route de la Chapelle Sur Erdre","Code postal":44300,"Commune":"NANTES","Téléphone":"02 40 40 95 09","Site Internet":null,"icon":"default"},"geometry":{"type":"Point","coordinates":[-1.5747452777234,47.255501567701]}},{"type":"Feature","properties":{"title":"Stade l'Amande","Catégorie":"Stade","Statut":"Ville de Nantes","Adresse":"112 Route de la Chapelle Sur Erdre","Code postal":44300,"Commune":"NANTES","Téléphone":"02 40 40 46 27","Site Internet":null,"icon":"default"},"geometry":{"type":"Point","coordinates":[-1.57333713309748,47.2624908425566]}},{"type":"Feature","properties":{"title":"Stade Michel Lecointre Beaulieu","Catégorie":"Stade","Statut":"Ville de Nantes","Adresse":"2 Boulevard Alexandre Millerand","Code postal":44200,"Commune":"NANTES","Téléphone":"02 40 47 86 59","Site Internet":null,"icon":"default"},"geometry":{"type":"Point","coordinates":[-1.53281900853191,47.209675350334]}},{"type":"Feature","properties":{"title":"Stade Pin Sec","Catégorie":"Stade","Statut":"Ville de Nantes","Adresse":"19 Rue Pierre Bouguer","Code postal":44300,"Commune":"NANTES","Téléphone":"02 40 93 80 91","Site Internet":null,"icon":"default"},"geometry":{"type":"Point","coordinates":[-1.5201696337809,47.242648370723]}},{"type":"Feature","properties":{"title":"Cercle d'Aviron de Nantes","Catégorie":"Centre sportif","Statut":"Ville de Nantes","Adresse":"20 Rue d'Alsace","Code postal":44000,"Commune":"NANTES","Téléphone":"02 40 50 67 45","Site Internet":"perso.wanadoo.fr/c.a.n.","icon":"default"},"geometry":{"type":"Point","coordinates":[-1.5472936544112,47.233981218756]}},{"type":"Feature","properties":{"title":"Base Nautique de la Jonelière","Catégorie":"Autre équipement","Statut":"Ville de Nantes","Adresse":"Route de la Jonelière","Code postal":44240,"Commune":"LA-CHAPELLE-SUR-ERDRE","Téléphone":"02 40 74 66 14","Site Internet":null,"icon":"default"},"geometry":{"type":"Point","coordinates":[-1.53949512370314,47.2579812899213]}},{"type":"Feature","properties":{"title":"Plaine de Jeux Grand Blottereau","Catégorie":"Plaine de jeux","Statut":"Ville de Nantes","Adresse":"Boulevard Auguste Péneau","Code postal":44300,"Commune":"NANTES","Téléphone":"02 40 49 46 07","Site Internet":null,"icon":"default"},"geometry":{"type":"Point","coordinates":[-1.50964696317175,47.2254406712455]}},{"type":"Feature","properties":{"title":"Stade de la Roche","Catégorie":"Stade","Statut":"Ville de Nantes","Adresse":"10 Rue de la Révolution des Oeillets","Code postal":44000,"Commune":"NANTES","Téléphone":"02 40 49 71 33","Site Internet":null,"icon":"default"},"geometry":{"type":"Point","coordinates":[-1.51974622474479,47.2192670171279]}},{"type":"Feature","properties":{"title":"Patinoire Olympique du Petit Port","Catégorie":"Autre équipement","Statut":"Ville de Nantes","Adresse":"Boulevard du Petit Port","Code postal":44300,"Commune":"NANTES","Téléphone":"02 40 74 01 77","Site Internet":"www.nge-nantes.fr","icon":"default"},"geometry":{"type":"Point","coordinates":[-1.55555103389616,47.2427860997913]}},{"type":"Feature","properties":{"title":"Plaine de Jeux Géraudière Santos Dumont","Catégorie":"Plaine de jeux","Statut":"Ville de Nantes","Adresse":"Rue Santos Dumont","Code postal":44300,"Commune":"NANTES","Téléphone":"02 40 76 13 37","Site Internet":null,"icon":"default"},"geometry":{"type":"Point","coordinates":[-1.56830718801559,47.2602210081761]}},{"type":"Feature","properties":{"title":"Hippodrome du Petit Port","Catégorie":"Autre équipement","Statut":"Ville de Nantes","Adresse":"2 Boulevard des Tribunes","Code postal":44300,"Commune":"NANTES","Téléphone":"02 40 74 19 71","Site Internet":null,"icon":"default"},"geometry":{"type":"Point","coordinates":[-1.56333539227739,47.2466573177489]}},{"type":"Feature","properties":{"title":"Stade des Dervallières","Catégorie":"Stade","Statut":"Ville de Nantes","Adresse":"19 Rue Jean Marc Nattier","Code postal":44100,"Commune":"NANTES","Téléphone":"02 40 46 13 04","Site Internet":null,"icon":"default"},"geometry":{"type":"Point","coordinates":[-1.59259941569142,47.2264093976016]}},{"type":"Feature","properties":{"title":"Gymnase du Lycée Jules Verne","Catégorie":"Gymnase","Statut":"Région","Adresse":"1 Rue Général Meusnier","Code postal":44000,"Commune":"NANTES","Téléphone":"02 40 71 67 91","Site Internet":null,"icon":"default"},"geometry":{"type":"Point","coordinates":[-1.56014646634258,47.2168599240609]}},{"type":"Feature","properties":{"title":"Stade du RACC","Catégorie":"Stade","Statut":"Privé","Adresse":"11 Rue de la Rivière","Code postal":44300,"Commune":"NANTES","Téléphone":"02 40 59 29 16","Site Internet":null,"icon":"default"},"geometry":{"type":"Point","coordinates":[-1.49998703586133,47.2328638801984]}},{"type":"Feature","properties":{"title":"Gymnase RACC","Catégorie":"Gymnase","Statut":"Privé","Adresse":"11 Rue de la Rivière","Code postal":44300,"Commune":"NANTES","Téléphone":"02 40 59 29 16","Site Internet":null,"icon":"default"},"geometry":{"type":"Point","coordinates":[-1.50037475669311,47.2319442062122]}},{"type":"Feature","properties":{"title":"Gymnase Jean Baptiste Legeay Lycée Notre Dame Abbaye","Catégorie":"Gymnase","Statut":"Et. scolaire privé","Adresse":"10 Rue du Bois","Code postal":44100,"Commune":"NANTES","Téléphone":null,"Site Internet":null,"icon":"default"},"geometry":{"type":"Point","coordinates":[-1.59627596256308,47.2014997244337]}},{"type":"Feature","properties":{"title":"Stade Mangin Beaulieu","Catégorie":"Stade","Statut":"Ville de Nantes","Adresse":"10 Rue Louis Joxe","Code postal":44200,"Commune":"NANTES","Téléphone":"02 51 72 43 00","Site Internet":null,"icon":"default"},"geometry":{"type":"Point","coordinates":[-1.54100881728214,47.2050515534856]}},{"type":"Feature","properties":{"title":"Circuits Rustiques d'Activités Plein Air - Blottereau","Catégorie":"Circuit de plein air","Statut":"Ville de Nantes","Adresse":"Boulevard Auguste Péneau","Code postal":44300,"Commune":"NANTES","Téléphone":null,"Site Internet":null,"icon":"default"},"geometry":{"type":"Point","coordinates":[-1.50832779324241,47.2265801386961]}},{"type":"Feature","properties":{"title":"Circuits Rustiques d'Activités Plein Air - Ile de Nantes","Catégorie":"Circuit de plein air","Statut":"Ville de Nantes","Adresse":"Square de la Délivrance","Code postal":44200,"Commune":"NANTES","Téléphone":null,"Site Internet":null,"icon":"default"},"geometry":{"type":"Point","coordinates":[-1.52150502548345,47.2113755422845]}},{"type":"Feature","properties":{"title":"Plateau Sportif Bourgeonnière","Catégorie":"Plaine de jeux","Statut":"Ville de Nantes","Adresse":"52 Rue de la Bourgeonnière","Code postal":44300,"Commune":"NANTES","Téléphone":"02-40-40-04-19","Site Internet":null,"icon":"default"},"geometry":{"type":"Point","coordinates":[-1.55463899444773,47.2532293711017]}},{"type":"Feature","properties":{"title":"Base Nautique Port Durand S.N.S.M.","Catégorie":"Centre sportif","Statut":"Privé","Adresse":"65 Rue du Port Durand","Code postal":44300,"Commune":"NANTES","Téléphone":"02-40-50-66-02","Site Internet":null,"icon":"default"},"geometry":{"type":"Point","coordinates":[-1.53821896419221,47.2525033773486]}},{"type":"Feature","properties":{"title":"Centre Sportif José Arribas","Catégorie":"Centre sportif","Statut":"Ville de Nantes","Adresse":"Route de la Jonelière","Code postal":44240,"Commune":"LA-CHAPELLE-SUR-ERDRE","Téléphone":"08 20 04 30 44","Site Internet":"www.fcnantes.com","icon":"default"},"geometry":{"type":"Point","coordinates":[-1.54147665589036,47.2606723385847]}},{"type":"Feature","properties":{"title":"Gymnase Amicale Don Bosco","Catégorie":"Gymnase","Statut":"Privé","Adresse":"Chemin de Bonneville","Code postal":44300,"Commune":"NANTES","Téléphone":"02 40 93 87 42","Site Internet":null,"icon":"default"},"geometry":{"type":"Point","coordinates":[-1.53648614689791,47.2460838309883]}},{"type":"Feature","properties":{"title":"Centre Sportif l'Angevinière","Catégorie":"Centre sportif","Statut":"Public","Adresse":"Avenue de l'Angevinière","Code postal":44800,"Commune":"ST-HERBLAIN","Téléphone":"02 40 63 56 74","Site Internet":null,"icon":"default"},"geometry":{"type":"Point","coordinates":[-1.6104271047501,47.2464490890555]}},{"type":"Feature","properties":{"title":"Centre Sportif Hérault","Catégorie":"Centre sportif","Statut":"Public","Adresse":"Avenue Alain Gerbault","Code postal":44800,"Commune":"ST-HERBLAIN","Téléphone":"02 40 30 86 53","Site Internet":"assoc.wanadoo.fr/oms.saint.herblain","icon":"default"},"geometry":{"type":"Point","coordinates":[-1.60101864011967,47.2354958443207]}},{"type":"Feature","properties":{"title":"Gymnase Joli Mai","Catégorie":"Centre sportif","Statut":null,"Adresse":"66 Avenue de Cheverny","Code postal":44800,"Commune":"ST-HERBLAIN","Téléphone":null,"Site Internet":"www.saint-herblain.fr","icon":"default"},"geometry":{"type":"Point","coordinates":[-1.6008832939483,47.242707413865]}},{"type":"Feature","properties":{"title":"Stade Calvaires","Catégorie":"Stade","Statut":"Public","Adresse":"Rue des Calvaires","Code postal":44800,"Commune":"ST-HERBLAIN","Téléphone":"02 40 85 36 56","Site Internet":"asso.wanadoo.fr/oms.saint.herblain","icon":"default"},"geometry":{"type":"Point","coordinates":[-1.64989325221638,47.2150249072251]}},{"type":"Feature","properties":{"title":"Gymnase Bernardière","Catégorie":"Gymnase","Statut":"Public","Adresse":"Rue de Dijon","Code postal":44800,"Commune":"ST-HERBLAIN","Téléphone":"02 40 46 12 63","Site Internet":"asso.wanadoo.fr/oms.saint.herblain","icon":"default"},"geometry":{"type":"Point","coordinates":[-1.61601637936851,47.2063233654695]}},{"type":"Feature","properties":{"title":"Espace Multisport Ernest Renan","Catégorie":"Plaine de jeux","Statut":"Public","Adresse":"1 Rue de Saint Servan","Code postal":44800,"Commune":"ST-HERBLAIN","Téléphone":"02 40 58 17 12","Site Internet":"www.saint-herblain.fr","icon":"default"},"geometry":{"type":"Point","coordinates":[-1.61251401027904,47.2150709214297]}},{"type":"Feature","properties":{"title":"Piscine Ernest Renan","Catégorie":"Piscine","Statut":"Public","Adresse":"1 Rue de Saint Servan","Code postal":44800,"Commune":"ST-HERBLAIN","Téléphone":"02 40 58 17 12","Site Internet":"asso.wanadoo.fr/oms.saint.herblain","icon":"default"},"geometry":{"type":"Point","coordinates":[-1.61358066544455,47.2154198758843]}},{"type":"Feature","properties":{"title":"Gymnase Sensive","Catégorie":"Gymnase","Statut":"Public","Adresse":"21 Rue de Bordeaux","Code postal":44800,"Commune":"ST-HERBLAIN","Téléphone":"02 40 43 86 27","Site Internet":"www.saint-herblain.fr","icon":"default"},"geometry":{"type":"Point","coordinates":[-1.61225062129551,47.2106536618271]}},{"type":"Feature","properties":{"title":"Centre Sportif du Vigneau","Catégorie":"Centre sportif","Statut":"Public","Adresse":"Boulevard Salvador Allende","Code postal":44800,"Commune":"ST-HERBLAIN","Téléphone":"02 40 92 06 57","Site Internet":"asso.wanadoo.fr/oms.saint.herblain","icon":"default"},"geometry":{"type":"Point","coordinates":[-1.62123984404811,47.2178119949744]}},{"type":"Feature","properties":{"title":"Gymnase du Bourg","Catégorie":"Gymnase","Statut":"Public","Adresse":"1 Avenue des Sports","Code postal":44800,"Commune":"ST-HERBLAIN","Téléphone":"02 40 85 06 70","Site Internet":"www.saint-herblain.fr","icon":"default"},"geometry":{"type":"Point","coordinates":[-1.65323604713288,47.210746403379]}},{"type":"Feature","properties":{"title":"Centre Sportif Bourgonnière","Catégorie":"Centre sportif","Statut":"Public","Adresse":"Allée de la Bourgonnière","Code postal":44800,"Commune":"ST-HERBLAIN","Téléphone":"02 40 86 37 92","Site Internet":"www.saint-herblain.fr","icon":"default"},"geometry":{"type":"Point","coordinates":[-1.6571274599777,47.2063892297918]}},{"type":"Feature","properties":{"title":"Piscine Bourgonnière","Catégorie":"Piscine","Statut":"Public","Adresse":"34 Allée de la Bourgonnière","Code postal":44800,"Commune":"ST-HERBLAIN","Téléphone":"02 40 38 05 04","Site Internet":"www.saint-herblain.fr","icon":"default"},"geometry":{"type":"Point","coordinates":[-1.65637188755936,47.2072160783397]}},{"type":"Feature","properties":{"title":"Gymnase Changetterie","Catégorie":"Gymnase","Statut":"Public","Adresse":"15B Rue Théophile Guillou","Code postal":44800,"Commune":"ST-HERBLAIN","Téléphone":"02 40 86 78 07","Site Internet":"www.saint-herblain.fr","icon":"default"},"geometry":{"type":"Point","coordinates":[-1.65111526089458,47.2151682764468]}},{"type":"Feature","properties":{"title":"Complexe Sportif Roger-Piccaud","Catégorie":"Centre sportif","Statut":"Public","Adresse":"108B Avenue Claude Antoine Peccot","Code postal":44700,"Commune":"ORVAULT","Téléphone":"02 40 63 30 40","Site Internet":"www.orvault.fr","icon":"default"},"geometry":{"type":"Point","coordinates":[-1.61007776864608,47.2518860610327]}},{"type":"Feature","properties":{"title":"Stade du Verger","Catégorie":"Stade","Statut":"Public","Adresse":"5 Rue du Stade","Code postal":44700,"Commune":"ORVAULT","Téléphone":"02 40 76 01 50","Site Internet":"www.orvault.fr","icon":"default"},"geometry":{"type":"Point","coordinates":[-1.59134696816738,47.2500435216439]}},{"type":"Feature","properties":{"title":"Gymnase Emile Gibier","Catégorie":"Gymnase","Statut":"Public","Adresse":"8 Rue des Pins","Code postal":44700,"Commune":"ORVAULT","Téléphone":"02 40 63 18 85","Site Internet":null,"icon":"default"},"geometry":{"type":"Point","coordinates":[-1.59552405590642,47.2542766664819]}},{"type":"Feature","properties":{"title":"Complexe de la Ferrière","Catégorie":"Gymnase","Statut":"Public","Adresse":"6 Avenue de la Jeunesse","Code postal":44700,"Commune":"ORVAULT","Téléphone":"02 40 76 15 06","Site Internet":"www.orvault.fr","icon":"default"},"geometry":{"type":"Point","coordinates":[-1.59197970160573,47.246157821333]}},{"type":"Feature","properties":{"title":"Gymnase Le Bois Raguenet","Catégorie":"Gymnase","Statut":"Public","Adresse":"10 Rue des Porteurs d'Eau","Code postal":44700,"Commune":"ORVAULT","Téléphone":"02 40 63 75 74","Site Internet":null,"icon":"default"},"geometry":{"type":"Point","coordinates":[-1.5961971384645,47.2703607676064]}},{"type":"Feature","properties":{"title":"Stade de la Bugallière","Catégorie":"Stade","Statut":"Public","Adresse":"21 Avenue de la Bugallière","Code postal":44700,"Commune":"ORVAULT","Téléphone":"02 40 63 54 85","Site Internet":null,"icon":"default"},"geometry":{"type":"Point","coordinates":[-1.63172618061595,47.2600781293576]}},{"type":"Feature","properties":{"title":"Gymnase de La Bugallière","Catégorie":"Gymnase","Statut":"Public","Adresse":"12 Rue du Pont Marchand","Code postal":44700,"Commune":"ORVAULT","Téléphone":"02 40 63 44 64","Site Internet":null,"icon":"default"},"geometry":{"type":"Point","coordinates":[-1.63172494291619,47.2621189108854]}},{"type":"Feature","properties":{"title":"Complexe Sportif de la Frebaudière","Catégorie":"Centre sportif","Statut":"Public","Adresse":"22 Rue du Raffuneau","Code postal":44700,"Commune":"ORVAULT","Téléphone":null,"Site Internet":"www.orvault.fr","icon":"default"},"geometry":{"type":"Point","coordinates":[-1.62556794708885,47.273645200158]}},{"type":"Feature","properties":{"title":"Stade de Gagné","Catégorie":"Stade","Statut":"Public","Adresse":"Chemin de Bazoges","Code postal":44700,"Commune":"ORVAULT","Téléphone":"02 40 63 50 96","Site Internet":"www.orvault.fr","icon":"default"},"geometry":{"type":"Point","coordinates":[-1.62970765071141,47.2831792345893]}},{"type":"Feature","properties":{"title":"Gymnase Ouche Quinet","Catégorie":"Gymnase","Statut":"Public","Adresse":"Rue de l'Ouche Quinet","Code postal":44230,"Commune":"ST-SEBASTIEN","Téléphone":"02 40 03 40 26","Site Internet":null,"icon":"default"},"geometry":{"type":"Point","coordinates":[-1.49992018806,47.1926587852741]}},{"type":"Feature","properties":{"title":"Piscine Municipale Saint Sébastien","Catégorie":"Piscine","Statut":"Public","Adresse":"Rue de l'Ouche Quinet","Code postal":44230,"Commune":"ST-SEBASTIEN","Téléphone":"02 40 34 49 29","Site Internet":null,"icon":"default"},"geometry":{"type":"Point","coordinates":[-1.49970523891112,47.1935183241597]}},{"type":"Feature","properties":{"title":"Gymnase du Petit Anjou","Catégorie":"Gymnase","Statut":"Public","Adresse":"Rue du Petit Anjou","Code postal":44230,"Commune":"ST-SEBASTIEN","Téléphone":"02 40 80 52 44","Site Internet":null,"icon":"default"},"geometry":{"type":"Point","coordinates":[-1.5017449964624,47.2067361689816]}},{"type":"Feature","properties":{"title":"Gymnase Profondine","Catégorie":"Gymnase","Statut":"Public","Adresse":"Rue de l'Allée Verte","Code postal":44230,"Commune":"ST-SEBASTIEN","Téléphone":"02 40 03 40 22","Site Internet":null,"icon":"default"},"geometry":{"type":"Point","coordinates":[-1.4890329841085,47.19593068403]}},{"type":"Feature","properties":{"title":"Gymnase Savarières","Catégorie":"Gymnase","Statut":"Public","Adresse":"Avenue de Glinde","Code postal":44230,"Commune":"ST-SEBASTIEN","Téléphone":"02 40 80 52 45","Site Internet":null,"icon":"default"},"geometry":{"type":"Point","coordinates":[-1.48756395474289,47.2094370352284]}},{"type":"Feature","properties":{"title":"Complexe Sportif de La Martellière","Catégorie":"Centre sportif","Statut":"Public","Adresse":"Avenue de la Martellière","Code postal":44230,"Commune":"ST-SEBASTIEN","Téléphone":"02 40 33 20 55","Site Internet":null,"icon":"default"},"geometry":{"type":"Point","coordinates":[-1.52683675403684,47.198080590439]}},{"type":"Feature","properties":{"title":"Stade de la Profondine","Catégorie":"Stade","Statut":"Public","Adresse":"Rue des Gripôts","Code postal":44230,"Commune":"ST-SEBASTIEN","Téléphone":"02 40 34 42 77","Site Internet":null,"icon":"default"},"geometry":{"type":"Point","coordinates":[-1.48786168522172,47.1947852992256]}},{"type":"Feature","properties":{"title":"Stade des Gripots","Catégorie":"Stade","Statut":null,"Adresse":"Rue des Plantes","Code postal":44230,"Commune":"ST-SEBASTIEN","Téléphone":"02 40 03 44 25","Site Internet":null,"icon":"default"},"geometry":{"type":"Point","coordinates":[-1.48352237987671,47.1945884331847]}},{"type":"Feature","properties":{"title":"Gymnase du Douet","Catégorie":"Gymnase","Statut":"Public","Adresse":"10 Rue Edouard Hervé","Code postal":44230,"Commune":"ST-SEBASTIEN","Téléphone":"02 40 03 40 23","Site Internet":null,"icon":"default"},"geometry":{"type":"Point","coordinates":[-1.52081100676749,47.1914129715111]}},{"type":"Feature","properties":{"title":"Plaine de Jeux  Orvasserie","Catégorie":"Plaine de jeux","Statut":"Public","Adresse":"Rue Konrad Adenauer","Code postal":44800,"Commune":"ST-HERBLAIN","Téléphone":"02 40 46 77 79","Site Internet":"www.saint-herblain.fr","icon":"default"},"geometry":{"type":"Point","coordinates":[-1.63378543692181,47.2054570138992]}},{"type":"Feature","properties":{"title":"Les Écuries du Clos - Village du cheval","Catégorie":"Centre sportif","Statut":"Privé","Adresse":"Rue des Champs de Bougon","Code postal":44340,"Commune":"BOUGUENAIS","Téléphone":"02 40 32 09 27","Site Internet":"www.ecuriesduclos.com/","icon":"default"},"geometry":{"type":"Point","coordinates":[-1.62918182822166,47.1670391904977]}},{"type":"Feature","properties":{"title":"Piscine Municipale Bouguenais","Catégorie":"Piscine","Statut":"Public","Adresse":"Rue Pablo Neruda","Code postal":44340,"Commune":"BOUGUENAIS","Téléphone":"02 51 70 60 70","Site Internet":null,"icon":"default"},"geometry":{"type":"Point","coordinates":[-1.62129629865885,47.171742960848]}},{"type":"Feature","properties":{"title":"Stade Football Félix Guyot","Catégorie":"Stade","Statut":"Public","Adresse":"Rue du Stade","Code postal":44610,"Commune":"INDRE","Téléphone":"02 40 86 73 18","Site Internet":null,"icon":"default"},"geometry":{"type":"Point","coordinates":[-1.67079315636277,47.2012865194815]}},{"type":"Feature","properties":{"title":"Practice de golf","Catégorie":"Autre équipement","Statut":"Public","Adresse":"Boulevard des Pas Enchantés","Code postal":44230,"Commune":"ST-SEBASTIEN","Téléphone":"02 40 80 54 57","Site Internet":"www.saintsebastien.fr","icon":"default"},"geometry":{"type":"Point","coordinates":[-1.49257395344305,47.2131721364892]}},{"type":"Feature","properties":{"title":"Centre Equestre Ile Pinette","Catégorie":"Centre sportif","Statut":"Public","Adresse":"Boulevard des Pas Enchantés","Code postal":44230,"Commune":"ST-SEBASTIEN","Téléphone":"02 40 80 54 57","Site Internet":"www.saintsebastien.fr","icon":"default"},"geometry":{"type":"Point","coordinates":[-1.50685768063897,47.2111885912061]}},{"type":"Feature","properties":{"title":"Stade René Massé","Catégorie":"Stade","Statut":"Public","Adresse":"Boulevard des Pas Enchantés","Code postal":44230,"Commune":"ST-SEBASTIEN","Téléphone":null,"Site Internet":null,"icon":"default"},"geometry":{"type":"Point","coordinates":[-1.50056167624582,47.2113704422294]}},{"type":"Feature","properties":{"title":"Stade Maurice Thollé","Catégorie":"Stade","Statut":"Public","Adresse":"Boulevard des Pas Enchantés","Code postal":44230,"Commune":"ST-SEBASTIEN","Téléphone":null,"Site Internet":null,"icon":"default"},"geometry":{"type":"Point","coordinates":[-1.50375232534838,47.2112714740649]}},{"type":"Feature","properties":{"title":"Circuits Rustiques d'Activites Plein Air des Gripots","Catégorie":"Circuit de plein air","Statut":"Public","Adresse":"Rue des Plantes","Code postal":44230,"Commune":"ST-SEBASTIEN","Téléphone":null,"Site Internet":null,"icon":"default"},"geometry":{"type":"Point","coordinates":[-1.48516777776613,47.1937733642716]}},{"type":"Feature","properties":{"title":"Circuits Rustiques d'Activites en Plein Air de l'Ile Forget","Catégorie":"Circuit de plein air","Statut":"Public","Adresse":"Boulevard des Pas Enchantés","Code postal":44230,"Commune":"ST-SEBASTIEN","Téléphone":null,"Site Internet":"www.saintsebastien.fr","icon":"default"},"geometry":{"type":"Point","coordinates":[-1.51241128658423,47.2112280735376]}},{"type":"Feature","properties":{"title":"Stade de la Ligue Atlantique de Football","Catégorie":"Stade","Statut":"Public","Adresse":"Boulevard des Pas Enchantés","Code postal":44230,"Commune":"ST-SEBASTIEN","Téléphone":null,"Site Internet":null,"icon":"default"},"geometry":{"type":"Point","coordinates":[-1.49576482435283,47.2126800728297]}},{"type":"Feature","properties":{"title":"Stade de la Croix Jeannette","Catégorie":"Stade","Statut":"Public","Adresse":"Rue Pablo Neruda","Code postal":44340,"Commune":"BOUGUENAIS","Téléphone":null,"Site Internet":null,"icon":"default"},"geometry":{"type":"Point","coordinates":[-1.62282816376482,47.1724561976818]}},{"type":"Feature","properties":{"title":"Circuits Rustiques d'Activites Plein Air de la Ville au Denis","Catégorie":"Circuit de plein air","Statut":"Public","Adresse":"Allée des Soupirs","Code postal":44340,"Commune":"BOUGUENAIS","Téléphone":null,"Site Internet":null,"icon":"default"},"geometry":{"type":"Point","coordinates":[-1.62397991744768,47.1580198405419]}},{"type":"Feature","properties":{"title":"Salle du Fougan-de-Mer","Catégorie":"Gymnase","Statut":"Public","Adresse":"Rue du Commandant Charcot","Code postal":44340,"Commune":"BOUGUENAIS","Téléphone":"02 40 65 10 65","Site Internet":"www.ville-bouguenais.fr","icon":"default"},"geometry":{"type":"Point","coordinates":[-1.57897799892288,47.1832239739524]}},{"type":"Feature","properties":{"title":"Stade de Beauvoir","Catégorie":"Stade","Statut":"Public","Adresse":"Chemin du Halage","Code postal":44340,"Commune":"BOUGUENAIS","Téléphone":"02 40 65 06 14","Site Internet":"www.ville-bouguenais.fr","icon":"default"},"geometry":{"type":"Point","coordinates":[-1.63094055940366,47.1813384628233]}},{"type":"Feature","properties":{"title":"Stade des Landes","Catégorie":"Stade","Statut":"Public","Adresse":"Rue Jean Baptiste Clément","Code postal":44340,"Commune":"BOUGUENAIS","Téléphone":"02 40 04 13 33","Site Internet":"www.ville-bouguenais.fr","icon":"default"},"geometry":{"type":"Point","coordinates":[-1.58662907238535,47.1756170441002]}},{"type":"Feature","properties":{"title":"Plateau d'évolution Cité de Beauvoir","Catégorie":"Autre équipement","Statut":"Public","Adresse":"Rue Jacques Demy","Code postal":44340,"Commune":"BOUGUENAIS","Téléphone":null,"Site Internet":"www.ville-bouguenais.fr","icon":"default"},"geometry":{"type":"Point","coordinates":[-1.62828964796547,47.1790041615066]}},{"type":"Feature","properties":{"title":"Centre Sportif du Val de Chézine","Catégorie":"Centre sportif","Statut":"Public","Adresse":"Rue du Zambèze","Code postal":44800,"Commune":"ST-HERBLAIN","Téléphone":null,"Site Internet":null,"icon":"default"},"geometry":{"type":"Point","coordinates":[-1.61838202891687,47.2409048062182]}},{"type":"Feature","properties":{"title":"Plaine de Jeux La Bergerie","Catégorie":"Plaine de jeux","Statut":"Public","Adresse":"Chemin de la Vannerie","Code postal":44800,"Commune":"ST-HERBLAIN","Téléphone":null,"Site Internet":null,"icon":"default"},"geometry":{"type":"Point","coordinates":[-1.63338638581862,47.238694249991]}},{"type":"Feature","properties":{"title":"Gymnase Haute-Indre","Catégorie":"Gymnase","Statut":"Public","Adresse":"Rue Jean Baptiste Rabillard","Code postal":44610,"Commune":"INDRE","Téléphone":null,"Site Internet":null,"icon":"default"},"geometry":{"type":"Point","coordinates":[-1.6478993182919,47.1951295237465]}},{"type":"Feature","properties":{"title":"Golf Miniature","Catégorie":"Autre équipement","Statut":"Public","Adresse":"Quai Victor Boquien","Code postal":44610,"Commune":"INDRE","Téléphone":null,"Site Internet":null,"icon":"default"},"geometry":{"type":"Point","coordinates":[-1.67143790880919,47.1969507666815]}},{"type":"Feature","properties":{"title":"Gymnase Basse-Indre","Catégorie":"Gymnase","Statut":"Public","Adresse":"7 Rue de la Gare","Code postal":44610,"Commune":"INDRE","Téléphone":null,"Site Internet":null,"icon":"default"},"geometry":{"type":"Point","coordinates":[-1.66931281917631,47.2008208726484]}},{"type":"Feature","properties":{"title":"Gymnase Gigant","Catégorie":"Gymnase","Statut":"Ville de Nantes","Adresse":"3 Place Beaumanoir","Code postal":44100,"Commune":"NANTES","Téléphone":"02 40 69 70 98","Site Internet":"www.nantes.fr","icon":"default"},"geometry":{"type":"Point","coordinates":[-1.5710414266968,47.2130697383576]}},{"type":"Feature","properties":{"title":"Complexe Sportif de Saint Joseph de Porterie","Catégorie":"Centre sportif","Statut":"Ville de Nantes","Adresse":"507 Route de Saint Joseph","Code postal":44300,"Commune":"NANTES","Téléphone":"02 40 25 12 50","Site Internet":null,"icon":"default"},"geometry":{"type":"Point","coordinates":[-1.51830834178211,47.2720906363171]}},{"type":"Feature","properties":{"title":"Complexe Sportif Noë Lambert","Catégorie":"Centre sportif","Statut":"Ville de Nantes","Adresse":"42 Boulevard des Poilus","Code postal":44300,"Commune":"NANTES","Téléphone":"02 40 41 57 15","Site Internet":"nantes.fr","icon":"default"},"geometry":{"type":"Point","coordinates":[-1.52715800803948,47.2308000633039]}},{"type":"Feature","properties":{"title":"Parc d'Attractions des Naudières","Catégorie":"Autre équipement","Statut":null,"Adresse":"VC 10","Code postal":44880,"Commune":"SAUTRON","Téléphone":"02 40 63 21 05","Site Internet":null,"icon":"default"},"geometry":{"type":"Point","coordinates":[-1.69670558494988,47.2682760901519]}},{"type":"Feature","properties":{"title":"Stade Julien Micheau","Catégorie":"Stade","Statut":null,"Adresse":"Rue du Bois Joli","Code postal":44830,"Commune":"BRAINS","Téléphone":null,"Site Internet":null,"icon":"default"},"geometry":{"type":"Point","coordinates":[-1.7255254070564,47.1728202523257]}},{"type":"Feature","properties":{"title":"Gymnase Brains","Catégorie":"Gymnase","Statut":null,"Adresse":"Rue des Prés","Code postal":44830,"Commune":"BRAINS","Téléphone":null,"Site Internet":null,"icon":"default"},"geometry":{"type":"Point","coordinates":[-1.72210655961521,47.1683199340313]}},{"type":"Feature","properties":{"title":"Port Jean","Catégorie":"Centre sportif","Statut":null,"Adresse":"Route de Port Jean","Code postal":44470,"Commune":"CARQUEFOU","Téléphone":"02 40 50 85 29","Site Internet":"www.carquefou.fr","icon":"default"},"geometry":{"type":"Point","coordinates":[-1.52400721179044,47.3031531081619]}},{"type":"Feature","properties":{"title":"Centre Sportif du Moulin Boiseau","Catégorie":"Centre sportif","Statut":null,"Adresse":"Rue du Moulin Boisseau","Code postal":44470,"Commune":"CARQUEFOU","Téléphone":"02 40 68 49 25","Site Internet":"www.carquefou.fr","icon":"default"},"geometry":{"type":"Point","coordinates":[-1.48185667004875,47.2843363833325]}},{"type":"Feature","properties":{"title":"Centre sportif Jean Gauvrit","Catégorie":"Centre sportif","Statut":null,"Adresse":"8 Rue Louis Armand","Code postal":44470,"Commune":"CARQUEFOU","Téléphone":"02 40 50 92 56","Site Internet":"www.carquefou.fr","icon":"default"},"geometry":{"type":"Point","coordinates":[-1.4874311720501,47.295826083548]}},{"type":"Feature","properties":{"title":"Piscine municipale Daniel Gilard","Catégorie":"Piscine","Statut":null,"Adresse":"10 Rue Pierre Mendes France","Code postal":44470,"Commune":"CARQUEFOU","Téléphone":"02 28 22 21 20","Site Internet":"www.carquefou.fr","icon":"default"},"geometry":{"type":"Point","coordinates":[-1.49260361219881,47.3024911797028]}},{"type":"Feature","properties":{"title":"Complexe sportif de la Tournière","Catégorie":"Centre sportif","Statut":null,"Adresse":"Chemin des Pâtureaux","Code postal":44470,"Commune":"CARQUEFOU","Téléphone":"02 40 93 74 36","Site Internet":"www.carquefou.fr","icon":"default"},"geometry":{"type":"Point","coordinates":[-1.46999264876481,47.3185834225673]}},{"type":"Feature","properties":{"title":"Stade de la Frémondière","Catégorie":"Stade","Statut":null,"Adresse":"Rue de la Frémondière","Code postal":44220,"Commune":"COUERON","Téléphone":"02 40 85 46 60","Site Internet":"www.ville-coueron.fr","icon":"default"},"geometry":{"type":"Point","coordinates":[-1.71708554407837,47.2104870142114]}},{"type":"Feature","properties":{"title":"Stade Donatien et Suzanne Hauray","Catégorie":"Stade","Statut":null,"Adresse":"Rue de la Frémondière","Code postal":44220,"Commune":"COUERON","Téléphone":"02 40 38 00 57","Site Internet":"www.ville-coueron.fr","icon":"default"},"geometry":{"type":"Point","coordinates":[-1.71946117169609,47.2120419396265]}},{"type":"Feature","properties":{"title":"Centre Sportif Paul Langevin","Catégorie":"Centre sportif","Statut":null,"Adresse":"Boulevard Paul Langevin","Code postal":44220,"Commune":"COUERON","Téléphone":"02 40 85 46 60","Site Internet":"www.ville-coueron.fr","icon":"default"},"geometry":{"type":"Point","coordinates":[-1.72000040792451,47.2144055961146]}},{"type":"Feature","properties":{"title":"Piscine Baptiste Lefèvre","Catégorie":"Piscine","Statut":null,"Adresse":"Boulevard Paul Langevin","Code postal":44220,"Commune":"COUERON","Téléphone":"02 40 86 02 72","Site Internet":"www.ville-coueron.fr","icon":"default"},"geometry":{"type":"Point","coordinates":[-1.72039299775916,47.2138643756754]}},{"type":"Feature","properties":{"title":"Complexe Sportif Léo-Lagrange","Catégorie":"Centre sportif","Statut":null,"Adresse":"Rue de la Noë Allais","Code postal":44220,"Commune":"COUERON","Téléphone":"02 40 85 46 60","Site Internet":"www.mairie-coueron.fr","icon":"default"},"geometry":{"type":"Point","coordinates":[-1.68423886292367,47.2207410736832]}},{"type":"Feature","properties":{"title":"Bowling EuroBowl","Catégorie":"Autre équipement","Statut":null,"Adresse":"27 Rue Marie Curie","Code postal":44230,"Commune":"ST-SEBASTIEN","Téléphone":"02 51 71 23 00","Site Internet":"www.eurobowl.fr/saint-sebastien/","icon":"default"},"geometry":{"type":"Point","coordinates":[-1.48606376344073,47.1895824580666]}},{"type":"Feature","properties":{"title":"Golf de l'Epinay","Catégorie":"Autre équipement","Statut":null,"Adresse":"Boulevard de l'Epinay","Code postal":44470,"Commune":"CARQUEFOU","Téléphone":"02 40 52 73 74","Site Internet":null,"icon":"default"},"geometry":{"type":"Point","coordinates":[-1.48894815586082,47.2877803426137]}},{"type":"Feature","properties":{"title":"Gymnase Pierre Moisan","Catégorie":"Gymnase","Statut":null,"Adresse":"Rue de la Corbardière","Code postal":44220,"Commune":"COUERON","Téléphone":"02 40 85 46 60","Site Internet":null,"icon":"default"},"geometry":{"type":"Point","coordinates":[-1.68430936585207,47.2163316906721]}},{"type":"Feature","properties":{"title":"Gymnase Jules Boullery","Catégorie":"Gymnase","Statut":null,"Adresse":"Boulevard Francois Blancho","Code postal":44220,"Commune":"COUERON","Téléphone":"02 40 85 46 60","Site Internet":null,"icon":"default"},"geometry":{"type":"Point","coordinates":[-1.72758810210756,47.2145372502315]}},{"type":"Feature","properties":{"title":"Patinoire Olympique Rezé","Catégorie":"Autre équipement","Statut":null,"Adresse":"Rue de la Trocardière","Code postal":44400,"Commune":"REZE","Téléphone":"02 40 75 58 46","Site Internet":null,"icon":"default"},"geometry":{"type":"Point","coordinates":[-1.5729261472647,47.1823718209336]}},