{"type":"FeatureCollection","features":[{"type":"Feature","properties":{"geo":{"name":"Salle municipale Bretagne"},"_l":[47.2274064964909,-1.5648248558118],"LIBTHEME":"VIE SOCIALE","CODE_POSTAL":44000,"WEB":"www.nantes.fr","STATUT":null,"TELEPHONE":"02 51 81 91 10","THEME":12,"COMMUNE":"NANTES","LIBCATEGORIE":"Vie associative","ADRESSE":"23 Rue Villebois Mareuil","LIBTYPE":"Salle associative","_IDOBJ":139,"TYPE":120503,"CATEGORIE":1205},"geometry":{"type":"Point","coordinates":[-1.5648248558118,47.2274064964909]}},{"type":"Feature","properties":{"geo":{"name":"Salles municipales La Manu"},"_l":[47.2194356171357,-1.53561203124214],"LIBTHEME":"VIE SOCIALE","CODE_POSTAL":44000,"WEB":"www.nantes.fr","STATUT":"Public","TELEPHONE":"02 40 41 92 25","THEME":12,"COMMUNE":"NANTES","LIBCATEGORIE":"Vie associative","ADRESSE":"10B Boulevard de Stalingrad","LIBTYPE":"Salle associative","_IDOBJ":208,"TYPE":120503,"CATEGORIE":1205},"geometry":{"type":"Point","coordinates":[-1.53561203124214,47.2194356171357]}},{"type":"Feature","properties":{"geo":{"name":"Maison des Syndicats"},"_l":[47.2041839844718,-1.5593673745787],"LIBTHEME":"VIE SOCIALE","CODE_POSTAL":44200,"WEB":"www.nantes.fr","STATUT":null,"TELEPHONE":"02 40 35 42 06","THEME":12,"COMMUNE":"NANTES","LIBCATEGORIE":"Vie associative","ADRESSE":"5 Place de la Gare de l'Etat","LIBTYPE":"Salle associative","_IDOBJ":269,"TYPE":120503,"CATEGORIE":1205},"geometry":{"type":"Point","coordinates":[-1.5593673745787,47.2041839844718]}},{"type":"Feature","properties":{"geo":{"name":"Maison de quartier Doulon - ACCOORD"},"_l":[47.2369290334161,-1.50937191689927],"LIBTHEME":"VIE SOCIALE","CODE_POSTAL":44300,"WEB":null,"STATUT":null,"TELEPHONE":"02 40 50 60 40","THEME":12,"COMMUNE":"NANTES","LIBCATEGORIE":"Vie associative","ADRESSE":"1 Rue de la Basse Chénaie","LIBTYPE":"Maison de quartier","_IDOBJ":343,"TYPE":120504,"CATEGORIE":1205},"geometry":{"type":"Point","coordinates":[-1.50937191689927,47.2369290334161]}},{"type":"Feature","properties":{"geo":{"name":"Centre socioculturel de Bellevue - ACCOORD"},"_l":[47.2077879439062,-1.60561557567524],"LIBTHEME":"VIE SOCIALE","CODE_POSTAL":44100,"WEB":"www.accoord.fr","STATUT":null,"TELEPHONE":"02 40 46 44 22","THEME":12,"COMMUNE":"NANTES","LIBCATEGORIE":"Vie associative","ADRESSE":"25 Rue du Jamet","LIBTYPE":"Centre socioculturel","_IDOBJ":383,"TYPE":120505,"CATEGORIE":1205},"geometry":{"type":"Point","coordinates":[-1.60561557567524,47.2077879439062]}},{"type":"Feature","properties":{"geo":{"name":"Maison de quartier des Dervallières - ACCOORD"},"_l":[47.223032364696,-1.59521333157472],"LIBTHEME":"VIE SOCIALE","CODE_POSTAL":44100,"WEB":null,"STATUT":null,"TELEPHONE":"02 40 46 02 17","THEME":12,"COMMUNE":"NANTES","LIBCATEGORIE":"Vie associative","ADRESSE":"5 Rue Auguste Renoir","LIBTYPE":"Maison de quartier","_IDOBJ":388,"TYPE":120504,"CATEGORIE":1205},"geometry":{"type":"Point","coordinates":[-1.59521333157472,47.223032364696]}},{"type":"Feature","properties":{"geo":{"name":"Centre socioculturel du Port-Boyer - ACCOORD"},"_l":[47.2411960977563,-1.54112573304283],"LIBTHEME":"VIE SOCIALE","CODE_POSTAL":44300,"WEB":"www.accoord.fr","STATUT":null,"TELEPHONE":"02 40 49 21 81","THEME":12,"COMMUNE":"NANTES","LIBCATEGORIE":"Vie associative","ADRESSE":"7 Rue de Pornichet","LIBTYPE":"Centre socioculturel","_IDOBJ":391,"TYPE":120505,"CATEGORIE":1205},"geometry":{"type":"Point","coordinates":[-1.54112573304283,47.2411960977563]}},{"type":"Feature","properties":{"geo":{"name":"Salle municipale La Géraudière"},"_l":[47.2587215408318,-1.56773305876015],"LIBTHEME":"VIE SOCIALE","CODE_POSTAL":44300,"WEB":"www.nantes.fr","STATUT":null,"TELEPHONE":"02 40 59 56 71","THEME":12,"COMMUNE":"NANTES","LIBCATEGORIE":"Vie associative","ADRESSE":"81 Rue des Renards","LIBTYPE":"Salle associative","_IDOBJ":393,"TYPE":120503,"CATEGORIE":1205},"geometry":{"type":"Point","coordinates":[-1.56773305876015,47.2587215408318]}},{"type":"Feature","properties":{"geo":{"name":"Centre socioculturel du Bout-des-Landes - ACCOORD"},"_l":[47.2659540931082,-1.57823843187786],"LIBTHEME":"VIE SOCIALE","CODE_POSTAL":44300,"WEB":"www.accoord.fr","STATUT":null,"TELEPHONE":"02 40 76 15 52","THEME":12,"COMMUNE":"NANTES","LIBCATEGORIE":"Vie associative","ADRESSE":"12 Rue de Concarneau","LIBTYPE":"Centre socioculturel","_IDOBJ":398,"TYPE":120505,"CATEGORIE":1205},"geometry":{"type":"Point","coordinates":[-1.57823843187786,47.2659540931082]}},{"type":"Feature","properties":{"geo":{"name":"Pôle associatif Beaulieu"},"_l":[47.2035884337495,-1.54158874669436],"LIBTHEME":"VIE SOCIALE","CODE_POSTAL":44200,"WEB":null,"STATUT":null,"TELEPHONE":"02 40 35 24 89","THEME":12,"COMMUNE":"NANTES","LIBCATEGORIE":"Vie associative","ADRESSE":"12 Rue Anatole de Monzie","LIBTYPE":"Pôle associatif","_IDOBJ":399,"TYPE":120502,"CATEGORIE":1205},"geometry":{"type":"Point","coordinates":[-1.54158874669436,47.2035884337495]}},{"type":"Feature","properties":{"geo":{"name":"Maison de quartier de l'Ile de Nantes"},"_l":[47.2066924985885,-1.55087434568292],"LIBTHEME":"VIE SOCIALE","CODE_POSTAL":44200,"WEB":null,"STATUT":null,"TELEPHONE":"02 40 48 61 01","THEME":12,"COMMUNE":"NANTES","LIBCATEGORIE":"Vie associative","ADRESSE":"2 Rue Conan Mériadec","LIBTYPE":"Maison de quartier","_IDOBJ":401,"TYPE":120504,"CATEGORIE":1205},"geometry":{"type":"Point","coordinates":[-1.55087434568292,47.2066924985885]}},{"type":"Feature","properties":{"geo":{"name":"Centre socioculturel du Perray-Haluchère - ACCOORD"},"_l":[47.2471922708709,-1.51241291953483],"LIBTHEME":"VIE SOCIALE","CODE_POSTAL":44300,"WEB":"www.accoord.fr","STATUT":null,"TELEPHONE":"02 40 49 74 69","THEME":12,"COMMUNE":"NANTES","LIBCATEGORIE":"Vie associative","ADRESSE":"1 Rue Jules Grandjouan","LIBTYPE":"Centre socioculturel","_IDOBJ":404,"TYPE":120505,"CATEGORIE":1205},"geometry":{"type":"Point","coordinates":[-1.51241291953483,47.2471922708709]}},{"type":"Feature","properties":{"geo":{"name":"Salle municipale Radar Pin Sec"},"_l":[47.2440656387238,-1.52125225830279],"LIBTHEME":"VIE SOCIALE","CODE_POSTAL":44300,"WEB":"www.nantes.fr","STATUT":null,"TELEPHONE":"02 28 23 54 83","THEME":12,"COMMUNE":"NANTES","LIBCATEGORIE":"Vie associative","ADRESSE":"24 Boulevard Henri Dunant","LIBTYPE":"Salle associative","_IDOBJ":405,"TYPE":120503,"CATEGORIE":1205},"geometry":{"type":"Point","coordinates":[-1.52125225830279,47.2440656387238]}},{"type":"Feature","properties":{"geo":{"name":"Pôle associatif Baco"},"_l":[47.2129290208381,-1.55111121054703],"LIBTHEME":"VIE SOCIALE","CODE_POSTAL":44000,"WEB":null,"STATUT":null,"TELEPHONE":"02 40 47 64 40","THEME":12,"COMMUNE":"NANTES","LIBCATEGORIE":"Vie associative","ADRESSE":"21 Allée Baco","LIBTYPE":"Pôle associatif","_IDOBJ":414,"TYPE":120502,"CATEGORIE":1205},"geometry":{"type":"Point","coordinates":[-1.55111121054703,47.2129290208381]}},{"type":"Feature","properties":{"geo":{"name":"Centre socioculturel de la Pilotière - ACCOORD"},"_l":[47.24487150392,-1.52406074624747],"LIBTHEME":"VIE SOCIALE","CODE_POSTAL":44300,"WEB":"www.accoord.fr","STATUT":null,"TELEPHONE":"02 40 50 32 44","THEME":12,"COMMUNE":"NANTES","LIBCATEGORIE":"Vie associative","ADRESSE":"31 Rue des Platanes","LIBTYPE":"Centre socioculturel","_IDOBJ":406,"TYPE":120505,"CATEGORIE":1205},"geometry":{"type":"Point","coordinates":[-1.52406074624747,47.24487150392]}},{"type":"Feature","properties":{"geo":{"name":"Maison de quartier de la Halvêque - ACCOORD"},"_l":[47.2540075172866,-1.51932893711495],"LIBTHEME":"VIE SOCIALE","CODE_POSTAL":44300,"WEB":null,"STATUT":null,"TELEPHONE":"02 40 49 94 10","THEME":12,"COMMUNE":"NANTES","LIBCATEGORIE":"Vie associative","ADRESSE":"23 Rue Léon Serpollet","LIBTYPE":"Maison de quartier","_IDOBJ":407,"TYPE":120504,"CATEGORIE":1205},"geometry":{"type":"Point","coordinates":[-1.51932893711495,47.2540075172866]}},{"type":"Feature","properties":{"geo":{"name":"Pôle associatif Prinquiau"},"_l":[47.2122112954543,-1.58767664485228],"LIBTHEME":"VIE SOCIALE","CODE_POSTAL":44100,"WEB":null,"STATUT":null,"TELEPHONE":"02 40 43 70 75","THEME":12,"COMMUNE":"NANTES","LIBCATEGORIE":"Vie associative","ADRESSE":"11 Rue du Prinquiau","LIBTYPE":"Pôle associatif","_IDOBJ":679,"TYPE":120502,"CATEGORIE":1205},"geometry":{"type":"Point","coordinates":[-1.58767664485228,47.2122112954543]}},{"type":"Feature","properties":{"geo":{"name":"Salle municipale L'Egalité"},"_l":[47.2099281661053,-1.58903183662323],"LIBTHEME":"VIE SOCIALE","CODE_POSTAL":44100,"WEB":"www.nantes.fr","STATUT":null,"TELEPHONE":"02 40 46 37 35","THEME":12,"COMMUNE":"NANTES","LIBCATEGORIE":"Vie associative","ADRESSE":"6 Boulevard Léon Jouhaux","LIBTYPE":"Salle associative","_IDOBJ":774,"TYPE":120503,"CATEGORIE":1205},"geometry":{"type":"Point","coordinates":[-1.58903183662323,47.2099281661053]}},{"type":"Feature","properties":{"geo":{"name":"Pôle associatif Dupleix Barbinais"},"_l":[47.2038321799828,-1.57790375671006],"LIBTHEME":"VIE SOCIALE","CODE_POSTAL":44100,"WEB":null,"STATUT":null,"TELEPHONE":"02 40 73 06 79","THEME":12,"COMMUNE":"NANTES","LIBCATEGORIE":"Vie associative","ADRESSE":"14 Rue de la Barbinais","LIBTYPE":"Pôle associatif","_IDOBJ":948,"TYPE":120502,"CATEGORIE":1205},"geometry":{"type":"Point","coordinates":[-1.57790375671006,47.2038321799828]}},{"type":"Feature","properties":{"geo":{"name":"Pôle associatif Hauts Pavés"},"_l":[47.2241912838444,-1.56387846396922],"LIBTHEME":"VIE SOCIALE","CODE_POSTAL":44000,"WEB":null,"STATUT":null,"TELEPHONE":"02 40 29 40 66","THEME":12,"COMMUNE":"NANTES","LIBCATEGORIE":"Vie associative","ADRESSE":"42 Rue des Hauts Pavés","LIBTYPE":"Pôle associatif","_IDOBJ":949,"TYPE":120502,"CATEGORIE":1205},"geometry":{"type":"Point","coordinates":[-1.56387846396922,47.2241912838444]}},{"type":"Feature","properties":{"geo":{"name":"Salle municipale Bonnaire"},"_l":[47.2422236398524,-1.5289306275649],"LIBTHEME":"VIE SOCIALE","CODE_POSTAL":44300,"WEB":"www.nantes.fr","STATUT":null,"TELEPHONE":"02 40 50 48 35","THEME":12,"COMMUNE":"NANTES","LIBCATEGORIE":"Vie associative","ADRESSE":"1 Rue de Koufra","LIBTYPE":"Salle associative","_IDOBJ":951,"TYPE":120503,"CATEGORIE":1205},"geometry":{"type":"Point","coordinates":[-1.5289306275649,47.2422236398524]}},{"type":"Feature","properties":{"geo":{"name":"Salle municipale Coligny"},"_l":[47.2190937961708,-1.56402938691334],"LIBTHEME":"VIE SOCIALE","CODE_POSTAL":44000,"WEB":"www.nantes.fr","STATUT":null,"TELEPHONE":"02 40 20 20 68","THEME":12,"COMMUNE":"NANTES","LIBCATEGORIE":"Vie associative","ADRESSE":"15B Place Edouard Normand","LIBTYPE":"Salle associative","_IDOBJ":952,"TYPE":120503,"CATEGORIE":1205},"geometry":{"type":"Point","coordinates":[-1.56402938691334,47.2190937961708]}},{"type":"Feature","properties":{"geo":{"name":"Maison des Habitants et du Citoyen"},"_l":[47.2042118852995,-1.60495624817648],"LIBTHEME":"VIE SOCIALE","CODE_POSTAL":44100,"WEB":null,"STATUT":null,"TELEPHONE":"02 51 80 79 47","THEME":12,"COMMUNE":"NANTES","LIBCATEGORIE":"Vie associative","ADRESSE":"1 Place des Lauriers","LIBTYPE":"Maison de quartier","_IDOBJ":954,"TYPE":120504,"CATEGORIE":1205},"geometry":{"type":"Point","coordinates":[-1.60495624817648,47.2042118852995]}},{"type":"Feature","properties":{"geo":{"name":"Centre socioculturel Boissière - ACCOORD"},"_l":[47.2544881966857,-1.56717370687528],"LIBTHEME":"VIE SOCIALE","CODE_POSTAL":44300,"WEB":"www.accoord.fr","STATUT":null,"TELEPHONE":"02 40 76 96 85","THEME":12,"COMMUNE":"NANTES","LIBCATEGORIE":"Vie associative","ADRESSE":"9B Rue Jean De La Bruyère","LIBTYPE":"Centre socioculturel","_IDOBJ":967,"TYPE":120505,"CATEGORIE":1205},"geometry":{"type":"Point","coordinates":[-1.56717370687528,47.2544881966857]}},{"type":"Feature","properties":{"geo":{"name":"Centre socioculturel des Bourderies - ACCOORD"},"_l":[47.2067784099449,-1.5962547293037],"LIBTHEME":"VIE SOCIALE","CODE_POSTAL":44100,"WEB":"www.accoord.fr","STATUT":null,"TELEPHONE":"02 40 46 41 46","THEME":12,"COMMUNE":"NANTES","LIBCATEGORIE":"Vie associative","ADRESSE":"2A Rue de Saint Brévin","LIBTYPE":"Centre socioculturel","_IDOBJ":1096,"TYPE":120505,"CATEGORIE":1205},"geometry":{"type":"Point","coordinates":[-1.5962547293037,47.2067784099449]}},{"type":"Feature","properties":{"geo":{"name":"Salle municipale Joliot Curie"},"_l":[47.1943095426315,-1.53177711503725],"LIBTHEME":"VIE SOCIALE","CODE_POSTAL":44200,"WEB":"www.nantes.fr","STATUT":null,"TELEPHONE":"02 40 75 08 47","THEME":12,"COMMUNE":"NANTES","LIBCATEGORIE":"Vie associative","ADRESSE":"67 Boulevard Joliot Curie","LIBTYPE":"Salle associative","_IDOBJ":1099,"TYPE":120503,"CATEGORIE":1205},"geometry":{"type":"Point","coordinates":[-1.53177711503725,47.1943095426315]}},{"type":"Feature","properties":{"geo":{"name":"Pôle associatif Harouys"},"_l":[47.2175465885138,-1.56595628517282],"LIBTHEME":"VIE SOCIALE","CODE_POSTAL":44000,"WEB":null,"STATUT":null,"TELEPHONE":null,"THEME":12,"COMMUNE":"NANTES","LIBCATEGORIE":"Vie associative","ADRESSE":"3 Rue Harouys","LIBTYPE":"Pôle associatif","_IDOBJ":1101,"TYPE":120502,"CATEGORIE":1205},"geometry":{"type":"Point","coordinates":[-1.56595628517282,47.2175465885138]}},{"type":"Feature","properties":{"geo":{"name":"Pôle associatif Grand Blottereau"},"_l":[47.228440679692,-1.51294690559353],"LIBTHEME":"VIE SOCIALE","CODE_POSTAL":44300,"WEB":null,"STATUT":null,"TELEPHONE":"02 40 50 50 11","THEME":12,"COMMUNE":"NANTES","LIBCATEGORIE":"Vie associative","ADRESSE":"16 Boulevard Auguste Péneau","LIBTYPE":"Pôle associatif","_IDOBJ":1102,"TYPE":120502,"CATEGORIE":1205},"geometry":{"type":"Point","coordinates":[-1.51294690559353,47.228440679692]}},{"type":"Feature","properties":{"geo":{"name":"Pôle associatif du Ranzay"},"_l":[47.2499415022214,-1.52887085348511],"LIBTHEME":"VIE SOCIALE","CODE_POSTAL":44300,"WEB":null,"STATUT":null,"TELEPHONE":"02 40 50 11 59","THEME":12,"COMMUNE":"NANTES","LIBCATEGORIE":"Vie associative","ADRESSE":"2B Rue Hermann Geiger","LIBTYPE":"Pôle associatif","_IDOBJ":1105,"TYPE":120502,"CATEGORIE":1205},"geometry":{"type":"Point","coordinates":[-1.52887085348511,47.2499415022214]}},{"type":"Feature","properties":{"geo":{"name":"Salle municipale Deshoulières"},"_l":[47.2182386437687,-1.56548099734189],"LIBTHEME":"VIE SOCIALE","CODE_POSTAL":44000,"WEB":"www.nantes.fr","STATUT":null,"TELEPHONE":"02 40 48 73 23","THEME":12,"COMMUNE":"NANTES","LIBCATEGORIE":"Vie associative","ADRESSE":"30 Rue Deshoulières","LIBTYPE":"Salle associative","_IDOBJ":1106,"TYPE":120503,"CATEGORIE":1205},"geometry":{"type":"Point","coordinates":[-1.56548099734189,47.2182386437687]}},{"type":"Feature","properties":{"geo":{"name":"Pôle associatif Félix Thomas"},"_l":[47.2316711125518,-1.55311203603983],"LIBTHEME":"VIE SOCIALE","CODE_POSTAL":44000,"WEB":null,"STATUT":null,"TELEPHONE":"02 51 81 01 76","THEME":12,"COMMUNE":"NANTES","LIBCATEGORIE":"Vie associative","ADRESSE":"39 Rue Félix Thomas","LIBTYPE":"Pôle associatif","_IDOBJ":1107,"TYPE":120502,"CATEGORIE":1205},"geometry":{"type":"Point","coordinates":[-1.55311203603983,47.2316711125518]}},{"type":"Feature","properties":{"geo":{"name":"Salle municipale Gay-Lussac"},"_l":[47.227995583065,-1.52089071789257],"LIBTHEME":"VIE SOCIALE","CODE_POSTAL":44300,"WEB":"www.nantes.fr","STATUT":null,"TELEPHONE":"02 40 50 75 96","THEME":12,"COMMUNE":"NANTES","LIBCATEGORIE":"Vie associative","ADRESSE":"19 Rue Corentin Bourveau","LIBTYPE":"Salle associative","_IDOBJ":1111,"TYPE":120503,"CATEGORIE":1205},"geometry":{"type":"Point","coordinates":[-1.52089071789257,47.227995583065]}},{"type":"Feature","properties":{"geo":{"name":"Pôle associatif Cormier"},"_l":[47.2177052155402,-1.60004385986511],"LIBTHEME":"VIE SOCIALE","CODE_POSTAL":44100,"WEB":null,"STATUT":null,"TELEPHONE":"02 40 43 01 09","THEME":12,"COMMUNE":"NANTES","LIBCATEGORIE":"Vie associative","ADRESSE":"4 Rue du Cormier","LIBTYPE":"Pôle associatif","_IDOBJ":1113,"TYPE":120502,"CATEGORIE":1205},"geometry":{"type":"Point","coordinates":[-1.60004385986511,47.2177052155402]}},{"type":"Feature","properties":{"geo":{"name":"Centre socioculturel Petite-Sensive - ACCOORD"},"_l":[47.2585375614036,-1.56628696842652],"LIBTHEME":"VIE SOCIALE","CODE_POSTAL":44300,"WEB":"www.accoord.fr","STATUT":null,"TELEPHONE":"02 40 40 69 63","THEME":12,"COMMUNE":"NANTES","LIBCATEGORIE":"Vie associative","ADRESSE":"48 Rue Lieutenant Jean de Sesmaisons","LIBTYPE":"Centre socioculturel","_IDOBJ":1117,"TYPE":120505,"CATEGORIE":1205},"geometry":{"type":"Point","coordinates":[-1.56628696842652,47.2585375614036]}},{"type":"Feature","properties":{"geo":{"name":"Salle municipale Jules Vallès"},"_l":[47.2115272964498,-1.56246187001213],"LIBTHEME":"VIE SOCIALE","CODE_POSTAL":44000,"WEB":"www.nantes.fr","STATUT":null,"TELEPHONE":"02 40 41 68 59","THEME":12,"COMMUNE":"NANTES","LIBCATEGORIE":"Vie associative","ADRESSE":"15 Rue de l'Héronnière","LIBTYPE":"Salle associative","_IDOBJ":1248,"TYPE":120503,"CATEGORIE":1205},"geometry":{"type":"Point","coordinates":[-1.56246187001213,47.2115272964498]}},{"type":"Feature","properties":{"geo":{"name":"Maison de quartier des Haubans"},"_l":[47.2140929788499,-1.53034663465183],"LIBTHEME":"VIE SOCIALE","CODE_POSTAL":44000,"WEB":null,"STATUT":null,"TELEPHONE":null,"THEME":12,"COMMUNE":"NANTES","LIBCATEGORIE":"Vie associative","ADRESSE":"1 Boulevard de Berlin","LIBTYPE":"Maison de quartier","_IDOBJ":1445,"TYPE":120504,"CATEGORIE":1205},"geometry":{"type":"Point","coordinates":[-1.53034663465183,47.2140929788499]}},{"type":"Feature","properties":{"geo":{"name":"Salles municipales Mairie de Doulon"},"_l":[47.2273398235838,-1.51890592668631],"LIBTHEME":"VIE SOCIALE","CODE_POSTAL":44300,"WEB":"www.nantes.fr","STATUT":null,"TELEPHONE":"02 40 50 43 98","THEME":12,"COMMUNE":"NANTES","LIBCATEGORIE":"Vie associative","ADRESSE":"35 Boulevard Louis Millet","LIBTYPE":"Salle associative","_IDOBJ":1500,"TYPE":120503,"CATEGORIE":1205},"geometry":{"type":"Point","coordinates":[-1.51890592668631,47.2273398235838]}},{"type":"Feature","properties":{"geo":{"name":"Pôle associatif Charles Perron"},"_l":[47.225060820897,-1.60167606693221],"LIBTHEME":"VIE SOCIALE","CODE_POSTAL":44100,"WEB":null,"STATUT":null,"TELEPHONE":null,"THEME":12,"COMMUNE":"NANTES","LIBCATEGORIE":"Vie associative","ADRESSE":"18 Rue Claude Lorrain","LIBTYPE":"Pôle associatif","_IDOBJ":1561,"TYPE":120502,"CATEGORIE":1205},"geometry":{"type":"Point","coordinates":[-1.60167606693221,47.225060820897]}},{"type":"Feature","properties":{"geo":{"name":"Pôle associatif Auvours"},"_l":[47.2213185184715,-1.56354400422419],"LIBTHEME":"VIE SOCIALE","CODE_POSTAL":44000,"WEB":null,"STATUT":null,"TELEPHONE":"02 40 89 37 90","THEME":12,"COMMUNE":"NANTES","LIBCATEGORIE":"Vie associative","ADRESSE":"1 Rue d'Auvours","LIBTYPE":"Pôle associatif","_IDOBJ":1685,"TYPE":120502,"CATEGORIE":1205},"geometry":{"type":"Point","coordinates":[-1.56354400422419,47.2213185184715]}},{"type":"Feature","properties":{"geo":{"name":"Ateliers et Chantiers de Nantes"},"_l":[47.2055890189103,-1.56611673592591],"LIBTHEME":"VIE SOCIALE","CODE_POSTAL":44200,"WEB":null,"STATUT":null,"TELEPHONE":"02 40 12 03 14","THEME":12,"COMMUNE":"NANTES","LIBCATEGORIE":"Vie associative","ADRESSE":"2B Boulevard Léon Bureau","LIBTYPE":"Pôle associatif","_IDOBJ":1686,"TYPE":120502,"CATEGORIE":1205},"geometry":{"type":"Point","coordinates":[-1.56611673592591,47.2055890189103]}},{"type":"Feature","properties":{"geo":{"name":"Pôle associatif Drac"},"_l":[47.2033122281463,-1.60471211219426],"LIBTHEME":"VIE SOCIALE","CODE_POSTAL":44100,"WEB":null,"STATUT":null,"TELEPHONE":"02 40 48 08 61","THEME":12,"COMMUNE":"NANTES","LIBCATEGORIE":"Vie associative","ADRESSE":"15D Boulevard Jean Moulin","LIBTYPE":"Pôle associatif","_IDOBJ":1693,"TYPE":120502,"CATEGORIE":1205},"geometry":{"type":"Point","coordinates":[-1.60471211219426,47.2033122281463]}},{"type":"Feature","properties":{"geo":{"name":"Pôle associatif Coudray"},"_l":[47.2332402692415,-1.54310305387261],"LIBTHEME":"VIE SOCIALE","CODE_POSTAL":44000,"WEB":null,"STATUT":null,"TELEPHONE":"02 40 93 00 32","THEME":12,"COMMUNE":"NANTES","LIBCATEGORIE":"Vie associative","ADRESSE":"20 Rue du Coudray","LIBTYPE":"Pôle associatif","_IDOBJ":1694,"TYPE":120502,"CATEGORIE":1205},"geometry":{"type":"Point","coordinates":[-1.54310305387261,47.2332402692415]}},{"type":"Feature","properties":{"geo":{"name":"Salle municipale Santos Dumont"},"_l":[47.2600721458681,-1.5672607889284],"LIBTHEME":"VIE SOCIALE","CODE_POSTAL":44300,"WEB":"www.nantes.fr","STATUT":null,"TELEPHONE":"02 40 59 09 53","THEME":12,"COMMUNE":"NANTES","LIBCATEGORIE":"Vie associative","ADRESSE":"11 Rue Santos Dumont","LIBTYPE":"Salle associative","_IDOBJ":1700,"TYPE":120503,"CATEGORIE":1205},"geometry":{"type":"Point","coordinates":[-1.5672607889284,47.2600721458681]}},{"type":"Feature","properties":{"geo":{"name":"Salle municipale des Alouettes"},"_l":[47.2008507721907,-1.60856531258694],"LIBTHEME":"VIE SOCIALE","CODE_POSTAL":44100,"WEB":"www.nantes.fr","STATUT":null,"TELEPHONE":"02 51 80 77 92","THEME":12,"COMMUNE":"NANTES","LIBCATEGORIE":"Vie associative","ADRESSE":"6 Rue du Foehn","LIBTYPE":"Salle associative","_IDOBJ":1703,"TYPE":120503,"CATEGORIE":1205},"geometry":{"type":"Point","coordinates":[-1.60856531258694,47.2008507721907]}},{"type":"Feature","properties":{"geo":{"name":"Salle municipale La Barberie"},"_l":[47.2414144527258,-1.57203253284865],"LIBTHEME":"VIE SOCIALE","CODE_POSTAL":44300,"WEB":"www.nantes.fr","STATUT":null,"TELEPHONE":"02 40 59 06 52","THEME":12,"COMMUNE":"NANTES","LIBCATEGORIE":"Vie associative","ADRESSE":"103 Rue Pierre Yvernogeau","LIBTYPE":"Salle associative","_IDOBJ":1706,"TYPE":120503,"CATEGORIE":1205},"geometry":{"type":"Point","coordinates":[-1.57203253284865,47.2414144527258]}},{"type":"Feature","properties":{"geo":{"name":"Salle municipale Mairie de Chantenay"},"_l":[47.206468520888,-1.58843830004179],"LIBTHEME":"VIE SOCIALE","CODE_POSTAL":44100,"WEB":"www.nantes.fr","STATUT":null,"TELEPHONE":null,"THEME":12,"COMMUNE":"NANTES","LIBCATEGORIE":"Vie associative","ADRESSE":"1 Place de la Liberté","LIBTYPE":"Salle associative","_IDOBJ":1707,"TYPE":120503,"CATEGORIE":1205},"geometry":{"type":"Point","coordinates":[-1.58843830004179,47.206468520888]}},{"type":"Feature","properties":{"geo":{"name":"Salle municipale Sud Loire"},"_l":[47.1942104802267,-1.53167481755753],"LIBTHEME":"VIE SOCIALE","CODE_POSTAL":44200,"WEB":"www.nantes.fr","STATUT":null,"TELEPHONE":"02 40 32 85 91","THEME":12,"COMMUNE":"NANTES","LIBCATEGORIE":"Vie associative","ADRESSE":"69 Boulevard Joliot Curie","LIBTYPE":"Salle associative","_IDOBJ":1709,"TYPE":120503,"CATEGORIE":1205},"geometry":{"type":"Point","coordinates":[-1.53167481755753,47.1942104802267]}},{"type":"Feature","properties":{"geo":{"name":"Centre socioculturel du Bourg"},"_l":[47.2134057877895,-1.64869924507899],"LIBTHEME":"VIE SOCIALE","CODE_POSTAL":44800,"WEB":null,"STATUT":"Public","TELEPHONE":"02 40 86 05 88","THEME":12,"COMMUNE":"ST-HERBLAIN","LIBCATEGORIE":"Vie associative","ADRESSE":"126 Boulevard François Mitterrand","LIBTYPE":"Centre socioculturel","_IDOBJ":1814,"TYPE":120505,"CATEGORIE":1205},"geometry":{"type":"Point","coordinates":[-1.64869924507899,47.2134057877895]}},{"type":"Feature","properties":{"geo":{"name":"Centre socioculturel de la Bernardière"},"_l":[47.2060531359855,-1.6151632096453],"LIBTHEME":"VIE SOCIALE","CODE_POSTAL":44800,"WEB":"www.saint-herblain.fr","STATUT":"Public","TELEPHONE":"02 28 25 22 90","THEME":12,"COMMUNE":"ST-HERBLAIN","LIBCATEGORIE":"Vie associative","ADRESSE":"11 Rue de Dijon","LIBTYPE":"Centre socioculturel","_IDOBJ":1815,"TYPE":120505,"CATEGORIE":1205},"geometry":{"type":"Point","coordinates":[-1.6151632096453,47.2060531359855]}},{"type":"Feature","properties":{"geo":{"name":"Centre socioculturel Sillon de Bretagne"},"_l":[47.2438137888088,-1.60762412075371],"LIBTHEME":"VIE SOCIALE","CODE_POSTAL":44800,"WEB":"www.saint-herblain.fr","STATUT":"Public","TELEPHONE":"02 40 63 69 94","THEME":12,"COMMUNE":"ST-HERBLAIN","LIBCATEGORIE":"Vie associative","ADRESSE":"12B Avenue des Thébaudières","LIBTYPE":"Centre socioculturel","_IDOBJ":1817,"TYPE":120505,"CATEGORIE":1205},"geometry":{"type":"Point","coordinates":[-1.60762412075371,47.2438137888088]}},{"type":"Feature","properties":{"geo":{"name":"Salle Armande Béjard"},"_l":[47.2401727557898,-1.58977548217187],"LIBTHEME":"VIE SOCIALE","CODE_POSTAL":44700,"WEB":"www.orvault.fr","STATUT":"Public","TELEPHONE":"02 40 76 94 47","THEME":12,"COMMUNE":"ORVAULT","LIBCATEGORIE":"Vie associative","ADRESSE":"4 Avenue de l'Ille","LIBTYPE":"Salle associative","_IDOBJ":1923,"TYPE":120503,"CATEGORIE":1205},"geometry":{"type":"Point","coordinates":[-1.58977548217187,47.2401727557898]}},{"type":"Feature","properties":{"geo":{"name":"Centre socioculturel de la Bugallière"},"_l":[47.2618822634991,-1.6310057341284],"LIBTHEME":"VIE SOCIALE","CODE_POSTAL":44700,"WEB":"www.orvault.fr","STATUT":"Public","TELEPHONE":"02 40 63 44 45","THEME":12,"COMMUNE":"ORVAULT","LIBCATEGORIE":"Vie associative","ADRESSE":"10 Rue du Pont Marchand","LIBTYPE":"Centre socioculturel","_IDOBJ":1924,"TYPE":120505,"CATEGORIE":1205},"geometry":{"type":"Point","coordinates":[-1.6310057341284,47.2618822634991]}},{"type":"Feature","properties":{"geo":{"name":"Salle de la Croix Blanche"},"_l":[47.2096778972484,-1.50140400484671],"LIBTHEME":"VIE SOCIALE","CODE_POSTAL":44230,"WEB":null,"STATUT":"Public","TELEPHONE":"02 40 80 52 87","THEME":12,"COMMUNE":"ST-SEBASTIEN","LIBCATEGORIE":"Vie associative","ADRESSE":"Rue de la Croix Blanche","LIBTYPE":"Salle associative","_IDOBJ":2030,"TYPE":120503,"CATEGORIE":1205},"geometry":{"type":"Point","coordinates":[-1.50140400484671,47.2096778972484]}},{"type":"Feature","properties":{"geo":{"name":"Maison des Associations René Couillaud"},"_l":[47.2073891025691,-1.50876046283368],"LIBTHEME":"VIE SOCIALE","CODE_POSTAL":44230,"WEB":null,"STATUT":"Public","TELEPHONE":"02 40 80 85 88","THEME":12,"COMMUNE":"ST-SEBASTIEN","LIBCATEGORIE":"Vie associative","ADRESSE":"Rue des Becques","LIBTYPE":"Maison d'associations","_IDOBJ":2047,"TYPE":120501,"CATEGORIE":1205},"geometry":{"type":"Point","coordinates":[-1.50876046283368,47.2073891025691]}},{"type":"Feature","properties":{"geo":{"name":"Salle de la Noë Cottée"},"_l":[47.1904435072787,-1.48171697659525],"LIBTHEME":"VIE SOCIALE","CODE_POSTAL":44230,"WEB":null,"STATUT":"Public","TELEPHONE":"02 51 71 23 32","THEME":12,"COMMUNE":"ST-SEBASTIEN","LIBCATEGORIE":"Vie associative","ADRESSE":"Rue de la Noë Cottée","LIBTYPE":"Salle associative","_IDOBJ":2064,"TYPE":120503,"CATEGORIE":1205},"geometry":{"type":"Point","coordinates":[-1.48171697659525,47.1904435072787]}},{"type":"Feature","properties":{"geo":{"name":"Centre socioculturel Maison pour Tous"},"_l":[47.1813581216667,-1.58874790072668],"LIBTHEME":"VIE SOCIALE","CODE_POSTAL":44340,"WEB":"www.ville-bouguenais.fr","STATUT":"Public","TELEPHONE":"02 40 32 02 12","THEME":12,"COMMUNE":"BOUGUENAIS","LIBCATEGORIE":"Vie associative","ADRESSE":"2 Rue Célestin Freinet","LIBTYPE":"Centre socioculturel","_IDOBJ":2089,"TYPE":120505,"CATEGORIE":1205},"geometry":{"type":"Point","coordinates":[-1.58874790072668,47.1813581216667]}},{"type":"Feature","properties":{"geo":{"name":"Centre socioculturel du Soleil Levant"},"_l":[47.2192629356122,-1.60974166184954],"LIBTHEME":"VIE SOCIALE","CODE_POSTAL":44800,"WEB":"www.saint-herblain.fr","STATUT":"Public","TELEPHONE":"02 28 25 26 90","THEME":12,"COMMUNE":"ST-HERBLAIN","LIBCATEGORIE":"Vie associative","ADRESSE":"44 Rue de la Blanche","LIBTYPE":"Centre socioculturel","_IDOBJ":2121,"TYPE":120505,"CATEGORIE":1205},"geometry":{"type":"Point","coordinates":[-1.60974166184954,47.2192629356122]}},{"type":"Feature","properties":{"geo":{"name":"Maison du Citoyen"},"_l":[47.2126895944,-1.61485359277657],"LIBTHEME":"VIE SOCIALE","CODE_POSTAL":44800,"WEB":"www.saint-herblain.fr","STATUT":"Public","TELEPHONE":"02 28 25 26 60","THEME":12,"COMMUNE":"ST-HERBLAIN","LIBCATEGORIE":"Vie associative","ADRESSE":"9 Rue de Charente","LIBTYPE":"Maison d'associations","_IDOBJ":2124,"TYPE":120501,"CATEGORIE":1205},"geometry":{"type":"Point","coordinates":[-1.61485359277657,47.2126895944]}},{"type":"Feature","properties":{"geo":{"name":"Maison des Citoyens"},"_l":[47.2073628852385,-1.50322011573367],"LIBTHEME":"VIE SOCIALE","CODE_POSTAL":44230,"WEB":null,"STATUT":"Public","TELEPHONE":"02 40 80 86 38","THEME":12,"COMMUNE":"ST-SEBASTIEN","LIBCATEGORIE":"Vie associative","ADRESSE":"Rue du Général De Gaulle","LIBTYPE":"Maison d'associations","_IDOBJ":2142,"TYPE":120501,"CATEGORIE":1205},"geometry":{"type":"Point","coordinates":[-1.50322011573367,47.2073628852385]}},{"type":"Feature","properties":{"geo":{"name":"Centre socioculturel de La Fontaine"},"_l":[47.204238300808,-1.48778144817486],"LIBTHEME":"VIE SOCIALE","CODE_POSTAL":44230,"WEB":null,"STATUT":"Public","TELEPHONE":"02 40 34 34 14","THEME":12,"COMMUNE":"ST-SEBASTIEN","LIBCATEGORIE":"Vie associative","ADRESSE":"11 Rue du Languedoc","LIBTYPE":"Centre socioculturel","_IDOBJ":2162,"TYPE":120505,"CATEGORIE":1205},"geometry":{"type":"Point","coordinates":[-1.48778144817486,47.204238300808]}},{"type":"Feature","properties":{"geo":{"name":"Centre socioculturel l'Allée Verte"},"_l":[47.195344086365,-1.49026180524718],"LIBTHEME":"VIE SOCIALE","CODE_POSTAL":44230,"WEB":"alleeverte-cdc.lacms.net","STATUT":"Public","TELEPHONE":"02 40 33 16 88","THEME":12,"COMMUNE":"ST-SEBASTIEN","LIBCATEGORIE":"Vie associative","ADRESSE":"Rue de l'Allée Verte","LIBTYPE":"Centre socioculturel","_IDOBJ":2165,"TYPE":120505,"CATEGORIE":1205},"geometry":{"type":"Point","coordinates":[-1.49026180524718,47.195344086365]}},{"type":"Feature","properties":{"geo":{"name":"Maisons des associations Bouguenais"},"_l":[47.1791448877347,-1.62611620444938],"LIBTHEME":"VIE SOCIALE","CODE_POSTAL":44340,"WEB":null,"STATUT":"Public","TELEPHONE":null,"THEME":12,"COMMUNE":"BOUGUENAIS","LIBCATEGORIE":"Vie associative","ADRESSE":"Rue Jacques Demy","LIBTYPE":"Maison d'associations","_IDOBJ":2174,"TYPE":120501,"CATEGORIE":1205},"geometry":{"type":"Point","coordinates":[-1.62611620444938,47.1791448877347]}},{"type":"Feature","properties":{"geo":{"name":"Salle du Grand Journal"},"_l":[47.174607766664,-1.62158083930543],"LIBTHEME":"VIE SOCIALE","CODE_POSTAL":44340,"WEB":null,"STATUT":"Public","TELEPHONE":null,"THEME":12,"COMMUNE":"BOUGUENAIS","LIBCATEGORIE":"Vie associative","ADRESSE":"1 Place du Grand Journal","LIBTYPE":"Salle associative","_IDOBJ":2177,"TYPE":120503,"CATEGORIE":1205},"geometry":{"type":"Point","coordinates":[-1.62158083930543,47.174607766664]}},{"type":"Feature","properties":{"geo":{"name":"Salle du 8 Mai"},"_l":[47.178483570239,-1.62050417367405],"LIBTHEME":"VIE SOCIALE","CODE_POSTAL":44340,"WEB":"www.ville-bouguenais.fr","STATUT":null,"TELEPHONE":null,"THEME":12,"COMMUNE":"BOUGUENAIS","LIBCATEGORIE":"Vie associative","ADRESSE":"Avenue du Général De Gaulle","LIBTYPE":"Salle associative","_IDOBJ":2178,"TYPE":120503,"CATEGORIE":1205},"geometry":{"type":"Point","coordinates":[-1.62050417367405,47.178483570239]}},{"type":"Feature","properties":{"geo":{"name":"Salle Renaud-Barrault"},"_l":[47.1792057990308,-1.58688371245975],"LIBTHEME":"VIE SOCIALE","CODE_POSTAL":44340,"WEB":"www.ville-bouguenais.fr","STATUT":"Public","TELEPHONE":null,"THEME":12,"COMMUNE":"BOUGUENAIS","LIBCATEGORIE":"Vie associative","ADRESSE":"Rue Andromède","LIBTYPE":"Salle associative","_IDOBJ":2183,"TYPE":120503,"CATEGORIE":1205},"geometry":{"type":"Point","coordinates":[-1.58688371245975,47.1792057990308]}},{"type":"Feature","properties":{"geo":{"name":"Salle Général de Gaulle"},"_l":[47.1779532719422,-1.61862504163265],"LIBTHEME":"VIE SOCIALE","CODE_POSTAL":44340,"WEB":null,"STATUT":"Public","TELEPHONE":"02 40 65 38 61","THEME":12,"COMMUNE":"BOUGUENAIS","LIBCATEGORIE":"Vie associative","ADRESSE":"33 Avenue du Général De Gaulle","LIBTYPE":"Salle associative","_IDOBJ":2184,"TYPE":120503,"CATEGORIE":1205},"geometry":{"type":"Point","coordinates":[-1.61862504163265,47.1779532719422]}},{"type":"Feature","properties":{"geo":{"name":"Maison du Temps Libre Gournerie"},"_l":[47.2485576036361,-1.64023942597396],"LIBTHEME":"VIE SOCIALE","CODE_POSTAL":44800,"WEB":null,"STATUT":"Public","TELEPHONE":null,"THEME":12,"COMMUNE":"ST-HERBLAIN","LIBCATEGORIE":"Vie associative","ADRESSE":"Allée de la Ferme","LIBTYPE":"Centre socioculturel","_IDOBJ":2241,"TYPE":120505,"CATEGORIE":1205},"geometry":{"type":"Point","coordinates":[-1.64023942597396,47.2485576036361]}},{"type":"Feature","properties":{"geo":{"name":"Association des Centres de Loisirs Educatifs pour l'Enfance et l'Adolescence"},"_l":[47.2005431941447,-1.67173403038113],"LIBTHEME":"VIE SOCIALE","CODE_POSTAL":44610,"WEB":"www.acleea.fr","STATUT":"Public","TELEPHONE":"02 40 85 46 15","THEME":12,"COMMUNE":"INDRE","LIBCATEGORIE":"Vie associative","ADRESSE":"2 Rue du Stade","LIBTYPE":"Maison d'associations","_IDOBJ":2257,"TYPE":120501,"CATEGORIE":1205},"geometry":{"type":"Point","coordinates":[-1.67173403038113,47.2005431941447]}},{"type":"Feature","properties":{"geo":{"name":"Salle Municipale La Carrière"},"_l":[47.2094694435309,-1.63491317101],"LIBTHEME":"VIE SOCIALE","CODE_POSTAL":44800,"WEB":null,"STATUT":"Public","TELEPHONE":null,"THEME":12,"COMMUNE":"ST-HERBLAIN","LIBCATEGORIE":"Vie associative","ADRESSE":"2B Rue du Souvenir Français","LIBTYPE":"Salle associative","_IDOBJ":2258,"TYPE":120503,"CATEGORIE":1205},"geometry":{"type":"Point","coordinates":[-1.63491317101,47.2094694435309]}},{"type":"Feature","properties":{"geo":{"name":"Complexe Eric Tabarly"},"_l":[47.1991645855316,-1.66779920328667],"LIBTHEME":"VIE SOCIALE","CODE_POSTAL":44610,"WEB":"www.indre44.fr","STATUT":"Public","TELEPHONE":"02 40 85 45 80","THEME":12,"COMMUNE":"INDRE","LIBCATEGORIE":"Vie associative","ADRESSE":"17 Rue de l'Allier","LIBTYPE":"Salle associative","_IDOBJ":2259,"TYPE":120503,"CATEGORIE":1205},"geometry":{"type":"Point","coordinates":[-1.66779920328667,47.1991645855316]}},{"type":"Feature","properties":{"geo":{"name":"Salle municipale La Roche"},"_l":[47.2183822661273,-1.52067856118147],"LIBTHEME":"VIE SOCIALE","CODE_POSTAL":44000,"WEB":"www.nantes.fr","STATUT":"Public","TELEPHONE":"02 40 50 62 12","THEME":12,"COMMUNE":"NANTES","LIBCATEGORIE":"Vie associative","ADRESSE":"7 Rue de la Révolution des Oeillets","LIBTYPE":"Salle associative","_IDOBJ":2306,"TYPE":120503,"CATEGORIE":1205},"geometry":{"type":"Point","coordinates":[-1.52067856118147,47.2183822661273]}},{"type":"Feature","properties":{"geo":{"name":"Pôle associatif La Palmeraie"},"_l":[47.2236520128029,-1.5958164107938],"LIBTHEME":"VIE SOCIALE","CODE_POSTAL":44100,"WEB":null,"STATUT":"Public","TELEPHONE":"02 40 43 63 34","THEME":12,"COMMUNE":"NANTES","LIBCATEGORIE":"Vie associative","ADRESSE":"19 Rue Auguste Renoir","LIBTYPE":"Pôle associatif","_IDOBJ":2307,"TYPE":120502,"CATEGORIE":1205},"geometry":{"type":"Point","coordinates":[-1.5958164107938,47.2236520128029]}},{"type":"Feature","properties":{"geo":{"name":"Salle polyvalente de l'Estuaire"},"_l":[47.2100966893706,-1.719520906917],"LIBTHEME":"VIE SOCIALE","CODE_POSTAL":44220,"WEB":null,"STATUT":null,"TELEPHONE":"02 40 38 58 82","THEME":12,"COMMUNE":"COUERON","LIBCATEGORIE":"Vie associative","ADRESSE":"Rue de la Frémondière","LIBTYPE":"Salle associative","_IDOBJ":2482,"TYPE":120503,"CATEGORIE":1205},"geometry":{"type":"Point","coordinates":[-1.719520906917,47.2100966893706]}},{"type":"Feature","properties":{"geo":{"name":"Salle de l'Erdurière"},"_l":[47.2359001433474,-1.71955172164652],"LIBTHEME":"VIE SOCIALE","CODE_POSTAL":44220,"WEB":null,"STATUT":null,"TELEPHONE":"02 40 38 58 82","THEME":12,"COMMUNE":"COUERON","LIBCATEGORIE":"Vie associative","ADRESSE":"CR 38","LIBTYPE":"Salle associative","_IDOBJ":2487,"TYPE":120503,"CATEGORIE":1205},"geometry":{"type":"Point","coordinates":[-1.71955172164652,47.2359001433474]}},{"type":"Feature","properties":{"geo":{"name":"Espace René Cassin"},"_l":[47.1944547048345,-1.76197092265796],"LIBTHEME":"VIE SOCIALE","CODE_POSTAL":44640,"WEB":"www.ville-lepellerin.fr","STATUT":null,"TELEPHONE":"02 40 04 56 67","THEME":12,"COMMUNE":"LE-PELLERIN","LIBCATEGORIE":"Vie associative","ADRESSE":"RD 80","LIBTYPE":"Salle associative","_IDOBJ":2490,"TYPE":120503,"CATEGORIE":1205},"geometry":{"type":"Point","coordinates":[-1.76197092265796,47.1944547048345]}},{"type":"Feature","properties":{"geo":{"name":"Salle Jules Ladoumègue"},"_l":[47.1838453054745,-1.67707423560412],"LIBTHEME":"VIE SOCIALE","CODE_POSTAL":44620,"WEB":"www.ville-lamontagne.fr","STATUT":null,"TELEPHONE":"02 40 65 74 39","THEME":12,"COMMUNE":"LA-MONTAGNE","LIBCATEGORIE":"Vie associative","ADRESSE":"Rue de la Gaudinière","LIBTYPE":"Salle associative","_IDOBJ":2542,"TYPE":120503,"CATEGORIE":1205},"geometry":{"type":"Point","coordinates":[-1.67707423560412,47.1838453054745]}},{"type":"Feature","properties":{"geo":{"name":"Salle René Losq"},"_l":[47.2490845344889,-1.48408629656325],"LIBTHEME":"VIE SOCIALE","CODE_POSTAL":44980,"WEB":null,"STATUT":null,"TELEPHONE":"02 40 68 16 36","THEME":12,"COMMUNE":"SAINTE-LUCE-SUR-LOIRE","LIBCATEGORIE":"Vie associative","ADRESSE":"Place du Général De Gaulle","LIBTYPE":"Salle associative","_IDOBJ":2561,"TYPE":120503,"CATEGORIE":1205},"geometry":{"type":"Point","coordinates":[-1.48408629656325,47.2490845344889]}},{"type":"Feature","properties":{"geo":{"name":"Pôle associatif Sainte Luce sur Loire"},"_l":[47.2506953497135,-1.48522448913494],"LIBTHEME":"VIE SOCIALE","CODE_POSTAL":44980,"WEB":null,"STATUT":null,"TELEPHONE":"02 51 85 06 98","THEME":12,"COMMUNE":"SAINTE-LUCE-SUR-LOIRE","LIBCATEGORIE":"Vie associative","ADRESSE":"27 Rue Jean Moulin","LIBTYPE":"Pôle associatif","_IDOBJ":2601,"TYPE":120502,"CATEGORIE":1205},"geometry":{"type":"Point","coordinates":[-1.48522448913494,47.2506953497135]}},{"type":"Feature","properties":{"geo":{"name":"Espace Saltéra"},"_l":[47.2654913119042,-1.68013763699535],"LIBTHEME":"VIE SOCIALE","CODE_POSTAL":44880,"WEB":"www.sautron.fr","STATUT":null,"TELEPHONE":"02 40 63 89 62","THEME":12,"COMMUNE":"SAUTRON","LIBCATEGORIE":"Vie associative","ADRESSE":"25 Rue de la Forêt","LIBTYPE":"Salle associative","_IDOBJ":2617,"TYPE":120503,"CATEGORIE":1205},"geometry":{"type":"Point","coordinates":[-1.68013763699535,47.2654913119042]}},{"type":"Feature","properties":{"geo":{"name":"Salle municipale Louis Dagorne"},"_l":[47.250249376764,-1.48569405747892],"LIBTHEME":"VIE SOCIALE","CODE_POSTAL":44980,"WEB":null,"STATUT":null,"TELEPHONE":"02 51 85 06 98","THEME":12,"COMMUNE":"SAINTE-LUCE-SUR-LOIRE","LIBCATEGORIE":"Vie associative","ADRESSE":"17 Rue Jean Moulin","LIBTYPE":"Salle associative","_IDOBJ":2741,"TYPE":120503,"CATEGORIE":1205},"geometry":{"type":"Point","coordinates":[-1.48569405747892,47.250249376764]}},{"type":"Feature","properties":{"geo":{"name":"Salle Sèvre et Maine"},"_l":[47.1641799281341,-1.46817916653276],"LIBTHEME":"VIE SOCIALE","CODE_POSTAL":44120,"WEB":null,"STATUT":null,"TELEPHONE":"02 40 34 76 09","THEME":12,"COMMUNE":"VERTOU","LIBCATEGORIE":"Vie associative","ADRESSE":"Rue Sèvre et Maine","LIBTYPE":"Salle associative","_IDOBJ":3021,"TYPE":120503,"CATEGORIE":1205},"geometry":{"type":"Point","coordinates":[-1.46817916653276,47.1641799281341]}},{"type":"Feature","properties":{"geo":{"name":"Centre socioculturel Ragon"},"_l":[47.1651861493752,-1.54163675731123],"LIBTHEME":"VIE SOCIALE","CODE_POSTAL":44400,"WEB":null,"STATUT":null,"TELEPHONE":"02 51 70 20 32","THEME":12,"COMMUNE":"REZE","LIBCATEGORIE":"Vie associative","ADRESSE":"Rue du Vivier","LIBTYPE":"Centre socioculturel","_IDOBJ":3046,"TYPE":120505,"CATEGORIE":1205},"geometry":{"type":"Point","coordinates":[-1.54163675731123,47.1651861493752]}},{"type":"Feature","properties":{"geo":{"name":"Centre socioculturel Henri Normand"},"_l":[47.2147495253888,-1.68301802421618],"LIBTHEME":"VIE SOCIALE","CODE_POSTAL":44220,"WEB":null,"STATUT":null,"TELEPHONE":"02 40 38 31 99","THEME":12,"COMMUNE":"COUERON","LIBCATEGORIE":"Vie associative","ADRESSE":"Place des Cités","LIBTYPE":"Centre socioculturel","_IDOBJ":3084,"TYPE":120505,"CATEGORIE":1205},"geometry":{"type":"Point","coordinates":[-1.68301802421618,47.2147495253888]}},{"type":"Feature","properties":{"geo":{"name":"Centre socioculturel Pierre Legendre"},"_l":[47.213920475905,-1.7278898760989],"LIBTHEME":"VIE SOCIALE","CODE_POSTAL":44220,"WEB":null,"STATUT":null,"TELEPHONE":"02 40 86 13 42","THEME":12,"COMMUNE":"COUERON","LIBCATEGORIE":"Vie associative","ADRESSE":"7 Boulevard Francois Blancho","LIBTYPE":"Centre socioculturel","_IDOBJ":3085,"TYPE":120505,"CATEGORIE":1205},"geometry":{"type":"Point","coordinates":[-1.7278898760989,47.213920475905]}},{"type":"Feature","properties":{"geo":{"name":"Salle du Pré Poulain"},"_l":[47.2728681706813,-1.44608984259946],"LIBTHEME":"VIE SOCIALE","CODE_POSTAL":44470,"WEB":null,"STATUT":null,"TELEPHONE":"02 40 68 09 70","THEME":12,"COMMUNE":"THOUARE-SUR-LOIRE","LIBCATEGORIE":"Vie associative","ADRESSE":"111 Rue de Beaulieu","LIBTYPE":"Salle associative","_IDOBJ":3086,"TYPE":120503,"CATEGORIE":1205},"geometry":{"type":"Point","coordinates":[-1.44608984259946,47.2728681706813]}},{"type":"Feature","properties":{"geo":{"name":"Centre socioculturel Morvandière"},"_l":[47.2689894003427,-1.4377822883137],"LIBTHEME":"VIE SOCIALE","CODE_POSTAL":44470,"WEB":"www.thouare.fr","STATUT":null,"TELEPHONE":"02 40 68 06 05","THEME":12,"COMMUNE":"THOUARE-SUR-LOIRE","LIBCATEGORIE":"Vie associative","ADRESSE":"23 Rue de Mauves","LIBTYPE":"Centre socioculturel","_IDOBJ":3116,"TYPE":120505,"CATEGORIE":1205},"geometry":{"type":"Point","coordinates":[-1.4377822883137,47.2689894003427]}},{"type":"Feature","properties":{"geo":{"name":"Salle Elia"},"_l":[47.2566564229176,-1.58303452314248],"LIBTHEME":"VIE SOCIALE","CODE_POSTAL":44700,"WEB":"www.orvault.fr","STATUT":null,"TELEPHONE":null,"THEME":12,"COMMUNE":"ORVAULT","LIBCATEGORIE":"Vie associative","ADRESSE":"40 Rue de la Mulonnière","LIBTYPE":"Salle associative","_IDOBJ":3117,"TYPE":120503,"CATEGORIE":1205},"geometry":{"type":"Point","coordinates":[-1.58303452314248,47.2566564229176]}},{"type":"Feature","properties":{"geo":{"name":"Maison de quartier Houssais , Chêne Creux"},"_l":[47.1743302323424,-1.55277420379611],"LIBTHEME":"VIE SOCIALE","CODE_POSTAL":44400,"WEB":null,"STATUT":null,"TELEPHONE":"02 40 04 07 63","THEME":12,"COMMUNE":"REZE","LIBCATEGORIE":"Vie associative","ADRESSE":"38 Avenue de la Houssais","LIBTYPE":"Maison de quartier","_IDOBJ":3119,"TYPE":120504,"CATEGORIE":1205},"geometry":{"type":"Point","coordinates":[-1.55277420379611,47.1743302323424]}},{"type":"Feature","properties":{"geo":{"name":"Salle André Coutant"},"_l":[47.1785536838894,-1.54690031033453],"LIBTHEME":"VIE SOCIALE","CODE_POSTAL":44400,"WEB":null,"STATUT":null,"TELEPHONE":null,"THEME":12,"COMMUNE":"REZE","LIBCATEGORIE":"Vie associative","ADRESSE":"12 Rue des Déportés","LIBTYPE":"Salle associative","_IDOBJ":3255,"TYPE":120503,"CATEGORIE":1205},"geometry":{"type":"Point","coordinates":[-1.54690031033453,47.1785536838894]}},{"type":"Feature","properties":{"geo":{"name":"Salle Jean Jaures"},"_l":[47.1884659526631,-1.54738511534256],"LIBTHEME":"VIE SOCIALE","CODE_POSTAL":44400,"WEB":null,"STATUT":null,"TELEPHONE":null,"THEME":12,"COMMUNE":"REZE","LIBCATEGORIE":"Vie associative","ADRESSE":"40 Rue Jean Jaurès","LIBTYPE":"Salle associative","_IDOBJ":3277,"TYPE":120503,"CATEGORIE":1205},"geometry":{"type":"Point","coordinates":[-1.54738511534256,47.1884659526631]}},{"type":"Feature","properties":{"geo":{"name":"Salle du Seil"},"_l":[47.1857442066867,-1.55820521516867],"LIBTHEME":"VIE SOCIALE","CODE_POSTAL":44400,"WEB":null,"STATUT":null,"TELEPHONE":null,"THEME":12,"COMMUNE":"REZE","LIBCATEGORIE":"Vie associative","ADRESSE":"Allée de Provence","LIBTYPE":"Salle associative","_IDOBJ":3278,"TYPE":120503,"CATEGORIE":1205},"geometry":{"type":"Point","coordinates":[-1.55820521516867,47.1857442066867]}},{"type":"Feature","properties":{"geo":{"name":"Maison de quartier Maison de Isles"},"_l":[47.1955916804334,-1.5780421023699],"LIBTHEME":"VIE SOCIALE","CODE_POSTAL":44400,"WEB":null,"STATUT":null,"TELEPHONE":null,"THEME":12,"COMMUNE":"REZE","LIBCATEGORIE":"Vie associative","ADRESSE":"Allée Claude Choëmet","LIBTYPE":"Maison de quartier","_IDOBJ":3279,"TYPE":120504,"CATEGORIE":1205},"geometry":{"type":"Point","coordinates":[-1.5780421023699,47.1955916804334]}},{"type":"Feature","properties":{"geo":{"name":"Maison de quartier Zola Barbusse"},"_l":[47.1918662822529,-1.55873548112785],"LIBTHEME":"VIE SOCIALE","CODE_POSTAL":44400,"WEB":null,"STATUT":null,"TELEPHONE":null,"THEME":12,"COMMUNE":"REZE","LIBCATEGORIE":"Vie associative","ADRESSE":"Rue Véga","LIBTYPE":"Maison de quartier","_IDOBJ":3280,"TYPE":120504,"CATEGORIE":1205},"geometry":{"type":"Point","coordinates":[-1.55873548112785,47.1918662822529]}},{"type":"Feature","properties":{"geo":{"name":"Centre socioculturel Château"},"_l":[47.1858395253407,-1.55634439342111],"LIBTHEME":"VIE SOCIALE","CODE_POSTAL":44400,"WEB":null,"STATUT":null,"TELEPHONE":null,"THEME":12,"COMMUNE":"REZE","LIBCATEGORIE":"Vie associative","ADRESSE":"Allée de Provence","LIBTYPE":"Centre socioculturel","_IDOBJ":3285,"TYPE":120505,"CATEGORIE":1205},"geometry":{"type":"Point","coordinates":[-1.55634439342111,47.1858395253407]}},{"type":"Feature","properties":{"geo":{"name":"Centre socioculturel Jaunais Blordière"},"_l":[47.18031887161,-1.52714829629871],"LIBTHEME":"VIE SOCIALE","CODE_POSTAL":44400,"WEB":"www.csc-jaunaisblordiere.org","STATUT":null,"TELEPHONE":"02 28 44 40 00","THEME":12,"COMMUNE":"REZE","LIBCATEGORIE":"Vie associative","ADRESSE":"31 Chemin Bleu","LIBTYPE":"Centre socioculturel","_IDOBJ":3286,"TYPE":120505,"CATEGORIE":1205},"geometry":{"type":"Point","coordinates":[-1.52714829629871,47.18031887161]}},{"type":"Feature","properties":{"geo":{"name":"Salle de l'Ile de France"},"_l":[47.1689216823799,-1.46917887748114],"LIBTHEME":"VIE SOCIALE","CODE_POSTAL":44120,"WEB":null,"STATUT":"Public","TELEPHONE":null,"THEME":12,"COMMUNE":"VERTOU","LIBCATEGORIE":"Vie associative","ADRESSE":"22 Rue de l'Ile de France","LIBTYPE":"Salle associative","_IDOBJ":3294,"TYPE":120503,"CATEGORIE":1205},"geometry":{"type":"Point","coordinates":[-1.46917887748114,47.1689216823799]}},{"type":"Feature","properties":{"geo":{"name":"Salle Fougan-de-Mer"},"_l":[47.1830196650693,-1.57960155950605],"LIBTHEME":"VIE SOCIALE","CODE_POSTAL":44340,"WEB":null,"STATUT":null,"TELEPHONE":null,"THEME":12,"COMMUNE":"BOUGUENAIS","LIBCATEGORIE":"Vie associative","ADRESSE":"Rue du Commandant Charcot","LIBTYPE":"Salle associative","_IDOBJ":3304,"TYPE":120503,"CATEGORIE":1205},"geometry":{"type":"Point","coordinates":[-1.57960155950605,47.1830196650693]}},{"type":"Feature","properties":{"geo":{"name":"Salle des Reigniers"},"_l":[47.1373104208787,-1.46527625262711],"LIBTHEME":"VIE SOCIALE","CODE_POSTAL":44120,"WEB":null,"STATUT":null,"TELEPHONE":"02 40 34 76 09","THEME":12,"COMMUNE":"VERTOU","LIBCATEGORIE":"Vie associative","ADRESSE":"2 Place des Reigniers","LIBTYPE":"Salle associative","_IDOBJ":3339,"TYPE":120503,"CATEGORIE":1205},"geometry":{"type":"Point","coordinates":[-1.46527625262711,47.1373104208787]}},{"type":"Feature","properties":{"geo":{"name":"Salle Zodiaque - Casa' Ado / Tridim"},"_l":[47.2173493159961,-1.46581224224964],"LIBTHEME":"VIE SOCIALE","CODE_POSTAL":44115,"WEB":null,"STATUT":null,"TELEPHONE":"02 40 06 19 69","THEME":12,"COMMUNE":"BASSE-GOULAINE","LIBCATEGORIE":"Vie associative","ADRESSE":"Rue de la Poste","LIBTYPE":"Salle associative","_IDOBJ":3356,"TYPE":120503,"CATEGORIE":1205},"geometry":{"type":"Point","coordinates":[-1.46581224224964,47.2173493159961]}},{"type":"Feature","properties":{"geo":{"name":"Salle Paul Bouin"},"_l":[47.2186562171049,-1.46469555590785],"LIBTHEME":"VIE SOCIALE","CODE_POSTAL":44115,"WEB":null,"STATUT":null,"TELEPHONE":"02 40 06 08 27","THEME":12,"COMMUNE":"BASSE-GOULAINE","LIBCATEGORIE":"Vie associative","ADRESSE":"Square de Theley","LIBTYPE":"Salle associative","_IDOBJ":3357,"TYPE":120503,"CATEGORIE":1205},"geometry":{"type":"Point","coordinates":[-1.46469555590785,47.2186562171049]}},{"type":"Feature","properties":{"geo":{"name":"Manoir de Ker Clar"},"_l":[47.21616667748,-1.46646250238647],"LIBTHEME":"VIE SOCIALE","CODE_POSTAL":44115,"WEB":null,"STATUT":null,"TELEPHONE":"02 40 06 28 49","THEME":12,"COMMUNE":"BASSE-GOULAINE","LIBCATEGORIE":"Vie associative","ADRESSE":"4 Rue de la Vieille Cure","LIBTYPE":"Salle associative","_IDOBJ":3359,"TYPE":120503,"CATEGORIE":1205},"geometry":{"type":"Point","coordinates":[-1.46646250238647,47.21616667748]}},{"type":"Feature","properties":{"geo":{"name":"Salle du Vallon"},"_l":[47.2999884472466,-1.49567322683694],"LIBTHEME":"VIE SOCIALE","CODE_POSTAL":44470,"WEB":"www.carquefou.fr","STATUT":null,"TELEPHONE":"02 28 22 21 04","THEME":12,"COMMUNE":"CARQUEFOU","LIBCATEGORIE":"Vie associative","ADRESSE":"31 Rue René Coty","LIBTYPE":"Salle associative","_IDOBJ":3368,"TYPE":120503,"CATEGORIE":1205},"geometry":{"type":"Point","coordinates":[-1.49567322683694,47.2999884472466]}},{"type":"Feature","properties":{"geo":{"name":"Salle du Tertre"},"_l":[47.2633229100588,-1.49790429559748],"LIBTHEME":"VIE SOCIALE","CODE_POSTAL":44470,"WEB":"www.carquefou.fr","STATUT":null,"TELEPHONE":"02 28 22 21 04","THEME":12,"COMMUNE":"CARQUEFOU","LIBCATEGORIE":"Vie associative","ADRESSE":"Impasse de la Hache","LIBTYPE":"Salle associative","_IDOBJ":3372,"TYPE":120503,"CATEGORIE":1205},"geometry":{"type":"Point","coordinates":[-1.49790429559748,47.2633229100588]}},{"type":"Feature","properties":{"geo":{"name":"Espace Jacques Demy"},"_l":[47.2673028642185,-1.54963402606755],"LIBTHEME":"VIE SOCIALE","CODE_POSTAL":44240,"WEB":null,"STATUT":null,"TELEPHONE":"02 40 37 76 16","THEME":12,"COMMUNE":"LA-CHAPELLE-SUR-ERDRE","LIBCATEGORIE":"Vie associative","ADRESSE":"Boulevard Jacques Demy","LIBTYPE":"Salle associative","_IDOBJ":3388,"TYPE":120503,"CATEGORIE":1205},"geometry":{"type":"Point","coordinates":[-1.54963402606755,47.2673028642185]}},{"type":"Feature","properties":{"geo":{"name":"Salle Balavoine"},"_l":[47.306218683618,-1.55433823970525],"LIBTHEME":"VIE SOCIALE","CODE_POSTAL":44240,"WEB":"www.lachapellesurerdre.fr","STATUT":null,"TELEPHONE":"02 51 81 87 10","THEME":12,"COMMUNE":"LA-CHAPELLE-SUR-ERDRE","LIBCATEGORIE":"Vie associative","ADRESSE":"Rue de la Rivière","LIBTYPE":"Salle associative","_IDOBJ":3390,"TYPE":120503,"CATEGORIE":1205},"geometry":{"type":"Point","coordinates":[-1.55433823970525,47.306218683618]}},{"type":"Feature","properties":{"geo":{"name":"Salle Jean Jaurès"},"_l":[47.3010544715756,-1.55138527225259],"LIBTHEME":"VIE SOCIALE","CODE_POSTAL":44240,"WEB":"www.lachapellesurerdre.fr","STATUT":null,"TELEPHONE":"02 51 81 87 10","THEME":12,"COMMUNE":"LA-CHAPELLE-SUR-ERDRE","LIBCATEGORIE":"Vie associative","ADRESSE":"Rue Jean Jaurès","LIBTYPE":"Salle associative","_IDOBJ":3394,"TYPE":120503,"CATEGORIE":1205},"geometry":{"type":"Point","coordinates":[-1.55138527225259,47.3010544715756]}},{"type":"Feature","properties":{"geo":{"name":"Salle Barbara"},"_l":[47.2666321268151,-1.55007021423612],"LIBTHEME":"VIE SOCIALE","CODE_POSTAL":44240,"WEB":"www.lachapellesurerdre.fr","STATUT":null,"TELEPHONE":"02 51 81 87 10","THEME":12,"COMMUNE":"LA-CHAPELLE-SUR-ERDRE","LIBCATEGORIE":"Vie associative","ADRESSE":"Boulevard du Gesvres","LIBTYPE":"Salle associative","_IDOBJ":3395,"TYPE":120503,"CATEGORIE":1205},"geometry":{"type":"Point","coordinates":[-1.55007021423612,47.2666321268151]}},{"type":"Feature","properties":{"geo":{"name":"Salle Jacqueline Auriol"},"_l":[47.1447727144597,-1.69019636151494],"LIBTHEME":"VIE SOCIALE","CODE_POSTAL":44830,"WEB":null,"STATUT":null,"TELEPHONE":null,"THEME":12,"COMMUNE":"BOUAYE","LIBCATEGORIE":"Vie associative","ADRESSE":"Place Guillaume Ricaud","LIBTYPE":"Salle associative","_IDOBJ":3403,"TYPE":120503,"CATEGORIE":1205},"geometry":{"type":"Point","coordinates":[-1.69019636151494,47.1447727144597]}},{"type":"Feature","properties":{"geo":{"name":"Maison des associations Brains"},"_l":[47.1692845752663,-1.72244424513311],"LIBTHEME":"VIE SOCIALE","CODE_POSTAL":44830,"WEB":null,"STATUT":null,"TELEPHONE":"02 40 65 50 47","THEME":12,"COMMUNE":"BRAINS","LIBCATEGORIE":"Vie associative","ADRESSE":"Place de la Mairie","LIBTYPE":"Maison d'associations","_IDOBJ":3409,"TYPE":120501,"CATEGORIE":1205},"geometry":{"type":"Point","coordinates":[-1.72244424513311,47.1692845752663]}},{"type":"Feature","properties":{"geo":{"name":"Salle Théo Pageot"},"_l":[47.1948239306345,-1.64829442011986],"LIBTHEME":"VIE SOCIALE","CODE_POSTAL":44610,"WEB":"www.indre44.fr","STATUT":null,"TELEPHONE":"02 40 85 45 80","THEME":12,"COMMUNE":"INDRE","LIBCATEGORIE":"Vie associative","ADRESSE":"18 Rue Emmanuel Mocquard","LIBTYPE":"Salle associative","_IDOBJ":3424,"TYPE":120503,"CATEGORIE":1205},"geometry":{"type":"Point","coordinates":[-1.64829442011986,47.1948239306345]}},{"type":"Feature","properties":{"geo":{"name":"Maison de la Carrière Bourg - Salles Pacaille et Plan Grenouille"},"_l":[47.2705171821831,-1.62544888041624],"LIBTHEME":"VIE SOCIALE","CODE_POSTAL":44700,"WEB":"www.orvault.fr","STATUT":null,"TELEPHONE":"06 22 39 62 65","THEME":12,"COMMUNE":"ORVAULT","LIBCATEGORIE":"Vie associative","ADRESSE":"11 Rue Marcel Deniau","LIBTYPE":"Salle associative","_IDOBJ":3434,"TYPE":120503,"CATEGORIE":1205},"geometry":{"type":"Point","coordinates":[-1.62544888041624,47.2705171821831]}},{"type":"Feature","properties":{"geo":{"name":"Maison de Quartier Petit Moulin - Salle de la Cressonnière"},"_l":[47.2628020849383,-1.59752345673906],"LIBTHEME":"VIE SOCIALE","CODE_POSTAL":44700,"WEB":"www.orvault.fr","STATUT":null,"TELEPHONE":"02 51 78 31 49","THEME":12,"COMMUNE":"ORVAULT","LIBCATEGORIE":"Vie associative","ADRESSE":"22 Avenue du Petit Moulin","LIBTYPE":"Maison de quartier","_IDOBJ":3440,"TYPE":120504,"CATEGORIE":1205},"geometry":{"type":"Point","coordinates":[-1.59752345673906,47.2628020849383]}},{"type":"Feature","properties":{"geo":{"name":"Maison des Associations Saint Aignan Grand Lieu"},"_l":[47.1234025696866,-1.63170087099837],"LIBTHEME":"VIE SOCIALE","CODE_POSTAL":44860,"WEB":null,"STATUT":null,"TELEPHONE":null,"THEME":12,"COMMUNE":"SAINT-AIGNAN-GRANDLIEU","LIBCATEGORIE":"Vie associative","ADRESSE":"14 Rue des Frères Rousseau","LIBTYPE":"Maison d'associations","_IDOBJ":3466,"TYPE":120501,"CATEGORIE":1205},"geometry":{"type":"Point","coordinates":[-1.63170087099837,47.1234025696866]}},{"type":"Feature","properties":{"geo":{"name":"Salle des fêtes l'Héronnière"},"_l":[47.1222897072707,-1.6352458746048],"LIBTHEME":"VIE SOCIALE","CODE_POSTAL":44860,"WEB":"www.saint-aignan-grandlieu.fr","STATUT":null,"TELEPHONE":"02 40 26 42 77","THEME":12,"COMMUNE":"SAINT-AIGNAN-GRANDLIEU","LIBCATEGORIE":"Vie associative","ADRESSE":"Rue du Pressoir","LIBTYPE":"Salle associative","_IDOBJ":3467,"TYPE":120503,"CATEGORIE":1205},"geometry":{"type":"Point","coordinates":[-1.6352458746048,47.1222897072707]}},{"type":"Feature","properties":{"geo":{"name":"Salle du Grand Fief , Espace Jeunes"},"_l":[47.1239826418762,-1.63007094636808],"LIBTHEME":"VIE SOCIALE","CODE_POSTAL":44860,"WEB":null,"STATUT":null,"TELEPHONE":"02 40 26 44 63","THEME":12,"COMMUNE":"SAINT-AIGNAN-GRANDLIEU","LIBCATEGORIE":"Vie associative","ADRESSE":"41 Rue des Frères Rousseau","LIBTYPE":"Salle associative","_IDOBJ":3469,"TYPE":120503,"CATEGORIE":1205},"geometry":{"type":"Point","coordinates":[-1.63007094636808,47.1239826418762]}},{"type":"Feature","properties":{"geo":{"name":"Salle des fêtes Saint Jean de Boiseau"},"_l":[47.1881060027174,-1.70912612505473],"LIBTHEME":"VIE SOCIALE","CODE_POSTAL":44640,"WEB":null,"STATUT":null,"TELEPHONE":"02 40 65 80 09","THEME":12,"COMMUNE":"SAINT-JEAN-DE-BOISEAU","LIBCATEGORIE":"Vie associative","ADRESSE":"Rue des Pierres Blanches","LIBTYPE":"Salle associative","_IDOBJ":3472,"TYPE":120503,"CATEGORIE":1205},"geometry":{"type":"Point","coordinates":[-1.70912612505473,47.1881060027174]}},{"type":"Feature","properties":{"geo":{"name":"Salle du Verger - local jeune"},"_l":[47.1965955420212,-1.72302392628221],"LIBTHEME":"VIE SOCIALE","CODE_POSTAL":44640,"WEB":null,"STATUT":null,"TELEPHONE":null,"THEME":12,"COMMUNE":"SAINT-JEAN-DE-BOISEAU","LIBCATEGORIE":"Vie associative","ADRESSE":"Rue du Verger","LIBTYPE":"Salle associative","_IDOBJ":3475,"TYPE":120503,"CATEGORIE":1205},"geometry":{"type":"Point","coordinates":[-1.72302392628221,47.1965955420212]}},{"type":"Feature","properties":{"geo":{"name":"Amicale Laïque Saint Jean"},"_l":[47.192769084772,-1.71798808662461],"LIBTHEME":"VIE SOCIALE","CODE_POSTAL":44640,"WEB":null,"STATUT":null,"TELEPHONE":"02 40 65 85 98","THEME":12,"COMMUNE":"SAINT-JEAN-DE-BOISEAU","LIBCATEGORIE":"Vie associative","ADRESSE":"22B Rue Charles De Gaulle","LIBTYPE":"Maison d'associations","_IDOBJ":3476,"TYPE":120501,"CATEGORIE":1205},"geometry":{"type":"Point","coordinates":[-1.71798808662461,47.192769084772]}},{"type":"Feature","properties":{"geo":{"name":"Salle polyvalente Saint Leger les Vignes"},"_l":[47.1358455029618,-1.72966292891887],"LIBTHEME":"VIE SOCIALE","CODE_POSTAL":44710,"WEB":null,"STATUT":null,"TELEPHONE":"02 40 05 68 07","THEME":12,"COMMUNE":"SAINT-LEGER-LES-VIGNES","LIBCATEGORIE":"Vie associative","ADRESSE":"Rue de Nantes","LIBTYPE":"Salle associative","_IDOBJ":3481,"TYPE":120503,"CATEGORIE":1205},"geometry":{"type":"Point","coordinates":[-1.72966292891887,47.1358455029618]}},{"type":"Feature","properties":{"geo":{"name":"Salle Elisa Mercoeur"},"_l":[47.2507001006671,-1.48527681131947],"LIBTHEME":"VIE SOCIALE","CODE_POSTAL":44980,"WEB":null,"STATUT":null,"TELEPHONE":null,"THEME":12,"COMMUNE":"SAINTE-LUCE-SUR-LOIRE","LIBCATEGORIE":"Vie associative","ADRESSE":"27 Rue Jean Moulin","LIBTYPE":"Salle associative","_IDOBJ":3493,"TYPE":120503,"CATEGORIE":1205},"geometry":{"type":"Point","coordinates":[-1.48527681131947,47.2507001006671]}},{"type":"Feature","properties":{"geo":{"name":"Salle Julien Eon"},"_l":[47.2504589041259,-1.48510032132654],"LIBTHEME":"VIE SOCIALE","CODE_POSTAL":44980,"WEB":null,"STATUT":null,"TELEPHONE":null,"THEME":12,"COMMUNE":"SAINTE-LUCE-SUR-LOIRE","LIBCATEGORIE":"Vie associative","ADRESSE":"27 Rue Jean Moulin","LIBTYPE":"Salle associative","_IDOBJ":3494,"TYPE":120503,"CATEGORIE":1205},"geometry":{"type":"Point","coordinates":[-1.48510032132654,47.2504589041259]}},{"type":"Feature","properties":{"geo":{"name":"Salle polyvalente Hippolyte Derouet"},"_l":[47.1479724059462,-1.52315009551133],"LIBTHEME":"VIE SOCIALE","CODE_POSTAL":44840,"WEB":null,"STATUT":null,"TELEPHONE":"02 40 05 72 89","THEME":12,"COMMUNE":"LES-SORINIERES","LIBCATEGORIE":"Vie associative","ADRESSE":"Rue Hippolyte Derouet","LIBTYPE":"Salle associative","_IDOBJ":3496,"TYPE":120503,"CATEGORIE":1205},"geometry":{"type":"Point","coordinates":[-1.52315009551133,47.1479724059462]}},{"type":"Feature","properties":{"geo":{"name":"Complexe Jeanne d' Arc"},"_l":[47.148663498815,-1.52918492704252],"LIBTHEME":"VIE SOCIALE","CODE_POSTAL":44840,"WEB":null,"STATUT":null,"TELEPHONE":"02 40 31 29 00","THEME":12,"COMMUNE":"LES-SORINIERES","LIBCATEGORIE":"Vie associative","ADRESSE":"11 Rue des Sports","LIBTYPE":"Salle associative","_IDOBJ":3499,"TYPE":120503,"CATEGORIE":1205},"geometry":{"type":"Point","coordinates":[-1.52918492704252,47.148663498815]}},{"type":"Feature","properties":{"geo":{"name":"Village associatif du Patisseau"},"_l":[47.2448736499032,-1.47773437220141],"LIBTHEME":"VIE SOCIALE","CODE_POSTAL":44980,"WEB":null,"STATUT":null,"TELEPHONE":null,"THEME":12,"COMMUNE":"SAINTE-LUCE-SUR-LOIRE","LIBCATEGORIE":"Vie associative","ADRESSE":"Rue de l'Erdre","LIBTYPE":"Pôle associatif","_IDOBJ":3506,"TYPE":120502,"CATEGORIE":1205},"geometry":{"type":"Point","coordinates":[-1.47773437220141,47.2448736499032]}},{"type":"Feature","properties":{"geo":{"name":"Salle Eugène Lévêque"},"_l":[47.1453891610676,-1.68991948793243],"LIBTHEME":"VIE SOCIALE","CODE_POSTAL":44830,"WEB":null,"STATUT":null,"TELEPHONE":null,"THEME":12,"COMMUNE":"BOUAYE","LIBCATEGORIE":"Vie associative","ADRESSE":"Place Guillaume Ricaud","LIBTYPE":"Salle associative","_IDOBJ":3509,"TYPE":120503,"CATEGORIE":1205},"geometry":{"type":"Point","coordinates":[-1.68991948793243,47.1453891610676]}},{"type":"Feature","properties":{"geo":{"name":"Salle Union de Brains"},"_l":[47.1662540404745,-1.72052761005248],"LIBTHEME":"VIE SOCIALE","CODE_POSTAL":44830,"WEB":null,"STATUT":null,"TELEPHONE":null,"THEME":12,"COMMUNE":"BRAINS","LIBCATEGORIE":"Vie associative","ADRESSE":"Rue du Plessis","LIBTYPE":"Salle associative","_IDOBJ":3514,"TYPE":120503,"CATEGORIE":1205},"geometry":{"type":"Point","coordinates":[-1.72052761005248,47.1662540404745]}},{"type":"Feature","properties":{"geo":{"name":"Maison des Jeunes Brains"},"_l":[47.1699321872451,-1.72084815222186],"LIBTHEME":"VIE SOCIALE","CODE_POSTAL":44830,"WEB":null,"STATUT":null,"TELEPHONE":"02 40 65 46 75","THEME":12,"COMMUNE":"BRAINS","LIBCATEGORIE":"Vie associative","ADRESSE":"Rue de la Pilaudière","LIBTYPE":"Salle associative","_IDOBJ":3515,"TYPE":120503,"CATEGORIE":1205},"geometry":{"type":"Point","coordinates":[-1.72084815222186,47.1699321872451]}},{"type":"Feature","properties":{"geo":{"name":"Salle du Mortier"},"_l":[47.1695524336595,-1.72772950022653],"LIBTHEME":"VIE SOCIALE","CODE_POSTAL":44830,"WEB":null,"STATUT":null,"TELEPHONE":"02 40 65 51 30","THEME":12,"COMMUNE":"BRAINS","LIBCATEGORIE":"Vie associative","ADRESSE":"7 Rue Jules Verne","LIBTYPE":"Salle associative","_IDOBJ":3516,"TYPE":120503,"CATEGORIE":1205},"geometry":{"type":"Point","coordinates":[-1.72772950022653,47.1695524336595]}},{"type":"Feature","properties":{"geo":{"name":"Salle polyvalente Odette Pujol"},"_l":[47.2706897678864,-1.4403302170393],"LIBTHEME":"VIE SOCIALE","CODE_POSTAL":44470,"WEB":null,"STATUT":null,"TELEPHONE":null,"THEME":12,"COMMUNE":"THOUARE-SUR-LOIRE","LIBCATEGORIE":"Vie associative","ADRESSE":"9 Rue des Ecoles","LIBTYPE":"Salle associative","_IDOBJ":3519,"TYPE":120503,"CATEGORIE":1205},"geometry":{"type":"Point","coordinates":[-1.4403302170393,47.2706897678864]}},{"type":"Feature","properties":{"geo":{"name":"Pôle associatif Sully"},"_l":[47.2230548620963,-1.54944014045135],"LIBTHEME":"VIE SOCIALE","CODE_POSTAL":44000,"WEB":null,"STATUT":null,"TELEPHONE":null,"THEME":12,"COMMUNE":"NANTES","LIBCATEGORIE":"Vie associative","ADRESSE":"7 Rue Henri Cochard","LIBTYPE":"Pôle associatif","_IDOBJ":3536,"TYPE":120502,"CATEGORIE":1205},"geometry":{"type":"Point","coordinates":[-1.54944014045135,47.2230548620963]}},{"type":"Feature","properties":{"geo":{"name":"Pôle associatif Constitution"},"_l":[47.2063803134234,-1.58952330528559],"LIBTHEME":"VIE SOCIALE","CODE_POSTAL":44100,"WEB":null,"STATUT":null,"TELEPHONE":"02 40 43 33 36","THEME":12,"COMMUNE":"NANTES","LIBCATEGORIE":"Vie associative","ADRESSE":"8 Rue de la Constitution","LIBTYPE":"Pôle associatif","_IDOBJ":3537,"TYPE":120502,"CATEGORIE":1205},"geometry":{"type":"Point","coordinates":[-1.58952330528559,47.2063803134234]}},{"type":"Feature","properties":{"geo":{"name":"Maison de quartier de Madeleine Champ de Mars"},"_l":[47.2128545878693,-1.54805089357248],"LIBTHEME":"VIE SOCIALE","CODE_POSTAL":44000,"WEB":null,"STATUT":null,"TELEPHONE":"02 40 20 57 29","THEME":12,"COMMUNE":"NANTES","LIBCATEGORIE":"Vie associative","ADRESSE":"22 Rue Emile Péhant","LIBTYPE":"Maison de quartier","_IDOBJ":3538,"TYPE":120504,"CATEGORIE":1205},"geometry":{"type":"Point","coordinates":[-1.54805089357248,47.2128545878693]}},{"type":"Feature","properties":{"geo":{"name":"Salle municipale Ampère"},"_l":[47.2123691797382,-1.58469433763482],"LIBTHEME":"VIE SOCIALE","CODE_POSTAL":44100,"WEB":"www.nantes.fr","STATUT":null,"TELEPHONE":"02 40 95 20 91","THEME":12,"COMMUNE":"NANTES","LIBCATEGORIE":"Vie associative","ADRESSE":"20 Rue Ampère","LIBTYPE":"Salle associative","_IDOBJ":3541,"TYPE":120503,"CATEGORIE":1205},"geometry":{"type":"Point","coordinates":[-1.58469433763482,47.2123691797382]}},{"type":"Feature","properties":{"geo":{"name":"Salle municipale Manu Gym"},"_l":[47.2195740319259,-1.53647050423206],"LIBTHEME":"VIE SOCIALE","CODE_POSTAL":44000,"WEB":"www.nantes.fr","STATUT":null,"TELEPHONE":"02 40 41 68 65","THEME":12,"COMMUNE":"NANTES","LIBCATEGORIE":"Vie associative","ADRESSE":"4B Cour Jules Durand","LIBTYPE":"Salle associative","_IDOBJ":3542,"TYPE":120503,"CATEGORIE":1205},"geometry":{"type":"Point","coordinates":[-1.53647050423206,47.2195740319259]}},{"type":"Feature","properties":{"geo":{"name":"Salle municipale Monte au Ciel"},"_l":[47.217918665709,-1.58572626793078],"LIBTHEME":"VIE SOCIALE","CODE_POSTAL":44100,"WEB":"www.nantes.fr","STATUT":null,"TELEPHONE":null,"THEME":12,"COMMUNE":"NANTES","LIBCATEGORIE":"Vie associative","ADRESSE":"25 Rue Monte Au Ciel","LIBTYPE":"Salle associative","_IDOBJ":3544,"TYPE":120503,"CATEGORIE":1205},"geometry":{"type":"Point","coordinates":[-1.58572626793078,47.217918665709]}},{"type":"Feature","properties":{"geo":{"name":"Pôle associatif Port Boyer"},"_l":[47.2418956597693,-1.53906764030366],"LIBTHEME":"VIE SOCIALE","CODE_POSTAL":44300,"WEB":null,"STATUT":null,"TELEPHONE":"02 40 93 85 36","THEME":12,"COMMUNE":"NANTES","LIBCATEGORIE":"Vie associative","ADRESSE":"80 Rue du Port Boyer","LIBTYPE":"Pôle associatif","_IDOBJ":3545,"TYPE":120502,"CATEGORIE":1205},"geometry":{"type":"Point","coordinates":[-1.53906764030366,47.2418956597693]}},{"type":"Feature","properties":{"geo":{"name":"Centre socioculturel Malakoff Maison des Haubans - ACCOORD"},"_l":[47.2142531084096,-1.53037644621053],"LIBTHEME":"VIE SOCIALE","CODE_POSTAL":44000,"WEB":"www.accoord.fr","STATUT":null,"TELEPHONE":"02 40 47 70 53","THEME":12,"COMMUNE":"NANTES","LIBCATEGORIE":"Vie associative","ADRESSE":"1B Boulevard de Berlin","LIBTYPE":"Centre socioculturel","_IDOBJ":3546,"TYPE":120505,"CATEGORIE":1205},"geometry":{"type":"Point","coordinates":[-1.53037644621053,47.2142531084096]}},{"type":"Feature","properties":{"geo":{"name":"Maison de quartier le Dix"},"_l":[47.2022300522966,-1.57818916312464],"LIBTHEME":"VIE SOCIALE","CODE_POSTAL":44100,"WEB":null,"STATUT":null,"TELEPHONE":"02 40 69 72 24","THEME":12,"COMMUNE":"NANTES","LIBCATEGORIE":"Vie associative","ADRESSE":"10 Place des Garennes","LIBTYPE":"Maison de quartier","_IDOBJ":3547,"TYPE":120504,"CATEGORIE":1205},"geometry":{"type":"Point","coordinates":[-1.57818916312464,47.2022300522966]}},{"type":"Feature","properties":{"geo":{"name":"Salle municipale Port Durand"},"_l":[47.2515304334372,-1.53290297561621],"LIBTHEME":"VIE SOCIALE","CODE_POSTAL":44300,"WEB":"www.nantes.fr","STATUT":null,"TELEPHONE":"02 40 50 38 57","THEME":12,"COMMUNE":"NANTES","LIBCATEGORIE":"Vie associative","ADRESSE":"42 Rue Aimé Barthoulot","LIBTYPE":"Salle associative","_IDOBJ":3572,"TYPE":120503,"CATEGORIE":1205},"geometry":{"type":"Point","coordinates":[-1.53290297561621,47.2515304334372]}},{"type":"Feature","properties":{"geo":{"name":"Foyer Marcel Herbreteau"},"_l":[47.1435185221042,-1.69249121824662],"LIBTHEME":"VIE SOCIALE","CODE_POSTAL":44830,"WEB":null,"STATUT":null,"TELEPHONE":null,"THEME":12,"COMMUNE":"BOUAYE","LIBCATEGORIE":"Vie associative","ADRESSE":"Place du Bois Jacques","LIBTYPE":"Salle associative","_IDOBJ":3596,"TYPE":120503,"CATEGORIE":1205},"geometry":{"type":"Point","coordinates":[-1.69249121824662,47.1435185221042]}},{"type":"Feature","properties":{"geo":{"name":"Salle Mille-Club"},"_l":[47.2164707431572,-1.68520333262537],"LIBTHEME":"VIE SOCIALE","CODE_POSTAL":44220,"WEB":null,"STATUT":null,"TELEPHONE":null,"THEME":12,"COMMUNE":"COUERON","LIBCATEGORIE":"Vie associative","ADRESSE":"Rue de la Corbardière","LIBTYPE":"Salle associative","_IDOBJ":3597,"TYPE":120503,"CATEGORIE":1205},"geometry":{"type":"Point","coordinates":[-1.68520333262537,47.2164707431572]}},{"type":"Feature","properties":{"geo":{"name":"Salle Fraternité"},"_l":[47.2105439720934,-1.72894031541295],"LIBTHEME":"VIE SOCIALE","CODE_POSTAL":44220,"WEB":null,"STATUT":null,"TELEPHONE":"02 40 38 58 82","THEME":12,"COMMUNE":"COUERON","LIBCATEGORIE":"Vie associative","ADRESSE":"Place de la Commune de Paris","LIBTYPE":"Salle associative","_IDOBJ":3599,"TYPE":120503,"CATEGORIE":1205},"geometry":{"type":"Point","coordinates":[-1.72894031541295,47.2105439720934]}},{"type":"Feature","properties":{"geo":{"name":"Maison de quartier l'Hopitau"},"_l":[47.2696601206314,-1.55267469483753],"LIBTHEME":"VIE SOCIALE","CODE_POSTAL":44240,"WEB":null,"STATUT":null,"TELEPHONE":null,"THEME":12,"COMMUNE":"LA-CHAPELLE-SUR-ERDRE","LIBCATEGORIE":"Vie associative","ADRESSE":"Boulevard de l'Hopitau","LIBTYPE":"Maison de quartier","_IDOBJ":3613,"TYPE":120504,"CATEGORIE":1205},"geometry":{"type":"Point","coordinates":[-1.55267469483753,47.2696601206314]}},{"type":"Feature","properties":{"geo":{"name":"Centre socioculturel du Bout-des-Pavés - ACCOORD"},"_l":[47.2616815052938,-1.57319592325957],"LIBTHEME":"VIE SOCIALE","CODE_POSTAL":44300,"WEB":"www.accoord.fr","STATUT":null,"TELEPHONE":"02 40 40 19 16","THEME":12,"COMMUNE":"NANTES","LIBCATEGORIE":"Vie associative","ADRESSE":"3 Rue Eugène Thomas","LIBTYPE":"Centre socioculturel","_IDOBJ":3624,"TYPE":120505,"CATEGORIE":1205},"geometry":{"type":"Point","coordinates":[-1.57319592325957,47.2616815052938]}},{"type":"Feature","properties":{"geo":{"name":"Salle festive Nantes Erdre"},"_l":[47.2541102418745,-1.53133594437261],"LIBTHEME":"VIE SOCIALE","CODE_POSTAL":44300,"WEB":"www.nantes.fr","STATUT":null,"TELEPHONE":"02 40 50 05 23","THEME":12,"COMMUNE":"NANTES","LIBCATEGORIE":"Vie associative","ADRESSE":"251 Route de Saint Joseph","LIBTYPE":"Salle associative","_IDOBJ":3643,"TYPE":120503,"CATEGORIE":1205},"geometry":{"type":"Point","coordinates":[-1.53133594437261,47.2541102418745]}},{"type":"Feature","properties":{"geo":{"name":"Salle festive Nantes Nord"},"_l":[47.2636609919503,-1.58086695325098],"LIBTHEME":"VIE SOCIALE","CODE_POSTAL":44300,"WEB":"www.nantes.fr","STATUT":null,"TELEPHONE":"02 40 76 16 02","THEME":12,"COMMUNE":"NANTES","LIBCATEGORIE":"Vie associative","ADRESSE":"73 Avenue du Bout des Landes","LIBTYPE":"Salle associative","_IDOBJ":3645,"TYPE":120503,"CATEGORIE":1205},"geometry":{"type":"Point","coordinates":[-1.58086695325098,47.2636609919503]}},{"type":"Feature","properties":{"geo":{"name":"Salles associatives - Espace Beautour"},"_l":[47.1848228675236,-1.50554188743339],"LIBTHEME":"VIE SOCIALE","CODE_POSTAL":44120,"WEB":null,"STATUT":null,"TELEPHONE":null,"THEME":12,"COMMUNE":"VERTOU","LIBCATEGORIE":"Vie associative","ADRESSE":"Place de la Poste","LIBTYPE":"Pôle associatif","_IDOBJ":3785,"TYPE":120502,"CATEGORIE":1205},"geometry":{"type":"Point","coordinates":[-1.50554188743339,47.1848228675236]}},{"type":"Feature","properties":{"geo":{"name":"Centre socioculturel de la Bottière - ACCOORD"},"_l":[47.236189040138,-1.51933210283112],"LIBTHEME":"VIE SOCIALE","CODE_POSTAL":44300,"WEB":"www.accoord.fr","STATUT":null,"TELEPHONE":"02 40 49 62 20","THEME":12,"COMMUNE":"NANTES","LIBCATEGORIE":"Vie associative","ADRESSE":"147 Route de Sainte Luce","LIBTYPE":"Centre socioculturel","_IDOBJ":3962,"TYPE":120505,"CATEGORIE":1205},"geometry":{"type":"Point","coordinates":[-1.51933210283112,47.236189040138]}},{"type":"Feature","properties":{"geo":{"name":"La Fabrique Dervallières"},"_l":[47.2249028274565,-1.59118446310868],"LIBTHEME":"VIE SOCIALE","CODE_POSTAL":44100,"WEB":"www.lafabrique.nantes.fr","STATUT":null,"TELEPHONE":null,"THEME":12,"COMMUNE":"NANTES","LIBCATEGORIE":"Vie associative","ADRESSE":"19 Rue Jean Marc Nattier","LIBTYPE":"Pôle associatif","_IDOBJ":3971,"TYPE":120502,"CATEGORIE":1205},"geometry":{"type":"Point","coordinates":[-1.59118446310868,47.2249028274565]}},{"type":"Feature","properties":{"geo":{"name":"Maison de la Mer"},"_l":[47.2097452977059,-1.56396022300545],"LIBTHEME":"VIE SOCIALE","CODE_POSTAL":44000,"WEB":null,"STATUT":null,"TELEPHONE":null,"THEME":12,"COMMUNE":"NANTES","LIBCATEGORIE":"Vie associative","ADRESSE":"55 Quai de la Fosse","LIBTYPE":"Pôle associatif","_IDOBJ":3976,"TYPE":120502,"CATEGORIE":1205},"geometry":{"type":"Point","coordinates":[-1.56396022300545,47.2097452977059]}},{"type":"Feature","properties":{"geo":{"name":"Pôle associatif Michel Rocher"},"_l":[47.2063786085061,-1.54970736762735],"LIBTHEME":"VIE SOCIALE","CODE_POSTAL":44200,"WEB":null,"STATUT":null,"TELEPHONE":null,"THEME":12,"COMMUNE":"NANTES","LIBCATEGORIE":"Vie associative","ADRESSE":"14 Rue Michel Rocher","LIBTYPE":"Pôle associatif","_IDOBJ":3977,"TYPE":120502,"CATEGORIE":1205},"geometry":{"type":"Point","coordinates":[-1.54970736762735,47.2063786085061]}},{"type":"Feature","properties":{"geo":{"name":"Pôle associatif Quai de Versailles"},"_l":[47.2242560719617,-1.55396456000027],"LIBTHEME":"VIE SOCIALE","CODE_POSTAL":44000,"WEB":null,"STATUT":null,"TELEPHONE":null,"THEME":12,"COMMUNE":"NANTES","LIBCATEGORIE":"Vie associative","ADRESSE":"25 Quai de Versailles","LIBTYPE":"Pôle associatif","_IDOBJ":3978,"TYPE":120502,"CATEGORIE":1205},"geometry":{"type":"Point","coordinates":[-1.55396456000027,47.2242560719617]}},{"type":"Feature","properties":{"geo":{"name":"Pôle associatif Vasco de Gama"},"_l":[47.2186370217131,-1.52078747797083],"LIBTHEME":"VIE SOCIALE","CODE_POSTAL":44000,"WEB":null,"STATUT":null,"TELEPHONE":"02 40 47 64 66","THEME":12,"COMMUNE":"NANTES","LIBCATEGORIE":"Vie associative","ADRESSE":"9 Rue de la Révolution des Oeillets","LIBTYPE":"Pôle associatif","_IDOBJ":3979,"TYPE":120502,"CATEGORIE":1205},"geometry":{"type":"Point","coordinates":[-1.52078747797083,47.2186370217131]}},{"type":"Feature","properties":{"geo":{"name":"Salle municipale La Prime"},"_l":[47.2319800655252,-1.5774643798497],"LIBTHEME":"VIE SOCIALE","CODE_POSTAL":44100,"WEB":"www.nantes.fr","STATUT":null,"TELEPHONE":"02 40 08 51 55","THEME":12,"COMMUNE":"NANTES","LIBCATEGORIE":"Vie associative","ADRESSE":"5 Place Alexandre Vincent","LIBTYPE":"Salle associative","_IDOBJ":3980,"TYPE":120503,"CATEGORIE":1205},"geometry":{"type":"Point","coordinates":[-1.5774643798497,47.2319800655252]}},{"type":"Feature","properties":{"geo":{"name":"Salle municipale de la maison ouvrière des Batignolles"},"_l":[47.2544979958393,-1.52696286323624],"LIBTHEME":"VIE SOCIALE","CODE_POSTAL":44300,"WEB":"www.nantes.fr","STATUT":null,"TELEPHONE":"02 40 50 52 74","THEME":12,"COMMUNE":"NANTES","LIBCATEGORIE":"Vie associative","ADRESSE":"30 Boulevard des Batignolles","LIBTYPE":"Salle associative","_IDOBJ":3981,"TYPE":120503,"CATEGORIE":1205},"geometry":{"type":"Point","coordinates":[-1.52696286323624,47.2544979958393]}},{"type":"Feature","properties":{"geo":{"name":"Salle municipale du Perray"},"_l":[47.2473516887521,-1.51182985567662],"LIBTHEME":"VIE SOCIALE","CODE_POSTAL":44300,"WEB":"www.nantes.fr","STATUT":null,"TELEPHONE":"02 28 23 51 63","THEME":12,"COMMUNE":"NANTES","LIBCATEGORIE":"Vie associative","ADRESSE":"85 Rue du Perray","LIBTYPE":"Salle associative","_IDOBJ":3982,"TYPE":120503,"CATEGORIE":1205},"geometry":{"type":"Point","coordinates":[-1.51182985567662,47.2473516887521]}},{"type":"Feature","properties":{"geo":{"name":"Salle municipale Charles Perron"},"_l":[47.2249128780838,-1.6013505001932],"LIBTHEME":"VIE SOCIALE","CODE_POSTAL":44100,"WEB":"www.nantes.fr","STATUT":null,"TELEPHONE":"02 40 46 03 70","THEME":12,"COMMUNE":"NANTES","LIBCATEGORIE":"Vie associative","ADRESSE":"12 Rue Charles Perron","LIBTYPE":"Salle associative","_IDOBJ":3983,"TYPE":120503,"CATEGORIE":1205},"geometry":{"type":"Point","coordinates":[-1.6013505001932,47.2249128780838]}},{"type":"Feature","properties":{"geo":{"name":"Maison de quartier du Breil - ACCOORD"},"_l":[47.2299387545376,-1.58646913125923],"LIBTHEME":"VIE SOCIALE","CODE_POSTAL":44100,"WEB":null,"STATUT":null,"TELEPHONE":"02 40 40 69 69","THEME":12,"COMMUNE":"NANTES","LIBCATEGORIE":"Vie associative","ADRESSE":"52 Rue du Breil","LIBTYPE":"Maison de quartier","_IDOBJ":3985,"TYPE":120504,"CATEGORIE":1205},"geometry":{"type":"Point","coordinates":[-1.58646913125923,47.2299387545376]}},{"type":"Feature","properties":{"geo":{"name":"Centre socioculturel du Centre-Ville - ACCOORD"},"_l":[47.2194336838335,-1.56077622441249],"LIBTHEME":"VIE SOCIALE","CODE_POSTAL":44000,"WEB":"www.accoord.fr","STATUT":null,"TELEPHONE":"02 40 35 21 21","THEME":12,"COMMUNE":"NANTES","LIBCATEGORIE":"Vie associative","ADRESSE":"9 Rue du Trépied","LIBTYPE":"Centre socioculturel","_IDOBJ":3986,"TYPE":120505,"CATEGORIE":1205},"geometry":{"type":"Point","coordinates":[-1.56077622441249,47.2194336838335]}},{"type":"Feature","properties":{"geo":{"name":"Centre socioculturel du Clos Toreau Maison des Confluences - ACCOORD"},"_l":[47.194434582604,-1.52834886492618],"LIBTHEME":"VIE SOCIALE","CODE_POSTAL":44200,"WEB":"www.accoord.fr","STATUT":null,"TELEPHONE":"02 40 34 19 27","THEME":12,"COMMUNE":"NANTES","LIBCATEGORIE":"Vie associative","ADRESSE":"4 Place du Muguet Nantais","LIBTYPE":"Centre socioculturel","_IDOBJ":4078,"TYPE":120505,"CATEGORIE":1205},"geometry":{"type":"Point","coordinates":[-1.52834886492618,47.194434582604]}},{"type":"Feature","properties":{"geo":{"name":"Centre socioculturel du Tillay"},"_l":[47.2305521430457,-1.60555016186573],"LIBTHEME":"VIE SOCIALE","CODE_POSTAL":44800,"WEB":"www.csctillay.fr","STATUT":null,"TELEPHONE":"02 28 25 26 50","THEME":12,"COMMUNE":"ST-HERBLAIN","LIBCATEGORIE":"Vie associative","ADRESSE":"11 Rue de Tillay","LIBTYPE":"Centre socioculturel","_IDOBJ":4147,"TYPE":120505,"CATEGORIE":1205},"geometry":{"type":"Point","coordinates":[-1.60555016186573,47.2305521430457]}},{"type":"Feature","properties":{"geo":{"name":"Local Mario Pigat"},"_l":[47.1931076123138,-1.64764480990099],"LIBTHEME":"VIE SOCIALE","CODE_POSTAL":44610,"WEB":null,"STATUT":null,"TELEPHONE":null,"THEME":12,"COMMUNE":"INDRE","LIBCATEGORIE":"Vie associative","ADRESSE":"Esplanade Alphonse Guihot","LIBTYPE":"Salle associative","_IDOBJ":4169,"TYPE":120503,"CATEGORIE":1205},"geometry":{"type":"Point","coordinates":[-1.64764480990099,47.1931076123138]}},{"type":"Feature","properties":{"geo":{"name":"Salle Manufet"},"_l":[47.1477549899814,-1.52283012294771],"LIBTHEME":"VIE SOCIALE","CODE_POSTAL":44840,"WEB":null,"STATUT":null,"TELEPHONE":null,"THEME":12,"COMMUNE":"LES-SORINIERES","LIBCATEGORIE":"Vie associative","ADRESSE":"Rue Hippolyte Derouet","LIBTYPE":"Salle associative","_IDOBJ":4175,"TYPE":120503,"CATEGORIE":1205},"geometry":{"type":"Point","coordinates":[-1.52283012294771,47.1477549899814]}},{"type":"Feature","properties":{"geo":{"name":"Salle Fernand Maugeais"},"_l":[47.1458049890104,-1.52303237317339],"LIBTHEME":"VIE SOCIALE","CODE_POSTAL":44840,"WEB":null,"STATUT":null,"TELEPHONE":"02 40 31 24 70","THEME":12,"COMMUNE":"LES-SORINIERES","LIBCATEGORIE":"Vie associative","ADRESSE":"57 Rue des Sports","LIBTYPE":"Salle associative","_IDOBJ":4183,"TYPE":120503,"CATEGORIE":1205},"geometry":{"type":"Point","coordinates":[-1.52303237317339,47.1458049890104]}},{"type":"Feature","properties":{"geo":{"name":"Centre associatif et culturel Espace Camille Claudel"},"_l":[47.1489208785063,-1.53336836038543],"LIBTHEME":"VIE SOCIALE","CODE_POSTAL":44840,"WEB":null,"STATUT":null,"TELEPHONE":null,"THEME":12,"COMMUNE":"LES-SORINIERES","LIBCATEGORIE":"Vie associative","ADRESSE":"20 Rue du Général De Gaulle","LIBTYPE":"Salle associative","_IDOBJ":4184,"TYPE":120503,"CATEGORIE":1205},"geometry":{"type":"Point","coordinates":[-1.53336836038543,47.1489208785063]}},{"type":"Feature","properties":{"geo":{"name":"Maison communale de quartier Les Vignes"},"_l":[47.1577812757672,-1.52279773626979],"LIBTHEME":"VIE SOCIALE","CODE_POSTAL":44840,"WEB":null,"STATUT":null,"TELEPHONE":null,"THEME":12,"COMMUNE":"LES-SORINIERES","LIBCATEGORIE":"Vie associative","ADRESSE":"1 Rue des Pays de la Loire","LIBTYPE":"Maison de quartier","_IDOBJ":4185,"TYPE":120504,"CATEGORIE":1205},"geometry":{"type":"Point","coordinates":[-1.52279773626979,47.1577812757672]}},{"type":"Feature","properties":{"geo":{"name":"Salle Homberg"},"_l":[47.2697677306072,-1.44254989657322],"LIBTHEME":"VIE SOCIALE","CODE_POSTAL":44470,"WEB":null,"STATUT":null,"TELEPHONE":null,"THEME":12,"COMMUNE":"THOUARE-SUR-LOIRE","LIBCATEGORIE":"Vie associative","ADRESSE":"Rue de Homberg","LIBTYPE":"Salle associative","_IDOBJ":4218,"TYPE":120503,"CATEGORIE":1205},"geometry":{"type":"Point","coordinates":[-1.44254989657322,47.2697677306072]}},{"type":"Feature","properties":{"geo":{"name":"Salle des Rouleaux"},"_l":[47.2027030660096,-1.46725383884799],"LIBTHEME":"VIE SOCIALE","CODE_POSTAL":44115,"WEB":null,"STATUT":null,"TELEPHONE":null,"THEME":12,"COMMUNE":"BASSE-GOULAINE","LIBCATEGORIE":"Vie associative","ADRESSE":"Rue Simone De Beauvoir","LIBTYPE":"Salle associative","_IDOBJ":4228,"TYPE":120503,"CATEGORIE":1205},"geometry":{"type":"Point","coordinates":[-1.46725383884799,47.2027030660096]}},{"type":"Feature","properties":{"geo":{"name":"Salle Saint Brice"},"_l":[47.2152500043389,-1.46481897465959],"LIBTHEME":"VIE SOCIALE","CODE_POSTAL":44115,"WEB":null,"STATUT":null,"TELEPHONE":null,"THEME":12,"COMMUNE":"BASSE-GOULAINE","LIBCATEGORIE":"Vie associative","ADRESSE":"Place Saint Brice","LIBTYPE":"Salle associative","_IDOBJ":4229,"TYPE":120503,"CATEGORIE":1205},"geometry":{"type":"Point","coordinates":[-1.46481897465959,47.2152500043389]}},{"type":"Feature","properties":{"geo":{"name":"Salle Georges Brassens"},"_l":[47.183720863906,-1.67679378993792],"LIBTHEME":"VIE SOCIALE","CODE_POSTAL":44620,"WEB":"www.ville-lamontagne.fr","STATUT":null,"TELEPHONE":null,"THEME":12,"COMMUNE":"LA-MONTAGNE","LIBCATEGORIE":"Vie associative","ADRESSE":"Rue de la Gaudinière","LIBTYPE":"Salle associative","_IDOBJ":4238,"TYPE":120503,"CATEGORIE":1205},"geometry":{"type":"Point","coordinates":[-1.67679378993792,47.183720863906]}},{"type":"Feature","properties":{"geo":{"name":"Salle Le Chalet"},"_l":[47.1872789684586,-1.68668861071765],"LIBTHEME":"VIE SOCIALE","CODE_POSTAL":44620,"WEB":null,"STATUT":null,"TELEPHONE":null,"THEME":12,"COMMUNE":"LA-MONTAGNE","LIBCATEGORIE":"Vie associative","ADRESSE":"153 Route de Bouguenais","LIBTYPE":"Salle associative","_IDOBJ":4240,"TYPE":120503,"CATEGORIE":1205},"geometry":{"type":"Point","coordinates":[-1.68668861071765,47.1872789684586]}},{"type":"Feature","properties":{"geo":{"name":"Espace des Treilles"},"_l":[47.1667500876112,-1.47304853281341],"LIBTHEME":"VIE SOCIALE","CODE_POSTAL":44120,"WEB":"www.vertou.fr","STATUT":null,"TELEPHONE":null,"THEME":12,"COMMUNE":"VERTOU","LIBCATEGORIE":"Vie associative","ADRESSE":"6B Rue Aristide Briand","LIBTYPE":"Salle associative","_IDOBJ":4250,"TYPE":120503,"CATEGORIE":1205},"geometry":{"type":"Point","coordinates":[-1.47304853281341,47.1667500876112]}},{"type":"Feature","properties":{"geo":{"name":"Salles associatives du Loiry"},"_l":[47.1624690014897,-1.47729141841216],"LIBTHEME":"VIE SOCIALE","CODE_POSTAL":44120,"WEB":"www.vertou.fr","STATUT":null,"TELEPHONE":null,"THEME":12,"COMMUNE":"VERTOU","LIBCATEGORIE":"Vie associative","ADRESSE":"Boulevard Guichet Sérex","LIBTYPE":"Salle associative","_IDOBJ":4251,"TYPE":120503,"CATEGORIE":1205},"geometry":{"type":"Point","coordinates":[-1.47729141841216,47.1624690014897]}},{"type":"Feature","properties":{"geo":{"name":"Espace de la Vallée"},"_l":[47.263676145127,-1.67253806544737],"LIBTHEME":"VIE SOCIALE","CODE_POSTAL":44880,"WEB":"www.sautron.fr","STATUT":null,"TELEPHONE":null,"THEME":12,"COMMUNE":"SAUTRON","LIBCATEGORIE":"Vie associative","ADRESSE":"2 Rue de la Mairie","LIBTYPE":"Salle associative","_IDOBJ":4276,"TYPE":120503,"CATEGORIE":1205},"geometry":{"type":"Point","coordinates":[-1.67253806544737,47.263676145127]}},{"type":"Feature","properties":{"geo":{"name":"Salle de la Ferme"},"_l":[47.2647462993219,-1.67882884298075],"LIBTHEME":"VIE SOCIALE","CODE_POSTAL":44880,"WEB":"www.sautron.fr","STATUT":null,"TELEPHONE":null,"THEME":12,"COMMUNE":"SAUTRON","LIBCATEGORIE":"Vie associative","ADRESSE":"Rue de la Ferme","LIBTYPE":"Salle associative","_IDOBJ":4277,"TYPE":120503,"CATEGORIE":1205},"geometry":{"type":"Point","coordinates":[-1.67882884298075,47.2647462993219]}},{"type":"Feature","properties":{"geo":{"name":"Salle Atria"},"_l":[47.2649069474175,-1.68068509103044],"LIBTHEME":"VIE SOCIALE","CODE_POSTAL":44880,"WEB":"www.sautron.fr","STATUT":null,"TELEPHONE":null,"THEME":12,"COMMUNE":"SAUTRON","LIBCATEGORIE":"Vie associative","ADRESSE":"5 Rue de la Ferme","LIBTYPE":"Salle associative","_IDOBJ":4279,"TYPE":120503,"CATEGORIE":1205},"geometry":{"type":"Point","coordinates":[-1.68068509103044,47.2649069474175]}},{"type":"Feature","properties":{"geo":{"name":"Salles du bâtiment Jules-Ferry"},"_l":[47.214697474167,-1.68235642228462],"LIBTHEME":"VIE SOCIALE","CODE_POSTAL":44220,"WEB":null,"STATUT":null,"TELEPHONE":null,"THEME":12,"COMMUNE":"COUERON","LIBCATEGORIE":"Vie associative","ADRESSE":"Rue du Premier Mai","LIBTYPE":"Salle associative","_IDOBJ":4290,"TYPE":120503,"CATEGORIE":1205},"geometry":{"type":"Point","coordinates":[-1.68235642228462,47.214697474167]}},{"type":"Feature","properties":{"geo":{"name":"Salle de la Désirade"},"_l":[47.2773096424647,-1.48665986542085],"LIBTHEME":"VIE SOCIALE","CODE_POSTAL":44470,"WEB":"www.carquefou.fr","STATUT":null,"TELEPHONE":"02 40 52 69 24","THEME":12,"COMMUNE":"CARQUEFOU","LIBCATEGORIE":"Vie associative","ADRESSE":"Rue des Antilles","LIBTYPE":"Salle associative","_IDOBJ":4296,"TYPE":120503,"CATEGORIE":1205},"geometry":{"type":"Point","coordinates":[-1.48665986542085,47.2773096424647]}},{"type":"Feature","properties":{"geo":{"name":"Salle de la Picaudière"},"_l":[47.2827250012664,-1.48155679237408],"LIBTHEME":"VIE SOCIALE","CODE_POSTAL":44470,"WEB":"www.carquefou.fr","STATUT":null,"TELEPHONE":"02 28 22 21 00","THEME":12,"COMMUNE":"CARQUEFOU","LIBCATEGORIE":"Vie associative","ADRESSE":"Rue Victor Hugo","LIBTYPE":"Salle associative","_IDOBJ":4301,"TYPE":120503,"CATEGORIE":1205},"geometry":{"type":"Point","coordinates":[-1.48155679237408,47.2827250012664]}},{"type":"Feature","properties":{"geo":{"name":"Espace Jules Verne"},"_l":[47.2967954779883,-1.49509460192581],"LIBTHEME":"VIE SOCIALE","CODE_POSTAL":44470,"WEB":"www.carquefou.fr","STATUT":null,"TELEPHONE":"02 28 22 21 04","THEME":12,"COMMUNE":"CARQUEFOU","LIBCATEGORIE":"Vie associative","ADRESSE":"8 Rue Jules Verne","LIBTYPE":"Salle associative","_IDOBJ":4302,"TYPE":120503,"CATEGORIE":1205},"geometry":{"type":"Point","coordinates":[-1.49509460192581,47.2967954779883]}},{"type":"Feature","properties":{"geo":{"name":"Salle Saint René"},"_l":[47.2687797498856,-1.59817953217342],"LIBTHEME":"VIE SOCIALE","CODE_POSTAL":44700,"WEB":"www.orvault.fr","STATUT":null,"TELEPHONE":null,"THEME":12,"COMMUNE":"ORVAULT","LIBCATEGORIE":"Vie associative","ADRESSE":"Rue des Sonnailles","LIBTYPE":"Salle associative","_IDOBJ":4322,"TYPE":120503,"CATEGORIE":1205},"geometry":{"type":"Point","coordinates":[-1.59817953217342,47.2687797498856]}},{"type":"Feature","properties":{"geo":{"name":"Ferme du Bignon - salles du Muguet, du Paroir, du Plantoir et du Semoir"},"_l":[47.247845254967,-1.59421645793457],"LIBTHEME":"VIE SOCIALE","CODE_POSTAL":44700,"WEB":"www.orvault.fr","STATUT":null,"TELEPHONE":null,"THEME":12,"COMMUNE":"ORVAULT","LIBCATEGORIE":"Vie associative","ADRESSE":"25 Rue Alfred Nobel","LIBTYPE":"Salle associative","_IDOBJ":4323,"TYPE":120503,"CATEGORIE":1205},"geometry":{"type":"Point","coordinates":[-1.59421645793457,47.247845254967]}},{"type":"Feature","properties":{"geo":{"name":"Ferme de la Bugallière - Salles Georges Brassens, Jacques Brel et Edith Piaf"},"_l":[47.2615943982179,-1.6308930808961],"LIBTHEME":"VIE SOCIALE","CODE_POSTAL":44700,"WEB":"www.orvault.fr","STATUT":null,"TELEPHONE":null,"THEME":12,"COMMUNE":"ORVAULT","LIBCATEGORIE":"Vie associative","ADRESSE":"10 Rue du Pont Marchand","LIBTYPE":"Salle associative","_IDOBJ":4325,"TYPE":120503,"CATEGORIE":1205},"geometry":{"type":"Point","coordinates":[-1.6308930808961,47.2615943982179]}},{"type":"Feature","properties":{"geo":{"name":"Centre Stévin - Salle Antoine Lavoisier et Blaise Pascal"},"_l":[47.2591522478765,-1.634729324254],"LIBTHEME":"VIE SOCIALE","CODE_POSTAL":44700,"WEB":"www.orvault.fr","STATUT":null,"TELEPHONE":null,"THEME":12,"COMMUNE":"ORVAULT","LIBCATEGORIE":"Vie associative","ADRESSE":"10 Rue Stevin","LIBTYPE":"Salle associative","_IDOBJ":4328,"TYPE":120503,"CATEGORIE":1205},"geometry":{"type":"Point","coordinates":[-1.634729324254,47.2591522478765]}},{"type":"Feature","properties":{"geo":{"name":"Salle du Parc la Gobinière"},"_l":[47.2487358372722,-1.58476862251488],"LIBTHEME":"VIE SOCIALE","CODE_POSTAL":44700,"WEB":"www.orvault.fr","STATUT":null,"TELEPHONE":null,"THEME":12,"COMMUNE":"ORVAULT","LIBCATEGORIE":"Vie associative","ADRESSE":"37 Avenue de la Ferrière","LIBTYPE":"Salle associative","_IDOBJ":4330,"TYPE":120503,"CATEGORIE":1205},"geometry":{"type":"Point","coordinates":[-1.58476862251488,47.2487358372722]}},{"type":"Feature","properties":{"geo":{"name":"Salle de la Canopée et l'Odyssée"},"_l":[47.2611285656947,-1.62256909202949],"LIBTHEME":"VIE SOCIALE","CODE_POSTAL":44700,"WEB":"www.odyssee.orvault.fr","STATUT":null,"TELEPHONE":"02 51 78 37 50","THEME":12,"COMMUNE":"ORVAULT","LIBCATEGORIE":"Vie associative","ADRESSE":"1 Route de Basse Indre","LIBTYPE":"Salle associative","_IDOBJ":4331,"TYPE":120503,"CATEGORIE":1205},"geometry":{"type":"Point","coordinates":[-1.62256909202949,47.2611285656947]}},{"type":"Feature","properties":{"geo":{"name":"Centre associatif Emile Gibier"},"_l":[47.2541145002104,-1.59761726038625],"LIBTHEME":"VIE SOCIALE","CODE_POSTAL":44700,"WEB":null,"STATUT":null,"TELEPHONE":"06 14 64 17 77","THEME":12,"COMMUNE":"ORVAULT","LIBCATEGORIE":"Vie associative","ADRESSE":"1 Rue des Pins","LIBTYPE":"Maison d'associations","_IDOBJ":4332,"TYPE":120501,"CATEGORIE":1205},"geometry":{"type":"Point","coordinates":[-1.59761726038625,47.2541145002104]}},{"type":"Feature","properties":{"geo":{"name":"Ferme Poisson - Salle du Séquoia et de l'Erable"},"_l":[47.2685906919366,-1.59906953516145],"LIBTHEME":"VIE SOCIALE","CODE_POSTAL":44700,"WEB":"www.orvault.fr","STATUT":null,"TELEPHONE":"02 51 78 31 49","THEME":12,"COMMUNE":"ORVAULT","LIBCATEGORIE":"Vie associative","ADRESSE":"Avenue du Couchant","LIBTYPE":"Salle associative","_IDOBJ":4333,"TYPE":120503,"CATEGORIE":1205},"geometry":{"type":"Point","coordinates":[-1.59906953516145,47.2685906919366]}},{"type":"Feature","properties":{"geo":{"name":"Espace Christian Bernard"},"_l":[47.2993329191992,-1.55906712036828],"LIBTHEME":"VIE SOCIALE","CODE_POSTAL":44240,"WEB":null,"STATUT":null,"TELEPHONE":null,"THEME":12,"COMMUNE":"LA-CHAPELLE-SUR-ERDRE","LIBCATEGORIE":"Vie associative","ADRESSE":"Rue Louis Maisonneuve","LIBTYPE":"Salle associative","_IDOBJ":4355,"TYPE":120503,"CATEGORIE":1205},"geometry":{"type":"Point","coordinates":[-1.55906712036828,47.2993329191992]}},{"type":"Feature","properties":{"geo":{"name":"Maison de quartier de la Grande Ouche"},"_l":[47.1805638343736,-1.57984982436515],"LIBTHEME":"VIE SOCIALE","CODE_POSTAL":44340,"WEB":"www.ville-bouguenais.fr","STATUT":null,"TELEPHONE":null,"THEME":12,"COMMUNE":"BOUGUENAIS","LIBCATEGORIE":"Vie associative","ADRESSE":"9 Rue de la Grande Ouche","LIBTYPE":"Maison de quartier","_IDOBJ":4373,"TYPE":120504,"CATEGORIE":1205},"geometry":{"type":"Point","coordinates":[-1.57984982436515,47.1805638343736]}},{"type":"Feature","properties":{"geo":{"name":"Centre de la Ville-au-Denis - salles Fritillaire, Fragonnette et Euphorbe"},"_l":[47.1555273710148,-1.62333451042227],"LIBTHEME":"VIE SOCIALE","CODE_POSTAL":44340,"WEB":"www.ville-bouguenais.fr","STATUT":null,"TELEPHONE":null,"THEME":12,"COMMUNE":"BOUGUENAIS","LIBCATEGORIE":"Vie associative","ADRESSE":"Allée des Soupirs","LIBTYPE":"Salle associative","_IDOBJ":4374,"TYPE":120503,"CATEGORIE":1205},"geometry":{"type":"Point","coordinates":[-1.62333451042227,47.1555273710148]}},{"type":"Feature","properties":{"geo":{"name":"Salle de la Grande Ouche"},"_l":[47.1804059135213,-1.57987182776757],"LIBTHEME":"VIE SOCIALE","CODE_POSTAL":44340,"WEB":"www.ville-bouguenais.fr","STATUT":null,"TELEPHONE":null,"THEME":12,"COMMUNE":"BOUGUENAIS","LIBCATEGORIE":"Vie associative","ADRESSE":"9 Rue de la Grande Ouche","LIBTYPE":"Salle associative","_IDOBJ":4386,"TYPE":120503,"CATEGORIE":1205},"geometry":{"type":"Point","coordinates":[-1.57987182776757,47.1804059135213]}},{"type":"Feature","properties":{"geo":{"name":"Salle de la Pierre Blanche"},"_l":[47.1723078432109,-1.62658889698865],"LIBTHEME":"VIE SOCIALE","CODE_POSTAL":44340,"WEB":"www.ville-bouguenais.fr","STATUT":null,"TELEPHONE":null,"THEME":12,"COMMUNE":"BOUGUENAIS","LIBCATEGORIE":"Vie associative","ADRESSE":"1 Rue du Cheval à Bascule","LIBTYPE":"Salle associative","_IDOBJ":4387,"TYPE":120503,"CATEGORIE":1205},"geometry":{"type":"Point","coordinates":[-1.62658889698865,47.1723078432109]}},{"type":"Feature","properties":{"geo":{"name":"Salle René-Guy Cadou"},"_l":[47.1814926183807,-1.5872746933184],"LIBTHEME":"VIE SOCIALE","CODE_POSTAL":44340,"WEB":"www.ville-bouguenais.fr","STATUT":null,"TELEPHONE":null,"THEME":12,"COMMUNE":"BOUGUENAIS","LIBCATEGORIE":"Vie associative","ADRESSE":"Place René Guy Cadou","LIBTYPE":"Salle associative","_IDOBJ":4388,"TYPE":120503,"CATEGORIE":1205},"geometry":{"type":"Point","coordinates":[-1.5872746933184,47.1814926183807]}},{"type":"Feature","properties":{"geo":{"name":"Pôle associatif du Baut"},"_l":[47.253609653039,-1.5614698345372],"LIBTHEME":"VIE SOCIALE","CODE_POSTAL":44300,"WEB":null,"STATUT":null,"TELEPHONE":null,"THEME":12,"COMMUNE":"NANTES","LIBCATEGORIE":"Vie associative","ADRESSE":"2 Rue des Renards","LIBTYPE":"Pôle associatif","_IDOBJ":4498,"TYPE":120502,"CATEGORIE":1205},"geometry":{"type":"Point","coordinates":[-1.5614698345372,47.253609653039]}},{"type":"Feature","properties":{"geo":{"name":"Pôle associatif Jonelière"},"_l":[47.2521316449787,-1.54598440317924],"LIBTHEME":"VIE SOCIALE","CODE_POSTAL":44300,"WEB":null,"STATUT":null,"TELEPHONE":null,"THEME":12,"COMMUNE":"NANTES","LIBCATEGORIE":"Vie associative","ADRESSE":"78 Route de la Jonelière","LIBTYPE":"Pôle associatif","_IDOBJ":4499,"TYPE":120502,"CATEGORIE":1205},"geometry":{"type":"Point","coordinates":[-1.54598440317924,47.2521316449787]}},{"type":"Feature","properties":{"geo":{"name":"Pôle associatif Malakoff"},"_l":[47.215113773385,-1.52543108708925],"LIBTHEME":"VIE SOCIALE","CODE_POSTAL":44000,"WEB":null,"STATUT":null,"TELEPHONE":null,"THEME":12,"COMMUNE":"NANTES","LIBCATEGORIE":"Vie associative","ADRESSE":"6 Rue d'Irlande","LIBTYPE":"Pôle associatif","_IDOBJ":4500,"TYPE":120502,"CATEGORIE":1205},"geometry":{"type":"Point","coordinates":[-1.52543108708925,47.215113773385]}},{"type":"Feature","properties":{"geo":{"name":"Pôle associatif Bollardière"},"_l":[47.2097224583222,-1.52914173688999],"LIBTHEME":"VIE SOCIALE","CODE_POSTAL":44200,"WEB":null,"STATUT":null,"TELEPHONE":null,"THEME":12,"COMMUNE":"NANTES","LIBCATEGORIE":"Vie associative","ADRESSE":"6 Rue Jean Gorin","LIBTYPE":"Pôle associatif","_IDOBJ":4501,"TYPE":120502,"CATEGORIE":1205},"geometry":{"type":"Point","coordinates":[-1.52914173688999,47.2097224583222]}},{"type":"Feature","properties":{"geo":{"name":"Maison de quartier de la Bottière"},"_l":[47.2361334565863,-1.51900926816494],"LIBTHEME":"VIE SOCIALE","CODE_POSTAL":44300,"WEB":null,"STATUT":null,"TELEPHONE":null,"THEME":12,"COMMUNE":"NANTES","LIBCATEGORIE":"Vie associative","ADRESSE":"147 Route de Sainte Luce","LIBTYPE":"Maison de quartier","_IDOBJ":4549,"TYPE":120504,"CATEGORIE":1205},"geometry":{"type":"Point","coordinates":[-1.51900926816494,47.2361334565863]}},{"type":"Feature","properties":{"geo":{"name":"Maison de quartier des Confluences"},"_l":[47.1942650480509,-1.52826645944572],"LIBTHEME":"VIE SOCIALE","CODE_POSTAL":44200,"WEB":null,"STATUT":null,"TELEPHONE":null,"THEME":12,"COMMUNE":"NANTES","LIBCATEGORIE":"Vie associative","ADRESSE":"4 Place du Muguet Nantais","LIBTYPE":"Maison de quartier","_IDOBJ":4550,"TYPE":120504,"CATEGORIE":1205},"geometry":{"type":"Point","coordinates":[-1.52826645944572,47.1942650480509]}},{"type":"Feature","properties":{"geo":{"name":"Maison de quartier La Mano"},"_l":[47.2616731699318,-1.57342857013728],"LIBTHEME":"VIE SOCIALE","CODE_POSTAL":44300,"WEB":null,"STATUT":null,"TELEPHONE":null,"THEME":12,"COMMUNE":"NANTES","LIBCATEGORIE":"Vie associative","ADRESSE":"3 Rue Eugène Thomas","LIBTYPE":"Maison de quartier","_IDOBJ":4551,"TYPE":120504,"CATEGORIE":1205},"geometry":{"type":"Point","coordinates":[-1.57342857013728,47.2616731699318]}},{"type":"Feature","properties":{"geo":{"name":"Maison de quartier de Saint Joseph"},"_l":[47.2692658263889,-1.51981556919703],"LIBTHEME":"VIE SOCIALE","CODE_POSTAL":44300,"WEB":null,"STATUT":null,"TELEPHONE":null,"THEME":12,"COMMUNE":"NANTES","LIBCATEGORIE":"Vie associative","ADRESSE":"478 Route de Saint Joseph","LIBTYPE":"Maison de quartier","_IDOBJ":4571,"TYPE":120504,"CATEGORIE":1205},"geometry":{"type":"Point","coordinates":[-1.51981556919703,47.2692658263889]}},{"type":"Feature","properties":{"geo":{"name":"Salle municipale Dervallières"},"_l":[47.2233841286085,-1.59194930063675],"LIBTHEME":"VIE SOCIALE","CODE_POSTAL":44100,"WEB":null,"STATUT":null,"TELEPHONE":null,"THEME":12,"COMMUNE":"NANTES","LIBCATEGORIE":"Vie associative","ADRESSE":"3 Rue Auguste Renoir","LIBTYPE":"Salle associative","_IDOBJ":4572,"TYPE":120503,"CATEGORIE":1205},"geometry":{"type":"Point","coordinates":[-1.59194930063675,47.2233841286085]}},{"type":"Feature","properties":{"geo":{"name":"Pôle associatif Charles Roger"},"_l":[47.2227950582328,-1.59759648021266],"LIBTHEME":"VIE SOCIALE","CODE_POSTAL":44100,"WEB":null,"STATUT":null,"TELEPHONE":null,"THEME":12,"COMMUNE":"NANTES","LIBCATEGORIE":"Vie associative","ADRESSE":"19 Rue Charles Roger","LIBTYPE":"Pôle associatif","_IDOBJ":4754,"TYPE":120502,"CATEGORIE":1205},"geometry":{"type":"Point","coordinates":[-1.59759648021266,47.2227950582328]}},{"type":"Feature","properties":{"geo":{"name":"Pôle associatif Urbain Le Verrier"},"_l":[47.2406339433403,-1.51872649199539],"LIBTHEME":"VIE SOCIALE","CODE_POSTAL":44300,"WEB":null,"STATUT":null,"TELEPHONE":null,"THEME":12,"COMMUNE":"NANTES","LIBCATEGORIE":"Vie associative","ADRESSE":"3 Rue Urbain Le Verrier","LIBTYPE":"Pôle associatif","_IDOBJ":4755,"TYPE":120502,"CATEGORIE":1205},"geometry":{"type":"Point","coordinates":[-1.51872649199539,47.2406339433403]}},{"type":"Feature","properties":{"geo":{"name":"Pôle associatif Marsauderies"},"_l":[47.2427092436415,-1.52892353038944],"LIBTHEME":"VIE SOCIALE","CODE_POSTAL":44300,"WEB":null,"STATUT":null,"TELEPHONE":null,"THEME":12,"COMMUNE":"NANTES","LIBCATEGORIE":"Vie associative","ADRESSE":"3 Rue de Koufra","LIBTYPE":"Pôle associatif","_IDOBJ":4756,"TYPE":120502,"CATEGORIE":1205},"geometry":{"type":"Point","coordinates":[-1.52892353038944,47.2427092436415]}},{"type":"Feature","properties":{"geo":{"name":"Pôle associatif Pirmil"},"_l":[47.1956822951185,-1.54285921710384],"LIBTHEME":"VIE SOCIALE","CODE_POSTAL":44200,"WEB":null,"STATUT":null,"TELEPHONE":null,"THEME":12,"COMMUNE":"NANTES","LIBCATEGORIE":"Vie associative","ADRESSE":"25 Rue Esnoult des Châtelets","LIBTYPE":"Pôle associatif","_IDOBJ":4757,"TYPE":120502,"CATEGORIE":1205},"geometry":{"type":"Point","coordinates":[-1.54285921710384,47.1956822951185]}},{"type":"Feature","properties":{"geo":{"name":"Pôle associatif Winnipeg"},"_l":[47.2597557135032,-1.57736736598299],"LIBTHEME":"VIE SOCIALE","CODE_POSTAL":44300,"WEB":"www.nantes.fr","STATUT":null,"TELEPHONE":null,"THEME":12,"COMMUNE":"NANTES","LIBCATEGORIE":"Vie associative","ADRESSE":"9 Rue de Hamilton","LIBTYPE":"Pôle associatif","_IDOBJ":4758,"TYPE":120502,"CATEGORIE":1205},"geometry":{"type":"Point","coordinates":[-1.57736736598299,47.2597557135032]}}]}