{"type":"FeatureCollection","features":[{"type":"Feature","properties":{"geo":{"name":"Multi-accueil Petite Enfance Brin de Malice"},"_l":[47.1929795062468,-1.53148768762721],"LIBTHEME":"VIE SOCIALE","CODE_POSTAL":44200,"WEB":null,"STATUT":"Municipal","TELEPHONE":"02 40 75 14 46","THEME":12,"COMMUNE":"NANTES","LIBCATEGORIE":"Petite enfance","ADRESSE":"19 Rue de la Ripossière","LIBTYPE":"Multi-accueil (Crèche)","_IDOBJ":310,"TYPE":120101,"CATEGORIE":1201},"geometry":{"type":"Point","coordinates":[-1.53148768762721,47.1929795062468]}},{"type":"Feature","properties":{"geo":{"name":"Multi-Accueil Petite Enfance Chêne des Anglais"},"_l":[47.2592383404178,-1.57290311521737],"LIBTHEME":"VIE SOCIALE","CODE_POSTAL":44300,"WEB":null,"STATUT":"Municipal","TELEPHONE":"02 40 59 29 40","THEME":12,"COMMUNE":"NANTES","LIBCATEGORIE":"Petite enfance","ADRESSE":"7T Rue Jacques Cartier","LIBTYPE":"Multi-accueil (Crèche)","_IDOBJ":313,"TYPE":120101,"CATEGORIE":1201},"geometry":{"type":"Point","coordinates":[-1.57290311521737,47.2592383404178]}},{"type":"Feature","properties":{"geo":{"name":"Multi-accueil Petite Enfance Vanille Chocolat"},"_l":[47.2588377029637,-1.57567976677586],"LIBTHEME":"VIE SOCIALE","CODE_POSTAL":44300,"WEB":null,"STATUT":"Municipal","TELEPHONE":"02 40 40 94 63","THEME":12,"COMMUNE":"NANTES","LIBCATEGORIE":"Petite enfance","ADRESSE":"71 Route de la Chapelle Sur Erdre","LIBTYPE":"Multi-accueil (Crèche)","_IDOBJ":314,"TYPE":120101,"CATEGORIE":1201},"geometry":{"type":"Point","coordinates":[-1.57567976677586,47.2588377029637]}},{"type":"Feature","properties":{"geo":{"name":"Multi-Accueil Petite Enfance Antenne Bout des Landes"},"_l":[47.2660211160484,-1.57827522777234],"LIBTHEME":"VIE SOCIALE","CODE_POSTAL":44300,"WEB":null,"STATUT":"Municipal","TELEPHONE":"02 40 40 53 09","THEME":12,"COMMUNE":"NANTES","LIBCATEGORIE":"Petite enfance","ADRESSE":"12 Rue de Concarneau","LIBTYPE":"Multi-accueil (Crèche)","_IDOBJ":315,"TYPE":120101,"CATEGORIE":1201},"geometry":{"type":"Point","coordinates":[-1.57827522777234,47.2660211160484]}},{"type":"Feature","properties":{"geo":{"name":"Antenne Perray"},"_l":[47.2470571240377,-1.51287855586169],"LIBTHEME":"VIE SOCIALE","CODE_POSTAL":44300,"WEB":null,"STATUT":"Municipal","TELEPHONE":"02 40 50 63 69","THEME":12,"COMMUNE":"NANTES","LIBCATEGORIE":"Petite enfance","ADRESSE":"7 Rue Frédéric Mistral","LIBTYPE":"Multi-accueil (Crèche)","_IDOBJ":316,"TYPE":120101,"CATEGORIE":1201},"geometry":{"type":"Point","coordinates":[-1.51287855586169,47.2470571240377]}},{"type":"Feature","properties":{"geo":{"name":"Multi-accueil Petite Enfance Halvêque"},"_l":[47.25638006687,-1.51965875672833],"LIBTHEME":"VIE SOCIALE","CODE_POSTAL":44300,"WEB":null,"STATUT":"Municipal","TELEPHONE":"02 40 49 68 16","THEME":12,"COMMUNE":"NANTES","LIBCATEGORIE":"Petite enfance","ADRESSE":"3B Square Bernard Lijot","LIBTYPE":"Multi-accueil (Crèche)","_IDOBJ":318,"TYPE":120101,"CATEGORIE":1201},"geometry":{"type":"Point","coordinates":[-1.51965875672833,47.25638006687]}},{"type":"Feature","properties":{"geo":{"name":"Antenne Eiffel"},"_l":[47.2570467506587,-1.51946143364092],"LIBTHEME":"VIE SOCIALE","CODE_POSTAL":44300,"WEB":null,"STATUT":"Municipal","TELEPHONE":"02 40 68 97 44","THEME":12,"COMMUNE":"NANTES","LIBCATEGORIE":"Petite enfance","ADRESSE":"15 Rue Gustave Eiffel","LIBTYPE":"Multi-accueil (Crèche)","_IDOBJ":319,"TYPE":120101,"CATEGORIE":1201},"geometry":{"type":"Point","coordinates":[-1.51946143364092,47.2570467506587]}},{"type":"Feature","properties":{"geo":{"name":"Multi-accueil Petite Enfance Saint Joseph de Porterie"},"_l":[47.2693946205413,-1.51941400246505],"LIBTHEME":"VIE SOCIALE","CODE_POSTAL":44300,"WEB":null,"STATUT":"Municipal","TELEPHONE":"02 40 30 36 48","THEME":12,"COMMUNE":"NANTES","LIBCATEGORIE":"Petite enfance","ADRESSE":"6B Rue du Bêle","LIBTYPE":"Multi-accueil (Crèche)","_IDOBJ":320,"TYPE":120101,"CATEGORIE":1201},"geometry":{"type":"Point","coordinates":[-1.51941400246505,47.2693946205413]}},{"type":"Feature","properties":{"geo":{"name":"Multi-Accueil Petite Enfance Breil Malville"},"_l":[47.2301541243137,-1.58683665443202],"LIBTHEME":"VIE SOCIALE","CODE_POSTAL":44100,"WEB":null,"STATUT":"Municipal","TELEPHONE":"02 40 76 84 80","THEME":12,"COMMUNE":"NANTES","LIBCATEGORIE":"Petite enfance","ADRESSE":"49 Rue de la Maison Blanche","LIBTYPE":"Multi-accueil (Crèche)","_IDOBJ":323,"TYPE":120101,"CATEGORIE":1201},"geometry":{"type":"Point","coordinates":[-1.58683665443202,47.2301541243137]}},{"type":"Feature","properties":{"geo":{"name":"Multi-acuueil Petite Enfance Les 5 Continents"},"_l":[47.2079967004208,-1.60541100870177],"LIBTHEME":"VIE SOCIALE","CODE_POSTAL":44100,"WEB":null,"STATUT":"Municipal","TELEPHONE":"02 40 95 09 05","THEME":12,"COMMUNE":"NANTES","LIBCATEGORIE":"Petite enfance","ADRESSE":"Rue du Jamet","LIBTYPE":"Multi-accueil (Crèche)","_IDOBJ":327,"TYPE":120101,"CATEGORIE":1201},"geometry":{"type":"Point","coordinates":[-1.60541100870177,47.2079967004208]}},{"type":"Feature","properties":{"geo":{"name":"Multi-accueil Petite Enfance Bellevue"},"_l":[47.2053569981868,-1.60746139342821],"LIBTHEME":"VIE SOCIALE","CODE_POSTAL":44100,"WEB":null,"STATUT":"Municipal","TELEPHONE":"02 40 46 92 06","THEME":12,"COMMUNE":"NANTES","LIBCATEGORIE":"Petite enfance","ADRESSE":"2 Rue Etienne Coutan","LIBTYPE":"Multi-accueil (Crèche)","_IDOBJ":328,"TYPE":120101,"CATEGORIE":1201},"geometry":{"type":"Point","coordinates":[-1.60746139342821,47.2053569981868]}},{"type":"Feature","properties":{"geo":{"name":"Multi-accueil Petite Enfance Manufacture"},"_l":[47.2198919121811,-1.53754701692096],"LIBTHEME":"VIE SOCIALE","CODE_POSTAL":44000,"WEB":null,"STATUT":"Municipal","TELEPHONE":"02 40 93 32 20","THEME":12,"COMMUNE":"NANTES","LIBCATEGORIE":"Petite enfance","ADRESSE":"1 Cour Jules Durand","LIBTYPE":"Multi-accueil (Crèche)","_IDOBJ":329,"TYPE":120101,"CATEGORIE":1201},"geometry":{"type":"Point","coordinates":[-1.53754701692096,47.2198919121811]}},{"type":"Feature","properties":{"geo":{"name":"Multi-accueil Petite Enfance Michelet"},"_l":[47.2324550349689,-1.55593917720202],"LIBTHEME":"VIE SOCIALE","CODE_POSTAL":44000,"WEB":null,"STATUT":"Municipal","TELEPHONE":"02 40 74 25 87","THEME":12,"COMMUNE":"NANTES","LIBCATEGORIE":"Petite enfance","ADRESSE":"12 Boulevard Michelet","LIBTYPE":"Multi-accueil (Crèche)","_IDOBJ":331,"TYPE":120101,"CATEGORIE":1201},"geometry":{"type":"Point","coordinates":[-1.55593917720202,47.2324550349689]}},{"type":"Feature","properties":{"geo":{"name":"Multi-accueil Le Petit Oranger"},"_l":[47.2199983703959,-1.56086005152673],"LIBTHEME":"VIE SOCIALE","CODE_POSTAL":44000,"WEB":null,"STATUT":"Non Municipal","TELEPHONE":"02 40 20 81 21","THEME":12,"COMMUNE":"NANTES","LIBCATEGORIE":"Petite enfance","ADRESSE":"2 Place du Martray","LIBTYPE":"Multi-accueil (Crèche)","_IDOBJ":334,"TYPE":120101,"CATEGORIE":1201},"geometry":{"type":"Point","coordinates":[-1.56086005152673,47.2199983703959]}},{"type":"Feature","properties":{"geo":{"name":"Multi-accueil Antenne Graslin"},"_l":[47.2143259653884,-1.5628941832334],"LIBTHEME":"VIE SOCIALE","CODE_POSTAL":44000,"WEB":null,"STATUT":"Municipal","TELEPHONE":"02 40 73 13 78","THEME":12,"COMMUNE":"NANTES","LIBCATEGORIE":"Petite enfance","ADRESSE":"1 Rue Lekain","LIBTYPE":"Multi-accueil (Crèche)","_IDOBJ":336,"TYPE":120101,"CATEGORIE":1201},"geometry":{"type":"Point","coordinates":[-1.5628941832334,47.2143259653884]}},{"type":"Feature","properties":{"geo":{"name":"Multi-accueil Petite Enfance Médiathèque"},"_l":[47.21133517479,-1.56221972881137],"LIBTHEME":"VIE SOCIALE","CODE_POSTAL":44000,"WEB":null,"STATUT":"Municipal","TELEPHONE":"02 40 69 14 76","THEME":12,"COMMUNE":"NANTES","LIBCATEGORIE":"Petite enfance","ADRESSE":"15 Rue de l'Héronnière","LIBTYPE":"Multi-accueil (Crèche)","_IDOBJ":338,"TYPE":120101,"CATEGORIE":1201},"geometry":{"type":"Point","coordinates":[-1.56221972881137,47.21133517479]}},{"type":"Feature","properties":{"geo":{"name":"Multi-accueil Petite Enfance Le Jardin de Jules Verne"},"_l":[47.1991004683171,-1.59158741875174],"LIBTHEME":"VIE SOCIALE","CODE_POSTAL":44100,"WEB":null,"STATUT":"Municipal","TELEPHONE":"02 40 46 57 22","THEME":12,"COMMUNE":"NANTES","LIBCATEGORIE":"Petite enfance","ADRESSE":"19 Rue des Réformes","LIBTYPE":"Multi-accueil (Crèche)","_IDOBJ":342,"TYPE":120101,"CATEGORIE":1201},"geometry":{"type":"Point","coordinates":[-1.59158741875174,47.1991004683171]}},{"type":"Feature","properties":{"geo":{"name":"Multi-accueil Petite Enfance Bottière"},"_l":[47.2381358265621,-1.5200668645194],"LIBTHEME":"VIE SOCIALE","CODE_POSTAL":44300,"WEB":null,"STATUT":"Municipal","TELEPHONE":"02 40 49 67 49","THEME":12,"COMMUNE":"NANTES","LIBCATEGORIE":"Petite enfance","ADRESSE":"2 Rue Gabriel Lippmann","LIBTYPE":"Multi-accueil (Crèche)","_IDOBJ":344,"TYPE":120101,"CATEGORIE":1201},"geometry":{"type":"Point","coordinates":[-1.5200668645194,47.2381358265621]}},{"type":"Feature","properties":{"geo":{"name":"Multi-accueil Petite Enfance Malakoff"},"_l":[47.215891473218,-1.52258934820818],"LIBTHEME":"VIE SOCIALE","CODE_POSTAL":44000,"WEB":null,"STATUT":"Municipal","TELEPHONE":"02 40 35 40 18","THEME":12,"COMMUNE":"NANTES","LIBCATEGORIE":"Petite enfance","ADRESSE":"3 Rue de Chypre","LIBTYPE":"Multi-accueil (Crèche)","_IDOBJ":345,"TYPE":120101,"CATEGORIE":1201},"geometry":{"type":"Point","coordinates":[-1.52258934820818,47.215891473218]}},{"type":"Feature","properties":{"geo":{"name":"Multi-accueil Petite Enfance Doulon"},"_l":[47.236389904768,-1.50870211417849],"LIBTHEME":"VIE SOCIALE","CODE_POSTAL":44300,"WEB":null,"STATUT":"Municipal","TELEPHONE":"02 40 52 25 31","THEME":12,"COMMUNE":"NANTES","LIBCATEGORIE":"Petite enfance","ADRESSE":"1 Rue de la Basse Chénaie","LIBTYPE":"Multi-accueil (Crèche)","_IDOBJ":372,"TYPE":120101,"CATEGORIE":1201},"geometry":{"type":"Point","coordinates":[-1.50870211417849,47.236389904768]}},{"type":"Feature","properties":{"geo":{"name":"Antenne Bourderies"},"_l":[47.20671779633,-1.5966584262969],"LIBTHEME":"VIE SOCIALE","CODE_POSTAL":44100,"WEB":null,"STATUT":"Municipal","TELEPHONE":"02 40 46 80 28","THEME":12,"COMMUNE":"NANTES","LIBCATEGORIE":"Petite enfance","ADRESSE":"1 Rue de Saint Brévin","LIBTYPE":"Multi-accueil (Crèche)","_IDOBJ":385,"TYPE":120101,"CATEGORIE":1201},"geometry":{"type":"Point","coordinates":[-1.5966584262969,47.20671779633]}},{"type":"Feature","properties":{"geo":{"name":"Multi-accueil Petite Enfance Boissière"},"_l":[47.2542008090951,-1.56757499072062],"LIBTHEME":"VIE SOCIALE","CODE_POSTAL":44300,"WEB":null,"STATUT":"Municipal","TELEPHONE":"02 40 76 91 54","THEME":12,"COMMUNE":"NANTES","LIBCATEGORIE":"Petite enfance","ADRESSE":"9B Rue Jean De La Bruyère","LIBTYPE":"Multi-accueil (Crèche)","_IDOBJ":868,"TYPE":120101,"CATEGORIE":1201},"geometry":{"type":"Point","coordinates":[-1.56757499072062,47.2542008090951]}},{"type":"Feature","properties":{"geo":{"name":"Multi-accueil Petite Enfance Chlorophylle"},"_l":[47.2253182264676,-1.59685117196213],"LIBTHEME":"VIE SOCIALE","CODE_POSTAL":44100,"WEB":null,"STATUT":"Municipal","TELEPHONE":"02 40 46 44 79","THEME":12,"COMMUNE":"NANTES","LIBCATEGORIE":"Petite enfance","ADRESSE":"4 Rue Auguste Renoir","LIBTYPE":"Multi-accueil (Crèche)","_IDOBJ":873,"TYPE":120101,"CATEGORIE":1201},"geometry":{"type":"Point","coordinates":[-1.59685117196213,47.2253182264676]}},{"type":"Feature","properties":{"geo":{"name":"Multi-accueil Petite Enfance Créchendo"},"_l":[47.2183524751174,-1.55638701807266],"LIBTHEME":"VIE SOCIALE","CODE_POSTAL":44000,"WEB":null,"STATUT":"Municipal","TELEPHONE":"02 40 47 95 49","THEME":12,"COMMUNE":"NANTES","LIBCATEGORIE":"Petite enfance","ADRESSE":"17 Rue Armand Brossard","LIBTYPE":"Multi-accueil (Crèche)","_IDOBJ":874,"TYPE":120101,"CATEGORIE":1201},"geometry":{"type":"Point","coordinates":[-1.55638701807266,47.2183524751174]}},{"type":"Feature","properties":{"geo":{"name":"Crèche Associative Fluffy"},"_l":[47.2217131333705,-1.59565357067377],"LIBTHEME":"VIE SOCIALE","CODE_POSTAL":44100,"WEB":null,"STATUT":"Non Municipal","TELEPHONE":"09 61 44 44 14","THEME":12,"COMMUNE":"NANTES","LIBCATEGORIE":"Petite enfance","ADRESSE":"4 Rue Paul Delaroche","LIBTYPE":"Multi-accueil (Crèche)","_IDOBJ":875,"TYPE":120101,"CATEGORIE":1201},"geometry":{"type":"Point","coordinates":[-1.59565357067377,47.2217131333705]}},{"type":"Feature","properties":{"geo":{"name":"Crèche Associative Hänsel et Gretel"},"_l":[47.2691049524778,-1.52209509389055],"LIBTHEME":"VIE SOCIALE","CODE_POSTAL":44300,"WEB":null,"STATUT":"Non Municipal","TELEPHONE":"02 40 50 50 75","THEME":12,"COMMUNE":"NANTES","LIBCATEGORIE":"Petite enfance","ADRESSE":"3 Rue de la Planche au Gué","LIBTYPE":"Multi-accueil (Crèche)","_IDOBJ":876,"TYPE":120101,"CATEGORIE":1201},"geometry":{"type":"Point","coordinates":[-1.52209509389055,47.2691049524778]}},{"type":"Feature","properties":{"geo":{"name":"Crèche Associative L'Ile aux Enfants"},"_l":[47.2362801836668,-1.57948692592437],"LIBTHEME":"VIE SOCIALE","CODE_POSTAL":44300,"WEB":null,"STATUT":"Non Municipal","TELEPHONE":"02 40 40 91 59","THEME":12,"COMMUNE":"NANTES","LIBCATEGORIE":"Petite enfance","ADRESSE":"108 Boulevard de Longchamp","LIBTYPE":"Multi-accueil (Crèche)","_IDOBJ":878,"TYPE":120101,"CATEGORIE":1201},"geometry":{"type":"Point","coordinates":[-1.57948692592437,47.2362801836668]}},{"type":"Feature","properties":{"geo":{"name":"Lieu Accueil Parents Enfants L'Oasis"},"_l":[47.2042752240562,-1.60469234797042],"LIBTHEME":"VIE SOCIALE","CODE_POSTAL":44100,"WEB":null,"STATUT":"Municipal","TELEPHONE":"02 40 46 52 57","THEME":12,"COMMUNE":"NANTES","LIBCATEGORIE":"Petite enfance","ADRESSE":"1 Place des Lauriers","LIBTYPE":"Multi-accueil (Crèche)","_IDOBJ":879,"TYPE":120101,"CATEGORIE":1201},"geometry":{"type":"Point","coordinates":[-1.60469234797042,47.2042752240562]}},{"type":"Feature","properties":{"geo":{"name":"Crèche Associative La Boîte à Musique"},"_l":[47.2067424337318,-1.562340926571],"LIBTHEME":"VIE SOCIALE","CODE_POSTAL":44200,"WEB":null,"STATUT":"Non Municipal","TELEPHONE":"09 65 25 71 12","THEME":12,"COMMUNE":"NANTES","LIBCATEGORIE":"Petite enfance","ADRESSE":"25 Rue Lanoue Bras de Fer","LIBTYPE":"Multi-accueil (Crèche)","_IDOBJ":880,"TYPE":120101,"CATEGORIE":1201},"geometry":{"type":"Point","coordinates":[-1.562340926571,47.2067424337318]}},{"type":"Feature","properties":{"geo":{"name":"Multi-accueil La Maison de Jordan"},"_l":[47.2454135845628,-1.5333113084885],"LIBTHEME":"VIE SOCIALE","CODE_POSTAL":44300,"WEB":null,"STATUT":"Non Municipal","TELEPHONE":"02 40 50 07 22","THEME":12,"COMMUNE":"NANTES","LIBCATEGORIE":"Petite enfance","ADRESSE":"2 Rue de la Petite Noë","LIBTYPE":"Multi-accueil (Crèche)","_IDOBJ":881,"TYPE":120101,"CATEGORIE":1201},"geometry":{"type":"Point","coordinates":[-1.5333113084885,47.2454135845628]}},{"type":"Feature","properties":{"geo":{"name":"Crèche Associative La Maison de Nanou"},"_l":[47.2284838318111,-1.54108687308294],"LIBTHEME":"VIE SOCIALE","CODE_POSTAL":44000,"WEB":null,"STATUT":"Non Municipal","TELEPHONE":"02 40 93 31 95","THEME":12,"COMMUNE":"NANTES","LIBCATEGORIE":"Petite enfance","ADRESSE":"75 Rue Général Buat","LIBTYPE":"Multi-accueil (Crèche)","_IDOBJ":882,"TYPE":120101,"CATEGORIE":1201},"geometry":{"type":"Point","coordinates":[-1.54108687308294,47.2284838318111]}},{"type":"Feature","properties":{"geo":{"name":"Crèche Le Jardin des Poupies"},"_l":[47.2281330097587,-1.59442680546425],"LIBTHEME":"VIE SOCIALE","CODE_POSTAL":44100,"WEB":"www.jardindespoupies.fr","STATUT":"Non Municipal","TELEPHONE":"02 51 82 37 93","THEME":12,"COMMUNE":"NANTES","LIBCATEGORIE":"Petite enfance","ADRESSE":"3 Rue Louis Brisset","LIBTYPE":"Multi-accueil (Crèche)","_IDOBJ":883,"TYPE":120101,"CATEGORIE":1201},"geometry":{"type":"Point","coordinates":[-1.59442680546425,47.2281330097587]}},{"type":"Feature","properties":{"geo":{"name":"Multi-accueil La Toupie Magique"},"_l":[47.220670829301,-1.56466482805977],"LIBTHEME":"VIE SOCIALE","CODE_POSTAL":44000,"WEB":null,"STATUT":"Non Municipal","TELEPHONE":"02 40 40 50 50","THEME":12,"COMMUNE":"NANTES","LIBCATEGORIE":"Petite enfance","ADRESSE":"9B Rue Félibien","LIBTYPE":"Multi-accueil (Crèche)","_IDOBJ":884,"TYPE":120101,"CATEGORIE":1201},"geometry":{"type":"Point","coordinates":[-1.56466482805977,47.220670829301]}},{"type":"Feature","properties":{"geo":{"name":"Crèche Associative Jour 2 crèches Mellinet"},"_l":[47.2094206736225,-1.57657657106654],"LIBTHEME":"VIE SOCIALE","CODE_POSTAL":44100,"WEB":null,"STATUT":"Non Municipal","TELEPHONE":"02 40 69 73 10","THEME":12,"COMMUNE":"NANTES","LIBCATEGORIE":"Petite enfance","ADRESSE":"7 Rue Fulton","LIBTYPE":"Multi-accueil (Crèche)","_IDOBJ":885,"TYPE":120101,"CATEGORIE":1201},"geometry":{"type":"Point","coordinates":[-1.57657657106654,47.2094206736225]}},{"type":"Feature","properties":{"geo":{"name":"Crèche Associative Le Petit Bonheur"},"_l":[47.2222920190992,-1.53476676209095],"LIBTHEME":"VIE SOCIALE","CODE_POSTAL":44000,"WEB":null,"STATUT":"Non Municipal","TELEPHONE":"02 40 37 95 51","THEME":12,"COMMUNE":"NANTES","LIBCATEGORIE":"Petite enfance","ADRESSE":"67B Rue d'Allonville","LIBTYPE":"Multi-accueil (Crèche)","_IDOBJ":886,"TYPE":120101,"CATEGORIE":1201},"geometry":{"type":"Point","coordinates":[-1.53476676209095,47.2222920190992]}},{"type":"Feature","properties":{"geo":{"name":"Lieux Accueil  Enfants Parents Le Sablier"},"_l":[47.2249928015371,-1.60147088276015],"LIBTHEME":"VIE SOCIALE","CODE_POSTAL":44100,"WEB":null,"STATUT":"Non Municipal","TELEPHONE":"02 40 43 82 66","THEME":12,"COMMUNE":"NANTES","LIBCATEGORIE":"Petite enfance","ADRESSE":"16 Rue Charles Perron","LIBTYPE":"Multi-accueil (Crèche)","_IDOBJ":887,"TYPE":120101,"CATEGORIE":1201},"geometry":{"type":"Point","coordinates":[-1.60147088276015,47.2249928015371]}},{"type":"Feature","properties":{"geo":{"name":"Crèche Associative Les Petits Dauphins"},"_l":[47.242843502752,-1.55603848370065],"LIBTHEME":"VIE SOCIALE","CODE_POSTAL":44300,"WEB":null,"STATUT":"Non Municipal","TELEPHONE":"02 40 74 25 59","THEME":12,"COMMUNE":"NANTES","LIBCATEGORIE":"Petite enfance","ADRESSE":"20 Boulevard du Petit Port","LIBTYPE":"Multi-accueil (Crèche)","_IDOBJ":888,"TYPE":120101,"CATEGORIE":1201},"geometry":{"type":"Point","coordinates":[-1.55603848370065,47.242843502752]}},{"type":"Feature","properties":{"geo":{"name":"Crèche Associative Enfanfare"},"_l":[47.230820410482,-1.53518618247868],"LIBTHEME":"VIE SOCIALE","CODE_POSTAL":44000,"WEB":null,"STATUT":"Non Municipal","TELEPHONE":"02 40 37 98 22","THEME":12,"COMMUNE":"NANTES","LIBCATEGORIE":"Petite enfance","ADRESSE":"21 Rue de Vienne","LIBTYPE":"Multi-accueil (Crèche)","_IDOBJ":889,"TYPE":120101,"CATEGORIE":1201},"geometry":{"type":"Point","coordinates":[-1.53518618247868,47.230820410482]}},{"type":"Feature","properties":{"geo":{"name":"Multi-accueil Les P'tits Loups"},"_l":[47.2372530041231,-1.52453184880178],"LIBTHEME":"VIE SOCIALE","CODE_POSTAL":44300,"WEB":null,"STATUT":"Non Municipal","TELEPHONE":"02 40 50 35 13","THEME":12,"COMMUNE":"NANTES","LIBCATEGORIE":"Petite enfance","ADRESSE":"102 Rue du Croissant","LIBTYPE":"Multi-accueil (Crèche)","_IDOBJ":890,"TYPE":120101,"CATEGORIE":1201},"geometry":{"type":"Point","coordinates":[-1.52453184880178,47.2372530041231]}},{"type":"Feature","properties":{"geo":{"name":"Multi-Accueil Petite Enfance Les Petits Pieds"},"_l":[47.2376897851199,-1.58340414721634],"LIBTHEME":"VIE SOCIALE","CODE_POSTAL":44300,"WEB":null,"STATUT":"Non Municipal","TELEPHONE":"02 40 40 80 81","THEME":12,"COMMUNE":"NANTES","LIBCATEGORIE":"Petite enfance","ADRESSE":"60 Rue Georges Lafont","LIBTYPE":"Multi-accueil (Crèche)","_IDOBJ":891,"TYPE":120101,"CATEGORIE":1201},"geometry":{"type":"Point","coordinates":[-1.58340414721634,47.2376897851199]}},{"type":"Feature","properties":{"geo":{"name":"Crèche Associative Mickey et Minnie"},"_l":[47.2221694067721,-1.5645285703078],"LIBTHEME":"VIE SOCIALE","CODE_POSTAL":44000,"WEB":null,"STATUT":"Non Municipal","TELEPHONE":"02 40 73 93 92","THEME":12,"COMMUNE":"NANTES","LIBCATEGORIE":"Petite enfance","ADRESSE":"8 Rue d'Auvours","LIBTYPE":"Multi-accueil (Crèche)","_IDOBJ":894,"TYPE":120101,"CATEGORIE":1201},"geometry":{"type":"Point","coordinates":[-1.5645285703078,47.2221694067721]}},{"type":"Feature","properties":{"geo":{"name":"Multi-Accueil Petite Enfance Minibou"},"_l":[47.2402543076918,-1.57783372115353],"LIBTHEME":"VIE SOCIALE","CODE_POSTAL":44300,"WEB":null,"STATUT":"Non Municipal","TELEPHONE":"02 40 59 53 17","THEME":12,"COMMUNE":"NANTES","LIBCATEGORIE":"Petite enfance","ADRESSE":"5B Rue Diane","LIBTYPE":"Multi-accueil (Crèche)","_IDOBJ":895,"TYPE":120101,"CATEGORIE":1201},"geometry":{"type":"Point","coordinates":[-1.57783372115353,47.2402543076918]}},{"type":"Feature","properties":{"geo":{"name":"Lieux Accueil  Enfants Parents Le Square"},"_l":[47.2609249694716,-1.57321086091913],"LIBTHEME":"VIE SOCIALE","CODE_POSTAL":44300,"WEB":null,"STATUT":"Municipal","TELEPHONE":"02 51 77 14 57","THEME":12,"COMMUNE":"NANTES","LIBCATEGORIE":"Petite enfance","ADRESSE":"8 Rue Samuel De Champlain","LIBTYPE":"Multi-accueil (Crèche)","_IDOBJ":896,"TYPE":120101,"CATEGORIE":1201},"geometry":{"type":"Point","coordinates":[-1.57321086091913,47.2609249694716]}},{"type":"Feature","properties":{"geo":{"name":"Crèche Associative Pic et Plume"},"_l":[47.2343743668518,-1.54562995924865],"LIBTHEME":"VIE SOCIALE","CODE_POSTAL":44000,"WEB":null,"STATUT":"Non Municipal","TELEPHONE":"02 40 52 09 96","THEME":12,"COMMUNE":"NANTES","LIBCATEGORIE":"Petite enfance","ADRESSE":"25 Rue des Boers","LIBTYPE":"Multi-accueil (Crèche)","_IDOBJ":897,"TYPE":120101,"CATEGORIE":1201},"geometry":{"type":"Point","coordinates":[-1.54562995924865,47.2343743668518]}},{"type":"Feature","properties":{"geo":{"name":"Crèche associative Jour 2 crèches Zola"},"_l":[47.2203690968464,-1.58627168662209],"LIBTHEME":"VIE SOCIALE","CODE_POSTAL":44100,"WEB":null,"STATUT":"Non Municipal","TELEPHONE":"02 40 46 67 15","THEME":12,"COMMUNE":"NANTES","LIBCATEGORIE":"Petite enfance","ADRESSE":"114 Boulevard de la Fraternité","LIBTYPE":"Multi-accueil (Crèche)","_IDOBJ":898,"TYPE":120101,"CATEGORIE":1201},"geometry":{"type":"Point","coordinates":[-1.58627168662209,47.2203690968464]}},{"type":"Feature","properties":{"geo":{"name":"Crèche Associative Pirouette"},"_l":[47.2285755646979,-1.5164854316371],"LIBTHEME":"VIE SOCIALE","CODE_POSTAL":44300,"WEB":null,"STATUT":"Non Municipal","TELEPHONE":"02 40 93 25 21","THEME":12,"COMMUNE":"NANTES","LIBCATEGORIE":"Petite enfance","ADRESSE":"7 Rue des Perrines","LIBTYPE":"Multi-accueil (Crèche)","_IDOBJ":899,"TYPE":120101,"CATEGORIE":1201},"geometry":{"type":"Point","coordinates":[-1.5164854316371,47.2285755646979]}},{"type":"Feature","properties":{"geo":{"name":"Crèche Familiale CHU Pôle Saint Jacques"},"_l":[47.1988490569758,-1.52956478396386],"LIBTHEME":"VIE SOCIALE","CODE_POSTAL":44200,"WEB":null,"STATUT":"Non Municipal","TELEPHONE":"02 40 08 71 07","THEME":12,"COMMUNE":"NANTES","LIBCATEGORIE":"Petite enfance","ADRESSE":"54 Route de Saint Sébastien","LIBTYPE":"Multi-accueil (Crèche)","_IDOBJ":903,"TYPE":120101,"CATEGORIE":1201},"geometry":{"type":"Point","coordinates":[-1.52956478396386,47.1988490569758]}},{"type":"Feature","properties":{"geo":{"name":"Crèche Associative Pomme Cannelle"},"_l":[47.2246022788681,-1.52213068701975],"LIBTHEME":"VIE SOCIALE","CODE_POSTAL":44000,"WEB":null,"STATUT":"Non Municipal","TELEPHONE":"02 40 49 23 42","THEME":12,"COMMUNE":"NANTES","LIBCATEGORIE":"Petite enfance","ADRESSE":"12 Rue Francis de Pressensé","LIBTYPE":"Multi-accueil (Crèche)","_IDOBJ":904,"TYPE":120101,"CATEGORIE":1201},"geometry":{"type":"Point","coordinates":[-1.52213068701975,47.2246022788681]}},{"type":"Feature","properties":{"geo":{"name":"Multi-accueil Petite Enfance Port Boyer"},"_l":[47.2413178475616,-1.54072721772026],"LIBTHEME":"VIE SOCIALE","CODE_POSTAL":44300,"WEB":null,"STATUT":"Municipal","TELEPHONE":"02 40 49 30 81","THEME":12,"COMMUNE":"NANTES","LIBCATEGORIE":"Petite enfance","ADRESSE":"77B Rue du Port Boyer","LIBTYPE":"Multi-accueil (Crèche)","_IDOBJ":905,"TYPE":120101,"CATEGORIE":1201},"geometry":{"type":"Point","coordinates":[-1.54072721772026,47.2413178475616]}},{"type":"Feature","properties":{"geo":{"name":"Crèche Associative Rêve et Ritournelle"},"_l":[47.2761121064679,-1.5122322566716],"LIBTHEME":"VIE SOCIALE","CODE_POSTAL":44300,"WEB":null,"STATUT":"Non Municipal","TELEPHONE":"02 40 49 94 31","THEME":12,"COMMUNE":"NANTES","LIBCATEGORIE":"Petite enfance","ADRESSE":"3 Rue Edouard Nignon","LIBTYPE":"Multi-accueil (Crèche)","_IDOBJ":906,"TYPE":120101,"CATEGORIE":1201},"geometry":{"type":"Point","coordinates":[-1.5122322566716,47.2761121064679]}},{"type":"Feature","properties":{"geo":{"name":"Antenne des Tauzins"},"_l":[47.2662002474893,-1.51962819610059],"LIBTHEME":"VIE SOCIALE","CODE_POSTAL":44300,"WEB":null,"STATUT":"Municipal","TELEPHONE":"02 40 30 11 37","THEME":12,"COMMUNE":"NANTES","LIBCATEGORIE":"Petite enfance","ADRESSE":"3 Passage des Tauzins","LIBTYPE":"Multi-accueil (Crèche)","_IDOBJ":907,"TYPE":120101,"CATEGORIE":1201},"geometry":{"type":"Point","coordinates":[-1.51962819610059,47.2662002474893]}},{"type":"Feature","properties":{"geo":{"name":"Crèche Associative Saint Luc"},"_l":[47.2174110656492,-1.57985251291175],"LIBTHEME":"VIE SOCIALE","CODE_POSTAL":44100,"WEB":null,"STATUT":"Non Municipal","TELEPHONE":"02 40 73 70 67","THEME":12,"COMMUNE":"NANTES","LIBCATEGORIE":"Petite enfance","ADRESSE":"25 Rue Bouchaud","LIBTYPE":"Multi-accueil (Crèche)","_IDOBJ":908,"TYPE":120101,"CATEGORIE":1201},"geometry":{"type":"Point","coordinates":[-1.57985251291175,47.2174110656492]}},{"type":"Feature","properties":{"geo":{"name":"Multi-accueil Petite Enfance Santos Dumont"},"_l":[47.2597003805246,-1.56722253488816],"LIBTHEME":"VIE SOCIALE","CODE_POSTAL":44300,"WEB":null,"STATUT":"Municipal","TELEPHONE":"02 40 40 15 90","THEME":12,"COMMUNE":"NANTES","LIBCATEGORIE":"Petite enfance","ADRESSE":"7 Rue Santos Dumont","LIBTYPE":"Multi-accueil (Crèche)","_IDOBJ":910,"TYPE":120101,"CATEGORIE":1201},"geometry":{"type":"Point","coordinates":[-1.56722253488816,47.2597003805246]}},{"type":"Feature","properties":{"geo":{"name":"Crèche CHU Les Petits Pirates"},"_l":[47.1990104631586,-1.52953508021113],"LIBTHEME":"VIE SOCIALE","CODE_POSTAL":44200,"WEB":null,"STATUT":"Non Municipal","TELEPHONE":"02 40 08 71 07","THEME":12,"COMMUNE":"NANTES","LIBCATEGORIE":"Petite enfance","ADRESSE":"52 Route de Saint Sébastien","LIBTYPE":"Multi-accueil (Crèche)","_IDOBJ":911,"TYPE":120101,"CATEGORIE":1201},"geometry":{"type":"Point","coordinates":[-1.52953508021113,47.1990104631586]}},{"type":"Feature","properties":{"geo":{"name":"Multi-accueil Petite Enfance Sully"},"_l":[47.2225234281522,-1.54989270013633],"LIBTHEME":"VIE SOCIALE","CODE_POSTAL":44000,"WEB":null,"STATUT":"Municipal","TELEPHONE":"02 40 29 82 15","THEME":12,"COMMUNE":"NANTES","LIBCATEGORIE":"Petite enfance","ADRESSE":"7 Allée de la Reine Margot","LIBTYPE":"Multi-accueil (Crèche)","_IDOBJ":912,"TYPE":120101,"CATEGORIE":1201},"geometry":{"type":"Point","coordinates":[-1.54989270013633,47.2225234281522]}},{"type":"Feature","properties":{"geo":{"name":"Multi-accueil Ti Canailloux"},"_l":[47.2628150763302,-1.57998346626898],"LIBTHEME":"VIE SOCIALE","CODE_POSTAL":44300,"WEB":null,"STATUT":"Non Municipal","TELEPHONE":"02 40 76 12 78","THEME":12,"COMMUNE":"NANTES","LIBCATEGORIE":"Petite enfance","ADRESSE":"71B Avenue du Bout des Landes","LIBTYPE":"Multi-accueil (Crèche)","_IDOBJ":914,"TYPE":120101,"CATEGORIE":1201},"geometry":{"type":"Point","coordinates":[-1.57998346626898,47.2628150763302]}},{"type":"Feature","properties":{"geo":{"name":"Crèche Associative Une Souris Verte 2"},"_l":[47.2081709430759,-1.59517115722973],"LIBTHEME":"VIE SOCIALE","CODE_POSTAL":44100,"WEB":null,"STATUT":"Non Municipal","TELEPHONE":"02 72 34 20 72","THEME":12,"COMMUNE":"NANTES","LIBCATEGORIE":"Petite enfance","ADRESSE":"1 Impasse Brochard","LIBTYPE":"Multi-accueil (Crèche)","_IDOBJ":916,"TYPE":120101,"CATEGORIE":1201},"geometry":{"type":"Point","coordinates":[-1.59517115722973,47.2081709430759]}},{"type":"Feature","properties":{"geo":{"name":"Multi-accueil Petite Enfance La Pilotière"},"_l":[47.2452148495799,-1.52409796093161],"LIBTHEME":"VIE SOCIALE","CODE_POSTAL":44300,"WEB":null,"STATUT":"Municipal","TELEPHONE":"02 28 23 52 28","THEME":12,"COMMUNE":"NANTES","LIBCATEGORIE":"Petite enfance","ADRESSE":"31 Rue des Platanes","LIBTYPE":"Multi-accueil (Crèche)","_IDOBJ":1070,"TYPE":120101,"CATEGORIE":1201},"geometry":{"type":"Point","coordinates":[-1.52409796093161,47.2452148495799]}},{"type":"Feature","properties":{"geo":{"name":"Multi-accueil Petite Enfance Nouvelle Vague"},"_l":[47.2224328438944,-1.56035067171581],"LIBTHEME":"VIE SOCIALE","CODE_POSTAL":44000,"WEB":null,"STATUT":"Municipal","TELEPHONE":"02 40 20 06 50","THEME":12,"COMMUNE":"NANTES","LIBCATEGORIE":"Petite enfance","ADRESSE":"12 Rue de Savenay","LIBTYPE":"Multi-accueil (Crèche)","_IDOBJ":1116,"TYPE":120101,"CATEGORIE":1201},"geometry":{"type":"Point","coordinates":[-1.56035067171581,47.2224328438944]}},{"type":"Feature","properties":{"geo":{"name":"Multi-accueil Petite Enfance Beaulieu"},"_l":[47.2083959780662,-1.52683629197219],"LIBTHEME":"VIE SOCIALE","CODE_POSTAL":44200,"WEB":null,"STATUT":"Municipal","TELEPHONE":"02 40 47 03 05","THEME":12,"COMMUNE":"NANTES","LIBCATEGORIE":"Petite enfance","ADRESSE":"13 Rue Paul Nassivet","LIBTYPE":"Multi-accueil (Crèche)","_IDOBJ":1152,"TYPE":120101,"CATEGORIE":1201},"geometry":{"type":"Point","coordinates":[-1.52683629197219,47.2083959780662]}},{"type":"Feature","properties":{"geo":{"name":"Multi-accueil Petite Enfance Madeleine"},"_l":[47.2042524481021,-1.54781625241265],"LIBTHEME":"VIE SOCIALE","CODE_POSTAL":44200,"WEB":null,"STATUT":"Municipal","TELEPHONE":"02 40 89 38 88","THEME":12,"COMMUNE":"NANTES","LIBCATEGORIE":"Petite enfance","ADRESSE":"1 Rue de la Porte Gellée","LIBTYPE":"Multi-accueil (Crèche)","_IDOBJ":1230,"TYPE":120101,"CATEGORIE":1201},"geometry":{"type":"Point","coordinates":[-1.54781625241265,47.2042524481021]}},{"type":"Feature","properties":{"geo":{"name":"Crèche Associative Une Souris Verte 1"},"_l":[47.2059797506956,-1.57632978152533],"LIBTHEME":"VIE SOCIALE","CODE_POSTAL":44100,"WEB":null,"STATUT":"Non Municipal","TELEPHONE":"02 72 34 20 71","THEME":12,"COMMUNE":"NANTES","LIBCATEGORIE":"Petite enfance","ADRESSE":"13T Rue Bisson","LIBTYPE":"Multi-accueil (Crèche)","_IDOBJ":1311,"TYPE":120101,"CATEGORIE":1201},"geometry":{"type":"Point","coordinates":[-1.57632978152533,47.2059797506956]}},{"type":"Feature","properties":{"geo":{"name":"Relais Accueil Petite Enfance Nord"},"_l":[47.2564126989408,-1.57610495679877],"LIBTHEME":"VIE SOCIALE","CODE_POSTAL":44300,"WEB":null,"STATUT":"Municipal","TELEPHONE":"02 40 41 95 70","THEME":12,"COMMUNE":"NANTES","LIBCATEGORIE":"Petite enfance","ADRESSE":"37 Route de la Chapelle Sur Erdre","LIBTYPE":"R.A.M.","_IDOBJ":1352,"TYPE":120102,"CATEGORIE":1201},"geometry":{"type":"Point","coordinates":[-1.57610495679877,47.2564126989408]}},{"type":"Feature","properties":{"geo":{"name":"Lieu Accueil Parents Enfants La Marouette"},"_l":[47.2112725664472,-1.56808945319637],"LIBTHEME":"VIE SOCIALE","CODE_POSTAL":44100,"WEB":null,"STATUT":"Non Municipal","TELEPHONE":"02 40 71 84 68","THEME":12,"COMMUNE":"NANTES","LIBCATEGORIE":"Petite enfance","ADRESSE":"2B Rue Dobrée","LIBTYPE":"Multi-accueil (Crèche)","_IDOBJ":1375,"TYPE":120101,"CATEGORIE":1201},"geometry":{"type":"Point","coordinates":[-1.56808945319637,47.2112725664472]}},{"type":"Feature","properties":{"geo":{"name":"Relais Accueil Petite Enfance Ouest"},"_l":[47.2043397416995,-1.60483904603373],"LIBTHEME":"VIE SOCIALE","CODE_POSTAL":44100,"WEB":null,"STATUT":"Municipal","TELEPHONE":"02 40 41 95 82","THEME":12,"COMMUNE":"NANTES","LIBCATEGORIE":"Petite enfance","ADRESSE":"1 Place des Lauriers","LIBTYPE":"R.A.M.","_IDOBJ":1438,"TYPE":120102,"CATEGORIE":1201},"geometry":{"type":"Point","coordinates":[-1.60483904603373,47.2043397416995]}},{"type":"Feature","properties":{"geo":{"name":"Relais Accueil Petite Enfance Centre Sud"},"_l":[47.2176175176188,-1.55282506215827],"LIBTHEME":"VIE SOCIALE","CODE_POSTAL":44000,"WEB":null,"STATUT":"Municipal","TELEPHONE":"02 40 41 95 80","THEME":12,"COMMUNE":"NANTES","LIBCATEGORIE":"Petite enfance","ADRESSE":"23 Rue de Strasbourg","LIBTYPE":"R.A.M.","_IDOBJ":1597,"TYPE":120102,"CATEGORIE":1201},"geometry":{"type":"Point","coordinates":[-1.55282506215827,47.2176175176188]}},{"type":"Feature","properties":{"geo":{"name":"Lieux Accueil  Enfants Parents La Perdriole"},"_l":[47.2453021186408,-1.52371871611606],"LIBTHEME":"VIE SOCIALE","CODE_POSTAL":44300,"WEB":null,"STATUT":"Municipal","TELEPHONE":"02 40 49 48 00","THEME":12,"COMMUNE":"NANTES","LIBCATEGORIE":"Petite enfance","ADRESSE":"29 Rue des Platanes","LIBTYPE":"Multi-accueil (Crèche)","_IDOBJ":1600,"TYPE":120101,"CATEGORIE":1201},"geometry":{"type":"Point","coordinates":[-1.52371871611606,47.2453021186408]}},{"type":"Feature","properties":{"geo":{"name":"Multi-accueil Une Souris Verte 3"},"_l":[47.2154202754051,-1.54591982765951],"LIBTHEME":"VIE SOCIALE","CODE_POSTAL":44000,"WEB":null,"STATUT":"Non Municipal","TELEPHONE":"02 40 47 42 96","THEME":12,"COMMUNE":"NANTES","LIBCATEGORIE":"Petite enfance","ADRESSE":"2 Rue de la Biscuiterie","LIBTYPE":"Multi-accueil (Crèche)","_IDOBJ":1772,"TYPE":120101,"CATEGORIE":1201},"geometry":{"type":"Point","coordinates":[-1.54591982765951,47.2154202754051]}},{"type":"Feature","properties":{"geo":{"name":"Multi-accueil Le Jardin des Lucioles"},"_l":[47.2336345612716,-1.5819294381518],"LIBTHEME":"VIE SOCIALE","CODE_POSTAL":44100,"WEB":null,"STATUT":"Non Municipal","TELEPHONE":"02 51 83 44 09","THEME":12,"COMMUNE":"NANTES","LIBCATEGORIE":"Petite enfance","ADRESSE":"22 Rue de Malville","LIBTYPE":"Multi-accueil (Crèche)","_IDOBJ":1775,"TYPE":120101,"CATEGORIE":1201},"geometry":{"type":"Point","coordinates":[-1.5819294381518,47.2336345612716]}},{"type":"Feature","properties":{"geo":{"name":"Relais Accueil Petite Enfance Est"},"_l":[47.2489200079412,-1.52150214647332],"LIBTHEME":"VIE SOCIALE","CODE_POSTAL":44300,"WEB":null,"STATUT":"Municipal","TELEPHONE":"02 40 68 90 61","THEME":12,"COMMUNE":"NANTES","LIBCATEGORIE":"Petite enfance","ADRESSE":"2 Rue de la Petite Baratte","LIBTYPE":"R.A.M.","_IDOBJ":1789,"TYPE":120102,"CATEGORIE":1201},"geometry":{"type":"Point","coordinates":[-1.52150214647332,47.2489200079412]}},{"type":"Feature","properties":{"geo":{"name":"Relais Assistantes Maternelles Sud"},"_l":[47.2003779734935,-1.54534692525119],"LIBTHEME":"VIE SOCIALE","CODE_POSTAL":44200,"WEB":"www.nantes.fr","STATUT":null,"TELEPHONE":"02 40 89 17 09","THEME":12,"COMMUNE":"NANTES","LIBCATEGORIE":"Petite enfance","ADRESSE":"9 Place Victor Mangin","LIBTYPE":"R.A.M.","_IDOBJ":1791,"TYPE":120102,"CATEGORIE":1201},"geometry":{"type":"Point","coordinates":[-1.54534692525119,47.2003779734935]}},{"type":"Feature","properties":{"geo":{"name":"Multi-Accueil Méli Mélo"},"_l":[47.2443496534825,-1.61091354796794],"LIBTHEME":"VIE SOCIALE","CODE_POSTAL":44800,"WEB":"www.saint-herblain.fr","STATUT":"Public","TELEPHONE":"02 28 25 22 80","THEME":12,"COMMUNE":"ST-HERBLAIN","LIBCATEGORIE":"Petite enfance","ADRESSE":"19 Avenue de l'Angevinière","LIBTYPE":"Multi-accueil (Crèche)","_IDOBJ":1854,"TYPE":120101,"CATEGORIE":1201},"geometry":{"type":"Point","coordinates":[-1.61091354796794,47.2443496534825]}},{"type":"Feature","properties":{"geo":{"name":"Multi-Accueil Confetti"},"_l":[47.2136423933991,-1.64873880704049],"LIBTHEME":"VIE SOCIALE","CODE_POSTAL":44800,"WEB":"www.saint-herblain.fr","STATUT":"Public","TELEPHONE":"02 40 46 05 10","THEME":12,"COMMUNE":"ST-HERBLAIN","LIBCATEGORIE":"Petite enfance","ADRESSE":"11B Rue des Calvaires","LIBTYPE":"Multi-accueil (Crèche)","_IDOBJ":1855,"TYPE":120101,"CATEGORIE":1201},"geometry":{"type":"Point","coordinates":[-1.64873880704049,47.2136423933991]}},{"type":"Feature","properties":{"geo":{"name":"Multi-Accueil Arlequin"},"_l":[47.2059490657163,-1.61492263919487],"LIBTHEME":"VIE SOCIALE","CODE_POSTAL":44800,"WEB":"www.saint-herblain.fr","STATUT":"Public","TELEPHONE":null,"THEME":12,"COMMUNE":"ST-HERBLAIN","LIBCATEGORIE":"Petite enfance","ADRESSE":"11 Rue de Dijon","LIBTYPE":"Multi-accueil (Crèche)","_IDOBJ":1856,"TYPE":120101,"CATEGORIE":1201},"geometry":{"type":"Point","coordinates":[-1.61492263919487,47.2059490657163]}},{"type":"Feature","properties":{"geo":{"name":"Relais Assistances Maternelles du Petit Chantilly"},"_l":[47.2527787107903,-1.5957648769971],"LIBTHEME":"VIE SOCIALE","CODE_POSTAL":44700,"WEB":"www.orvault.fr","STATUT":"Public","TELEPHONE":"02 51 78 33 00","THEME":12,"COMMUNE":"ORVAULT","LIBCATEGORIE":"Petite enfance","ADRESSE":"21 Avenue Alexandre Goupil","LIBTYPE":"R.A.M.","_IDOBJ":1925,"TYPE":120102,"CATEGORIE":1201},"geometry":{"type":"Point","coordinates":[-1.5957648769971,47.2527787107903]}},{"type":"Feature","properties":{"geo":{"name":"Relais Assistances Maternelles de Plaisance"},"_l":[47.2402642181315,-1.58994619172658],"LIBTHEME":"VIE SOCIALE","CODE_POSTAL":44700,"WEB":"www.orvault.fr","STATUT":"Public","TELEPHONE":"02 40 59 76 90","THEME":12,"COMMUNE":"ORVAULT","LIBCATEGORIE":"Petite enfance","ADRESSE":"4 Avenue de l'Ille","LIBTYPE":"R.A.M.","_IDOBJ":1926,"TYPE":120102,"CATEGORIE":1201},"geometry":{"type":"Point","coordinates":[-1.58994619172658,47.2402642181315]}},{"type":"Feature","properties":{"geo":{"name":"Relais Assistances Maternelles de la Bugallière"},"_l":[47.2616388011191,-1.63246677141281],"LIBTHEME":"VIE SOCIALE","CODE_POSTAL":44700,"WEB":"www.orvault.fr","STATUT":"Public","TELEPHONE":"02 51 78 65 19","THEME":12,"COMMUNE":"ORVAULT","LIBCATEGORIE":"Petite enfance","ADRESSE":"9 Rue du Pont Marchand","LIBTYPE":"R.A.M.","_IDOBJ":1927,"TYPE":120102,"CATEGORIE":1201},"geometry":{"type":"Point","coordinates":[-1.63246677141281,47.2616388011191]}},{"type":"Feature","properties":{"geo":{"name":"Relais Assistances Maternelles Orvault Bourg"},"_l":[47.2708973119296,-1.62472394372998],"LIBTHEME":"VIE SOCIALE","CODE_POSTAL":44700,"WEB":"www.orvault.fr","STATUT":"Public","TELEPHONE":"02 51 78 32 00","THEME":12,"COMMUNE":"ORVAULT","LIBCATEGORIE":"Petite enfance","ADRESSE":"9 Rue Marcel Deniau","LIBTYPE":"R.A.M.","_IDOBJ":1928,"TYPE":120102,"CATEGORIE":1201},"geometry":{"type":"Point","coordinates":[-1.62472394372998,47.2708973119296]}},{"type":"Feature","properties":{"geo":{"name":"Crèche Comme trois pommes"},"_l":[47.2490290329599,-1.57989325826729],"LIBTHEME":"VIE SOCIALE","CODE_POSTAL":44700,"WEB":"www.orvault.fr","STATUT":"Public","TELEPHONE":"02 40 40 09 93","THEME":12,"COMMUNE":"ORVAULT","LIBCATEGORIE":"Petite enfance","ADRESSE":"21 Avenue Félix Vincent","LIBTYPE":"Multi-accueil (Crèche)","_IDOBJ":1929,"TYPE":120101,"CATEGORIE":1201},"geometry":{"type":"Point","coordinates":[-1.57989325826729,47.2490290329599]}},{"type":"Feature","properties":{"geo":{"name":"Crèche Les Croquignoles"},"_l":[47.2453013274977,-1.59838972495537],"LIBTHEME":"VIE SOCIALE","CODE_POSTAL":44700,"WEB":"www.orvault.fr","STATUT":"Privé","TELEPHONE":"02 40 40 87 87","THEME":12,"COMMUNE":"ORVAULT","LIBCATEGORIE":"Petite enfance","ADRESSE":"15 Rue de la Botte d'Asperges","LIBTYPE":"Multi-accueil (Crèche)","_IDOBJ":1930,"TYPE":120101,"CATEGORIE":1201},"geometry":{"type":"Point","coordinates":[-1.59838972495537,47.2453013274977]}},{"type":"Feature","properties":{"geo":{"name":"Multi-Accueil La Raguenotte"},"_l":[47.2688527972678,-1.59867332453967],"LIBTHEME":"VIE SOCIALE","CODE_POSTAL":44700,"WEB":"www.orvault.fr","STATUT":"Public","TELEPHONE":"02 40 63 57 90","THEME":12,"COMMUNE":"ORVAULT","LIBCATEGORIE":"Petite enfance","ADRESSE":"8 Rue des Sonnailles","LIBTYPE":"Multi-accueil (Crèche)","_IDOBJ":1931,"TYPE":120101,"CATEGORIE":1201},"geometry":{"type":"Point","coordinates":[-1.59867332453967,47.2688527972678]}},{"type":"Feature","properties":{"geo":{"name":"Multi-Accueil La Farandole"},"_l":[47.2614826652935,-1.63286852002434],"LIBTHEME":"VIE SOCIALE","CODE_POSTAL":44700,"WEB":"www.orvault.fr","STATUT":"Public","TELEPHONE":"02 40 63 08 97","THEME":12,"COMMUNE":"ORVAULT","LIBCATEGORIE":"Petite enfance","ADRESSE":"11 Rue du Pont Marchand","LIBTYPE":"Multi-accueil (Crèche)","_IDOBJ":1932,"TYPE":120101,"CATEGORIE":1201},"geometry":{"type":"Point","coordinates":[-1.63286852002434,47.2614826652935]}},{"type":"Feature","properties":{"geo":{"name":"Multi-Accueil Mary Poppins"},"_l":[47.2401166336783,-1.58961437652266],"LIBTHEME":"VIE SOCIALE","CODE_POSTAL":44700,"WEB":"www.orvault.fr","STATUT":"Public","TELEPHONE":"02 40 76 10 24","THEME":12,"COMMUNE":"ORVAULT","LIBCATEGORIE":"Petite enfance","ADRESSE":"4 Avenue de l'Ille","LIBTYPE":"Multi-accueil (Crèche)","_IDOBJ":1933,"TYPE":120101,"CATEGORIE":1201},"geometry":{"type":"Point","coordinates":[-1.58961437652266,47.2401166336783]}},{"type":"Feature","properties":{"geo":{"name":"Multi-Accueil Les Gob'Trotteurs"},"_l":[47.247453162638,-1.58599770439447],"LIBTHEME":"VIE SOCIALE","CODE_POSTAL":44700,"WEB":"www.orvault.fr","STATUT":"Public","TELEPHONE":"02 40 40 21 34","THEME":12,"COMMUNE":"ORVAULT","LIBCATEGORIE":"Petite enfance","ADRESSE":"37 Avenue de la Ferrière","LIBTYPE":"Multi-accueil (Crèche)","_IDOBJ":1934,"TYPE":120101,"CATEGORIE":1201},"geometry":{"type":"Point","coordinates":[-1.58599770439447,47.247453162638]}},{"type":"Feature","properties":{"geo":{"name":"Halte Garderie de la Profondine"},"_l":[47.1954353488283,-1.49013896906775],"LIBTHEME":"VIE SOCIALE","CODE_POSTAL":44230,"WEB":null,"STATUT":"Public","TELEPHONE":"02 40 33 19 04","THEME":12,"COMMUNE":"ST-SEBASTIEN","LIBCATEGORIE":"Petite enfance","ADRESSE":"Rue de l'Allée Verte","LIBTYPE":"Multi-accueil (Crèche)","_IDOBJ":1993,"TYPE":120101,"CATEGORIE":1201},"geometry":{"type":"Point","coordinates":[-1.49013896906775,47.1954353488283]}},{"type":"Feature","properties":{"geo":{"name":"Centre Social Le Douet (Multi-accueil)"},"_l":[47.1936109722549,-1.52037756629889],"LIBTHEME":"VIE SOCIALE","CODE_POSTAL":44230,"WEB":"www.saintsebastien.fr","STATUT":"Public","TELEPHONE":"02 40 33 16 87","THEME":12,"COMMUNE":"ST-SEBASTIEN","LIBCATEGORIE":"Petite enfance","ADRESSE":"3 Allée du Six Juin 1944","LIBTYPE":"Multi-accueil (Crèche)","_IDOBJ":2057,"TYPE":120101,"CATEGORIE":1201},"geometry":{"type":"Point","coordinates":[-1.52037756629889,47.1936109722549]}},{"type":"Feature","properties":{"geo":{"name":"Crèche de la Bergerie"},"_l":[47.2367757387284,-1.63174787880527],"LIBTHEME":"VIE SOCIALE","CODE_POSTAL":44800,"WEB":"www.saint-herblain.fr","STATUT":"Public","TELEPHONE":"02 40 63 02 81","THEME":12,"COMMUNE":"ST-HERBLAIN","LIBCATEGORIE":"Petite enfance","ADRESSE":"Rue de la Bergerie","LIBTYPE":"Multi-accueil (Crèche)","_IDOBJ":2132,"TYPE":120101,"CATEGORIE":1201},"geometry":{"type":"Point","coordinates":[-1.63174787880527,47.2367757387284]}},{"type":"Feature","properties":{"geo":{"name":"Multi-accueil Les Petits Martiens"},"_l":[47.2108255017289,-1.54675300574734],"LIBTHEME":"VIE SOCIALE","CODE_POSTAL":44000,"WEB":null,"STATUT":"Non Municipal","TELEPHONE":"02 40 08 71 07","THEME":12,"COMMUNE":"NANTES","LIBCATEGORIE":"Petite enfance","ADRESSE":"47 Rue Fouré","LIBTYPE":"Multi-accueil (Crèche)","_IDOBJ":2289,"TYPE":120101,"CATEGORIE":1201},"geometry":{"type":"Point","coordinates":[-1.54675300574734,47.2108255017289]}},{"type":"Feature","properties":{"geo":{"name":"Antenne La Petite Maison de Procé"},"_l":[47.2226310753101,-1.58013500445995],"LIBTHEME":"VIE SOCIALE","CODE_POSTAL":44000,"WEB":null,"STATUT":"Municipal","TELEPHONE":"02 40 69 78 40","THEME":12,"COMMUNE":"NANTES","LIBCATEGORIE":"Petite enfance","ADRESSE":"42 Rue des Dervallières","LIBTYPE":"Multi-accueil (Crèche)","_IDOBJ":2290,"TYPE":120101,"CATEGORIE":1201},"geometry":{"type":"Point","coordinates":[-1.58013500445995,47.2226310753101]}},{"type":"Feature","properties":{"geo":{"name":"Crèche Associative Bambou"},"_l":[47.2275819760247,-1.53035273415839],"LIBTHEME":"VIE SOCIALE","CODE_POSTAL":44000,"WEB":null,"STATUT":"Non Municipal","TELEPHONE":"02 40 49 80 51","THEME":12,"COMMUNE":"NANTES","LIBCATEGORIE":"Petite enfance","ADRESSE":"24 Rue du Casterneau","LIBTYPE":"Multi-accueil (Crèche)","_IDOBJ":2403,"TYPE":120101,"CATEGORIE":1201},"geometry":{"type":"Point","coordinates":[-1.53035273415839,47.2275819760247]}},{"type":"Feature","properties":{"geo":{"name":"Multi_accueil Les P'tits Loups"},"_l":[47.1915268353651,-1.68555181514474],"LIBTHEME":"VIE SOCIALE","CODE_POSTAL":44620,"WEB":"www.ville-lamontagne.fr","STATUT":null,"TELEPHONE":"02 40 65 74 20","THEME":12,"COMMUNE":"LA-MONTAGNE","LIBCATEGORIE":"Petite enfance","ADRESSE":"94 Rue Violin","LIBTYPE":"Multi-accueil (Crèche)","_IDOBJ":2523,"TYPE":120101,"CATEGORIE":1201},"geometry":{"type":"Point","coordinates":[-1.68555181514474,47.1915268353651]}},{"type":"Feature","properties":{"geo":{"name":"Multi-accueil Bidibulle"},"_l":[47.2484899938987,-1.48360324794549],"LIBTHEME":"VIE SOCIALE","CODE_POSTAL":44980,"WEB":null,"STATUT":null,"TELEPHONE":"02 40 68 16 90","THEME":12,"COMMUNE":"SAINTE-LUCE-SUR-LOIRE","LIBCATEGORIE":"Petite enfance","ADRESSE":"3 Allée Eudes De Frémond","LIBTYPE":"Multi-accueil (Crèche)","_IDOBJ":2585,"TYPE":120101,"CATEGORIE":1201},"geometry":{"type":"Point","coordinates":[-1.48360324794549,47.2484899938987]}},{"type":"Feature","properties":{"geo":{"name":"Multi-accueil Les P'tits Bouts"},"_l":[47.2648836043537,-1.67720761520243],"LIBTHEME":"VIE SOCIALE","CODE_POSTAL":44880,"WEB":"www.sautron.fr","STATUT":null,"TELEPHONE":"02 40 94 95 26","THEME":12,"COMMUNE":"SAUTRON","LIBCATEGORIE":"Petite enfance","ADRESSE":"17 Rue de la Forêt","LIBTYPE":"Multi-accueil (Crèche)","_IDOBJ":2618,"TYPE":120101,"CATEGORIE":1201},"geometry":{"type":"Point","coordinates":[-1.67720761520243,47.2648836043537]}},{"type":"Feature","properties":{"geo":{"name":"Accueil Parents Enfants La Marelle"},"_l":[47.2122994991156,-1.61404158017277],"LIBTHEME":"VIE SOCIALE","CODE_POSTAL":44800,"WEB":"www.saint-herblain.fr","STATUT":null,"TELEPHONE":null,"THEME":12,"COMMUNE":"ST-HERBLAIN","LIBCATEGORIE":"Petite enfance","ADRESSE":"9 Rue de Charente","LIBTYPE":"Multi-accueil (Crèche)","_IDOBJ":2751,"TYPE":120101,"CATEGORIE":1201},"geometry":{"type":"Point","coordinates":[-1.61404158017277,47.2122994991156]}},{"type":"Feature","properties":{"geo":{"name":"Relais Assistantes Maternelles"},"_l":[47.1431952465804,-1.69259893100362],"LIBTHEME":"VIE SOCIALE","CODE_POSTAL":44830,"WEB":null,"STATUT":null,"TELEPHONE":"02 40 32 53 52","THEME":12,"COMMUNE":"BOUAYE","LIBCATEGORIE":"Petite enfance","ADRESSE":"2 Place du Bois Jacques","LIBTYPE":"R.A.M.","_IDOBJ":2754,"TYPE":120102,"CATEGORIE":1201},"geometry":{"type":"Point","coordinates":[-1.69259893100362,47.1431952465804]}},{"type":"Feature","properties":{"geo":{"name":"Multi Accueil La Ribambelle"},"_l":[47.1427959495033,-1.69341411504822],"LIBTHEME":"VIE SOCIALE","CODE_POSTAL":44830,"WEB":null,"STATUT":null,"TELEPHONE":"02 40 32 69 41","THEME":12,"COMMUNE":"BOUAYE","LIBCATEGORIE":"Petite enfance","ADRESSE":"Boulevard du Bois Jacques","LIBTYPE":"Multi-accueil (Crèche)","_IDOBJ":2755,"TYPE":120101,"CATEGORIE":1201},"geometry":{"type":"Point","coordinates":[-1.69341411504822,47.1427959495033]}},{"type":"Feature","properties":{"geo":{"name":"Centre Baptiste Marcet - Halte d'Enfants Les p'tites Couettes"},"_l":[47.1812098738184,-1.58812113737641],"LIBTHEME":"VIE SOCIALE","CODE_POSTAL":44340,"WEB":"www.ville-bouguenais.fr","STATUT":null,"TELEPHONE":"02 40 32 00 50","THEME":12,"COMMUNE":"BOUGUENAIS","LIBCATEGORIE":"Petite enfance","ADRESSE":"2 Rue Célestin Freinet","LIBTYPE":"Multi-accueil (Crèche)","_IDOBJ":2756,"TYPE":120101,"CATEGORIE":1201},"geometry":{"type":"Point","coordinates":[-1.58812113737641,47.1812098738184]}},{"type":"Feature","properties":{"geo":{"name":"Crèche collective 1, 2, 3 Soleil"},"_l":[47.1819115446836,-1.5888633834135],"LIBTHEME":"VIE SOCIALE","CODE_POSTAL":44340,"WEB":"www.ville-bouguenais.fr","STATUT":null,"TELEPHONE":"02 40 26 49 91","THEME":12,"COMMUNE":"BOUGUENAIS","LIBCATEGORIE":"Petite enfance","ADRESSE":"Chemin Fernand Léger","LIBTYPE":"Multi-accueil (Crèche)","_IDOBJ":2757,"TYPE":120101,"CATEGORIE":1201},"geometry":{"type":"Point","coordinates":[-1.5888633834135,47.1819115446836]}},{"type":"Feature","properties":{"geo":{"name":"Crèche municipale Capucine"},"_l":[47.2972710361927,-1.48819532136474],"LIBTHEME":"VIE SOCIALE","CODE_POSTAL":44470,"WEB":"www.carquefou.fr","STATUT":null,"TELEPHONE":"02 28 22 20 75","THEME":12,"COMMUNE":"CARQUEFOU","LIBCATEGORIE":"Petite enfance","ADRESSE":"35 Rue du Marquis de Dion","LIBTYPE":"Multi-accueil (Crèche)","_IDOBJ":2759,"TYPE":120101,"CATEGORIE":1201},"geometry":{"type":"Point","coordinates":[-1.48819532136474,47.2972710361927]}},{"type":"Feature","properties":{"geo":{"name":"Multi-accueil Pirouette"},"_l":[47.2962424833307,-1.49410707307269],"LIBTHEME":"VIE SOCIALE","CODE_POSTAL":44470,"WEB":"www.carquefou.fr","STATUT":null,"TELEPHONE":"02 28 22 20 70","THEME":12,"COMMUNE":"CARQUEFOU","LIBCATEGORIE":"Petite enfance","ADRESSE":"17 Rue Arthur Ecomard","LIBTYPE":"Multi-accueil (Crèche)","_IDOBJ":2760,"TYPE":120101,"CATEGORIE":1201},"geometry":{"type":"Point","coordinates":[-1.49410707307269,47.2962424833307]}},{"type":"Feature","properties":{"geo":{"name":"Maison de l'Enfance - Relais Assistantes Maternelles / Relais Petite Enfance"},"_l":[47.2976115478625,-1.48427653054654],"LIBTHEME":"VIE SOCIALE","CODE_POSTAL":44470,"WEB":"www.carquefou.fr","STATUT":null,"TELEPHONE":"02 28 22 20 67","THEME":12,"COMMUNE":"CARQUEFOU","LIBCATEGORIE":"Petite enfance","ADRESSE":"Avenue des Argonautes","LIBTYPE":"R.A.M.","_IDOBJ":2763,"TYPE":120102,"CATEGORIE":1201},"geometry":{"type":"Point","coordinates":[-1.48427653054654,47.2976115478625]}},{"type":"Feature","properties":{"geo":{"name":"Multi-accueil Les Lutins"},"_l":[47.2100072537036,-1.46382410572003],"LIBTHEME":"VIE SOCIALE","CODE_POSTAL":44115,"WEB":"www.basse-goulaine.fr","STATUT":null,"TELEPHONE":"02 40 03 56 91","THEME":12,"COMMUNE":"BASSE-GOULAINE","LIBCATEGORIE":"Petite enfance","ADRESSE":"36 Rue de la Champagnère","LIBTYPE":"Multi-accueil (Crèche)","_IDOBJ":2764,"TYPE":120101,"CATEGORIE":1201},"geometry":{"type":"Point","coordinates":[-1.46382410572003,47.2100072537036]}},{"type":"Feature","properties":{"geo":{"name":"Maison de l'Enfance - Multi-accueil Chabossière"},"_l":[47.2147347438937,-1.68323781976835],"LIBTHEME":"VIE SOCIALE","CODE_POSTAL":44220,"WEB":null,"STATUT":null,"TELEPHONE":"02 40 85 06 99","THEME":12,"COMMUNE":"COUERON","LIBCATEGORIE":"Petite enfance","ADRESSE":"Place des Cités","LIBTYPE":"Multi-accueil (Crèche)","_IDOBJ":2765,"TYPE":120101,"CATEGORIE":1201},"geometry":{"type":"Point","coordinates":[-1.68323781976835,47.2147347438937]}},{"type":"Feature","properties":{"geo":{"name":"Maison de l'Enfance - Relais Assistantes Maternelles Couëron"},"_l":[47.2125424805585,-1.72841051815452],"LIBTHEME":"VIE SOCIALE","CODE_POSTAL":44220,"WEB":"www.sautron.fr","STATUT":null,"TELEPHONE":"02 40 38 51 75","THEME":12,"COMMUNE":"COUERON","LIBCATEGORIE":"Petite enfance","ADRESSE":"Rue Joséphine Even","LIBTYPE":"R.A.M.","_IDOBJ":2766,"TYPE":120102,"CATEGORIE":1201},"geometry":{"type":"Point","coordinates":[-1.72841051815452,47.2125424805585]}},{"type":"Feature","properties":{"geo":{"name":"Maison de l'Enfance - Crèche Familiale"},"_l":[47.2124790859455,-1.72823371709503],"LIBTHEME":"VIE SOCIALE","CODE_POSTAL":44220,"WEB":"www.sautron.fr","STATUT":null,"TELEPHONE":"02 40 38 51 76","THEME":12,"COMMUNE":"COUERON","LIBCATEGORIE":"Petite enfance","ADRESSE":"Rue Joséphine Even","LIBTYPE":"Multi-accueil (Crèche)","_IDOBJ":2767,"TYPE":120101,"CATEGORIE":1201},"geometry":{"type":"Point","coordinates":[-1.72823371709503,47.2124790859455]}},{"type":"Feature","properties":{"geo":{"name":"Maison de l'Enfance - Multi-accueil bourg"},"_l":[47.2124332353538,-1.72846871543705],"LIBTHEME":"VIE SOCIALE","CODE_POSTAL":44220,"WEB":"www.sautron.fr","STATUT":null,"TELEPHONE":"02 40 38 51 44","THEME":12,"COMMUNE":"COUERON","LIBCATEGORIE":"Petite enfance","ADRESSE":"Rue Joséphine Even","LIBTYPE":"Multi-accueil (Crèche)","_IDOBJ":2769,"TYPE":120101,"CATEGORIE":1201},"geometry":{"type":"Point","coordinates":[-1.72846871543705,47.2124332353538]}},{"type":"Feature","properties":{"geo":{"name":"Multi-accueil Cadet Rousselle"},"_l":[47.201267382874,-1.66916225613682],"LIBTHEME":"VIE SOCIALE","CODE_POSTAL":44610,"WEB":null,"STATUT":null,"TELEPHONE":"02 40 86 04 61","THEME":12,"COMMUNE":"INDRE","LIBCATEGORIE":"Petite enfance","ADRESSE":"Rue de la Gare","LIBTYPE":"Multi-accueil (Crèche)","_IDOBJ":2770,"TYPE":120101,"CATEGORIE":1201},"geometry":{"type":"Point","coordinates":[-1.66916225613682,47.201267382874]}},{"type":"Feature","properties":{"geo":{"name":"Halte d'enfants 1, 2, 3, Soleil"},"_l":[47.296874657238,-1.555684283012],"LIBTHEME":"VIE SOCIALE","CODE_POSTAL":44240,"WEB":"www.lachapellesurerdre.fr","STATUT":null,"TELEPHONE":"02 40 77 82 90","THEME":12,"COMMUNE":"LA-CHAPELLE-SUR-ERDRE","LIBCATEGORIE":"Petite enfance","ADRESSE":"Avenue de Beauregard","LIBTYPE":"Multi-accueil (Crèche)","_IDOBJ":2771,"TYPE":120101,"CATEGORIE":1201},"geometry":{"type":"Point","coordinates":[-1.555684283012,47.296874657238]}},{"type":"Feature","properties":{"geo":{"name":"Maison de l'Enfance - Mini-crèche des Petits Queniaux"},"_l":[47.2700364288249,-1.55347855566329],"LIBTHEME":"VIE SOCIALE","CODE_POSTAL":44240,"WEB":"www.lachapellesurerdre.fr","STATUT":null,"TELEPHONE":"02 40 93 50 16","THEME":12,"COMMUNE":"LA-CHAPELLE-SUR-ERDRE","LIBCATEGORIE":"Petite enfance","ADRESSE":"Boulevard de l'Hopitau","LIBTYPE":"Multi-accueil (Crèche)","_IDOBJ":2773,"TYPE":120101,"CATEGORIE":1201},"geometry":{"type":"Point","coordinates":[-1.55347855566329,47.2700364288249]}},{"type":"Feature","properties":{"geo":{"name":"Relais Assistantes Maternelles La Chapelle sur Erdre"},"_l":[47.3031459842082,-1.55241438642156],"LIBTHEME":"VIE SOCIALE","CODE_POSTAL":44240,"WEB":"www.lachapellesurerdre.fr","STATUT":null,"TELEPHONE":"02 40 29 74 00","THEME":12,"COMMUNE":"LA-CHAPELLE-SUR-ERDRE","LIBCATEGORIE":"Petite enfance","ADRESSE":"34 Rue du Plessis","LIBTYPE":"R.A.M.","_IDOBJ":2774,"TYPE":120102,"CATEGORIE":1201},"geometry":{"type":"Point","coordinates":[-1.55241438642156,47.3031459842082]}},{"type":"Feature","properties":{"geo":{"name":"Maison d'Accueil et d'Information Sociale - Relais Assistantes Maternelles inter"},"_l":[47.1990989289479,-1.75428922479043],"LIBTHEME":"VIE SOCIALE","CODE_POSTAL":44640,"WEB":"www.ville-lepellerin.fr","STATUT":null,"TELEPHONE":"02 40 05 69 81","THEME":12,"COMMUNE":"LE-PELLERIN","LIBCATEGORIE":"Petite enfance","ADRESSE":"2 Allée George Sand","LIBTYPE":"R.A.M.","_IDOBJ":2776,"TYPE":120102,"CATEGORIE":1201},"geometry":{"type":"Point","coordinates":[-1.75428922479043,47.1990989289479]}},{"type":"Feature","properties":{"geo":{"name":"Multi-Accueil Frimousse"},"_l":[47.2721704160051,-1.63028813205703],"LIBTHEME":"VIE SOCIALE","CODE_POSTAL":44700,"WEB":"www.orvault.fr","STATUT":null,"TELEPHONE":"02 40 63 93 85","THEME":12,"COMMUNE":"ORVAULT","LIBCATEGORIE":"Petite enfance","ADRESSE":"5 Rue du Landreau","LIBTYPE":"Multi-accueil (Crèche)","_IDOBJ":2779,"TYPE":120101,"CATEGORIE":1201},"geometry":{"type":"Point","coordinates":[-1.63028813205703,47.2721704160051]}},{"type":"Feature","properties":{"geo":{"name":"Halte Garderie Pousse Poussette"},"_l":[47.18557295781,-1.55633531498589],"LIBTHEME":"VIE SOCIALE","CODE_POSTAL":44400,"WEB":null,"STATUT":null,"TELEPHONE":"02 51 70 75 55","THEME":12,"COMMUNE":"REZE","LIBCATEGORIE":"Petite enfance","ADRESSE":"Allée de Touraine","LIBTYPE":"Multi-accueil (Crèche)","_IDOBJ":2781,"TYPE":120101,"CATEGORIE":1201},"geometry":{"type":"Point","coordinates":[-1.55633531498589,47.18557295781]}},{"type":"Feature","properties":{"geo":{"name":"Halte Garderie Pirouettes et Galipettes"},"_l":[47.1786616024186,-1.5469345575085],"LIBTHEME":"VIE SOCIALE","CODE_POSTAL":44400,"WEB":null,"STATUT":null,"TELEPHONE":"02 40 04 28 59","THEME":12,"COMMUNE":"REZE","LIBCATEGORIE":"Petite enfance","ADRESSE":"12 Rue des Déportés","LIBTYPE":"Multi-accueil (Crèche)","_IDOBJ":2782,"TYPE":120101,"CATEGORIE":1201},"geometry":{"type":"Point","coordinates":[-1.5469345575085,47.1786616024186]}},{"type":"Feature","properties":{"geo":{"name":"Relais Assistantes Maternelles N°1 et 2"},"_l":[47.1855590522703,-1.55657356868263],"LIBTHEME":"VIE SOCIALE","CODE_POSTAL":44400,"WEB":null,"STATUT":null,"TELEPHONE":"02 40 05 04 02","THEME":12,"COMMUNE":"REZE","LIBCATEGORIE":"Petite enfance","ADRESSE":"Allée de Provence","LIBTYPE":"R.A.M.","_IDOBJ":2783,"TYPE":120102,"CATEGORIE":1201},"geometry":{"type":"Point","coordinates":[-1.55657356868263,47.1855590522703]}},{"type":"Feature","properties":{"geo":{"name":"Crèche Pomme de Reinette"},"_l":[47.1919845345765,-1.54480669676008],"LIBTHEME":"VIE SOCIALE","CODE_POSTAL":44400,"WEB":null,"STATUT":null,"TELEPHONE":"02 40 05 17 82","THEME":12,"COMMUNE":"REZE","LIBCATEGORIE":"Petite enfance","ADRESSE":"Rue René Cassin","LIBTYPE":"Multi-accueil (Crèche)","_IDOBJ":2784,"TYPE":120101,"CATEGORIE":1201},"geometry":{"type":"Point","coordinates":[-1.54480669676008,47.1919845345765]}},{"type":"Feature","properties":{"geo":{"name":"Crèche A Petits Pas"},"_l":[47.1671349432781,-1.54726358197888],"LIBTHEME":"VIE SOCIALE","CODE_POSTAL":44400,"WEB":null,"STATUT":null,"TELEPHONE":"02 40 75 61 79","THEME":12,"COMMUNE":"REZE","LIBCATEGORIE":"Petite enfance","ADRESSE":"1 Place du Traité de Rome","LIBTYPE":"Multi-accueil (Crèche)","_IDOBJ":2785,"TYPE":120101,"CATEGORIE":1201},"geometry":{"type":"Point","coordinates":[-1.54726358197888,47.1671349432781]}},{"type":"Feature","properties":{"geo":{"name":"Halte Garderie Enfantine Bleue Chêne Gala"},"_l":[47.1872055779334,-1.53757436808184],"LIBTHEME":"VIE SOCIALE","CODE_POSTAL":44400,"WEB":null,"STATUT":null,"TELEPHONE":"02 51 70 17 91","THEME":12,"COMMUNE":"REZE","LIBCATEGORIE":"Petite enfance","ADRESSE":"99 Rue Jean Baptiste Vigier","LIBTYPE":"Multi-accueil (Crèche)","_IDOBJ":2786,"TYPE":120101,"CATEGORIE":1201},"geometry":{"type":"Point","coordinates":[-1.53757436808184,47.1872055779334]}},{"type":"Feature","properties":{"geo":{"name":"Maison de l'enfance \"Pom' de Rainette\""},"_l":[47.1232580565186,-1.63042180845986],"LIBTHEME":"VIE SOCIALE","CODE_POSTAL":44860,"WEB":"www.saint-aignan-grandlieu.fr","STATUT":null,"TELEPHONE":"02 40 26 44 51","THEME":12,"COMMUNE":"SAINT-AIGNAN-GRANDLIEU","LIBCATEGORIE":"Petite enfance","ADRESSE":"35 Rue des Frères Rousseau","LIBTYPE":"Multi-accueil (Crèche)","_IDOBJ":2787,"TYPE":120101,"CATEGORIE":1201},"geometry":{"type":"Point","coordinates":[-1.63042180845986,47.1232580565186]}},{"type":"Feature","properties":{"geo":{"name":"Crèche de la Bernardière"},"_l":[47.2060104568451,-1.61662558749965],"LIBTHEME":"VIE SOCIALE","CODE_POSTAL":44800,"WEB":"www.saint-herblain.fr","STATUT":null,"TELEPHONE":"02 40 95 08 19","THEME":12,"COMMUNE":"ST-HERBLAIN","LIBCATEGORIE":"Petite enfance","ADRESSE":"4 Rue de Marseille","LIBTYPE":"Multi-accueil (Crèche)","_IDOBJ":2788,"TYPE":120101,"CATEGORIE":1201},"geometry":{"type":"Point","coordinates":[-1.61662558749965,47.2060104568451]}},{"type":"Feature","properties":{"geo":{"name":"Multi-Accueil Soleil Levant"},"_l":[47.2197592216833,-1.61047577704622],"LIBTHEME":"VIE SOCIALE","CODE_POSTAL":44800,"WEB":"www.saint-herblain.fr","STATUT":null,"TELEPHONE":"02 28 03 57 53","THEME":12,"COMMUNE":"ST-HERBLAIN","LIBCATEGORIE":"Petite enfance","ADRESSE":"38 Rue de la Blanche","LIBTYPE":"Multi-accueil (Crèche)","_IDOBJ":2789,"TYPE":120101,"CATEGORIE":1201},"geometry":{"type":"Point","coordinates":[-1.61047577704622,47.2197592216833]}},{"type":"Feature","properties":{"geo":{"name":"Halte Garderie Club des Galipettes"},"_l":[47.1933028011645,-1.72580262199078],"LIBTHEME":"VIE SOCIALE","CODE_POSTAL":44640,"WEB":null,"STATUT":null,"TELEPHONE":"02 40 32 97 11","THEME":12,"COMMUNE":"SAINT-JEAN-DE-BOISEAU","LIBCATEGORIE":"Petite enfance","ADRESSE":"Rue des Violettes","LIBTYPE":"Multi-accueil (Crèche)","_IDOBJ":2790,"TYPE":120101,"CATEGORIE":1201},"geometry":{"type":"Point","coordinates":[-1.72580262199078,47.1933028011645]}},{"type":"Feature","properties":{"geo":{"name":"Relais Assistantes Maternelles"},"_l":[47.2485465442702,-1.48385369869804],"LIBTHEME":"VIE SOCIALE","CODE_POSTAL":44980,"WEB":null,"STATUT":null,"TELEPHONE":"02 40 68 16 60","THEME":12,"COMMUNE":"SAINTE-LUCE-SUR-LOIRE","LIBCATEGORIE":"Petite enfance","ADRESSE":"3 Allée Eudes De Frémond","LIBTYPE":"R.A.M.","_IDOBJ":2793,"TYPE":120102,"CATEGORIE":1201},"geometry":{"type":"Point","coordinates":[-1.48385369869804,47.2485465442702]}},{"type":"Feature","properties":{"geo":{"name":"Relais Assistante Maternelle Vertou"},"_l":[47.1667490578337,-1.47325936460516],"LIBTHEME":"VIE SOCIALE","CODE_POSTAL":44120,"WEB":"www.vertou.fr","STATUT":null,"TELEPHONE":"02 40 34 77 68","THEME":12,"COMMUNE":"VERTOU","LIBCATEGORIE":"Petite enfance","ADRESSE":"6B Rue Aristide Briand","LIBTYPE":"R.A.M.","_IDOBJ":2794,"TYPE":120102,"CATEGORIE":1201},"geometry":{"type":"Point","coordinates":[-1.47325936460516,47.1667490578337]}},{"type":"Feature","properties":{"geo":{"name":"Maison de l'Enfance - Relais Assistante Maternelle Trait d'Union"},"_l":[47.2707530672179,-1.43943903272554],"LIBTHEME":"VIE SOCIALE","CODE_POSTAL":44470,"WEB":null,"STATUT":null,"TELEPHONE":"02 51 13 03 60","THEME":12,"COMMUNE":"THOUARE-SUR-LOIRE","LIBCATEGORIE":"Petite enfance","ADRESSE":"27 Résidence de la Clémencière","LIBTYPE":"R.A.M.","_IDOBJ":2795,"TYPE":120102,"CATEGORIE":1201},"geometry":{"type":"Point","coordinates":[-1.43943903272554,47.2707530672179]}},{"type":"Feature","properties":{"geo":{"name":"Maison de l'Enfance - Multi-accueil"},"_l":[47.2705033109198,-1.43937905151241],"LIBTHEME":"VIE SOCIALE","CODE_POSTAL":44470,"WEB":null,"STATUT":null,"TELEPHONE":null,"THEME":12,"COMMUNE":"THOUARE-SUR-LOIRE","LIBCATEGORIE":"Petite enfance","ADRESSE":"20 Rue des Ecoles","LIBTYPE":"Multi-accueil (Crèche)","_IDOBJ":2796,"TYPE":120101,"CATEGORIE":1201},"geometry":{"type":"Point","coordinates":[-1.43937905151241,47.2705033109198]}},{"type":"Feature","properties":{"geo":{"name":"Multi-accueil La Garenne"},"_l":[47.1645821608373,-1.47431078925107],"LIBTHEME":"VIE SOCIALE","CODE_POSTAL":44120,"WEB":null,"STATUT":null,"TELEPHONE":"02 40 34 10 77","THEME":12,"COMMUNE":"VERTOU","LIBCATEGORIE":"Petite enfance","ADRESSE":"1 Rue de la Garenne","LIBTYPE":"Multi-accueil (Crèche)","_IDOBJ":2798,"TYPE":120101,"CATEGORIE":1201},"geometry":{"type":"Point","coordinates":[-1.47431078925107,47.1645821608373]}},{"type":"Feature","properties":{"geo":{"name":"Multi-accueil \"La Fontenelle\""},"_l":[47.1845501138909,-1.50531331467839],"LIBTHEME":"VIE SOCIALE","CODE_POSTAL":44120,"WEB":null,"STATUT":null,"TELEPHONE":"02 51 79 11 46","THEME":12,"COMMUNE":"VERTOU","LIBCATEGORIE":"Petite enfance","ADRESSE":"Place de la Poste","LIBTYPE":"Multi-accueil (Crèche)","_IDOBJ":2799,"TYPE":120101,"CATEGORIE":1201},"geometry":{"type":"Point","coordinates":[-1.50531331467839,47.1845501138909]}},{"type":"Feature","properties":{"geo":{"name":"Crèche de Preux"},"_l":[47.2209296233851,-1.61662322412053],"LIBTHEME":"VIE SOCIALE","CODE_POSTAL":44800,"WEB":"www.saint-herblain.fr","STATUT":null,"TELEPHONE":"02 40 95 02 71","THEME":12,"COMMUNE":"ST-HERBLAIN","LIBCATEGORIE":"Petite enfance","ADRESSE":"2 Allée Fédérico Garcia Lorca","LIBTYPE":"Multi-accueil (Crèche)","_IDOBJ":2800,"TYPE":120101,"CATEGORIE":1201},"geometry":{"type":"Point","coordinates":[-1.61662322412053,47.2209296233851]}},{"type":"Feature","properties":{"geo":{"name":"Multi-accueil Ribambelle"},"_l":[47.2218081021267,-1.54425715550024],"LIBTHEME":"VIE SOCIALE","CODE_POSTAL":44000,"WEB":null,"STATUT":"Non Municipal","TELEPHONE":"02 40 20 12 96","THEME":12,"COMMUNE":"NANTES","LIBCATEGORIE":"Petite enfance","ADRESSE":"87 Rue Gaston Turpin","LIBTYPE":"Multi-accueil (Crèche)","_IDOBJ":3289,"TYPE":120101,"CATEGORIE":1201},"geometry":{"type":"Point","coordinates":[-1.54425715550024,47.2218081021267]}},{"type":"Feature","properties":{"geo":{"name":"Crèche Associative Tom Pouce"},"_l":[47.2099377787933,-1.54946576818627],"LIBTHEME":"VIE SOCIALE","CODE_POSTAL":44000,"WEB":null,"STATUT":"Non Municipal","TELEPHONE":"02 51 72 05 09","THEME":12,"COMMUNE":"NANTES","LIBCATEGORIE":"Petite enfance","ADRESSE":"30 Rue des Olivettes","LIBTYPE":"Multi-accueil (Crèche)","_IDOBJ":3292,"TYPE":120101,"CATEGORIE":1201},"geometry":{"type":"Point","coordinates":[-1.54946576818627,47.2099377787933]}},{"type":"Feature","properties":{"geo":{"name":"Crèche Associative La Lanterne Magique"},"_l":[47.2054786486153,-1.55047916859005],"LIBTHEME":"VIE SOCIALE","CODE_POSTAL":44200,"WEB":null,"STATUT":"Non Municipal","TELEPHONE":"02 51 89 40 66","THEME":12,"COMMUNE":"NANTES","LIBCATEGORIE":"Petite enfance","ADRESSE":"1A Boulevard Babin Chevaye","LIBTYPE":"Multi-accueil (Crèche)","_IDOBJ":3293,"TYPE":120101,"CATEGORIE":1201},"geometry":{"type":"Point","coordinates":[-1.55047916859005,47.2054786486153]}},{"type":"Feature","properties":{"geo":{"name":"Relais Assistance Maternelle Beautour"},"_l":[47.1838588874473,-1.50585516674789],"LIBTHEME":"VIE SOCIALE","CODE_POSTAL":44120,"WEB":null,"STATUT":null,"TELEPHONE":"02 51 71 05 09","THEME":12,"COMMUNE":"VERTOU","LIBCATEGORIE":"Petite enfance","ADRESSE":"Place de la Poste","LIBTYPE":"R.A.M.","_IDOBJ":3317,"TYPE":120102,"CATEGORIE":1201},"geometry":{"type":"Point","coordinates":[-1.50585516674789,47.1838588874473]}},{"type":"Feature","properties":{"geo":{"name":"Maison de l'Enfance - Multi-accueil Gribouille"},"_l":[47.2976500653261,-1.48456312361263],"LIBTHEME":"VIE SOCIALE","CODE_POSTAL":44470,"WEB":"www.carquefou.fr","STATUT":null,"TELEPHONE":"02 28 22 20 65","THEME":12,"COMMUNE":"CARQUEFOU","LIBCATEGORIE":"Petite enfance","ADRESSE":"Avenue des Argonautes","LIBTYPE":"Multi-accueil (Crèche)","_IDOBJ":3351,"TYPE":120101,"CATEGORIE":1201},"geometry":{"type":"Point","coordinates":[-1.48456312361263,47.2976500653261]}},{"type":"Feature","properties":{"geo":{"name":"Maison de l'Enfance - Halte d'enfants La Ronde des Couleurs"},"_l":[47.2698811983364,-1.55348525705264],"LIBTHEME":"VIE SOCIALE","CODE_POSTAL":44240,"WEB":"www.lachapellesurerdre.fr","STATUT":null,"TELEPHONE":"02 40 93 52 07","THEME":12,"COMMUNE":"LA-CHAPELLE-SUR-ERDRE","LIBCATEGORIE":"Petite enfance","ADRESSE":"Boulevard de l'Hopitau","LIBTYPE":"Multi-accueil (Crèche)","_IDOBJ":3393,"TYPE":120101,"CATEGORIE":1201},"geometry":{"type":"Point","coordinates":[-1.55348525705264,47.2698811983364]}},{"type":"Feature","properties":{"geo":{"name":"Maison Enfantine Orvault"},"_l":[47.247392868009,-1.58587436966429],"LIBTHEME":"VIE SOCIALE","CODE_POSTAL":44700,"WEB":null,"STATUT":null,"TELEPHONE":null,"THEME":12,"COMMUNE":"ORVAULT","LIBCATEGORIE":"Petite enfance","ADRESSE":"37 Avenue de la Ferrière","LIBTYPE":"Multi-accueil (Crèche)","_IDOBJ":3438,"TYPE":120101,"CATEGORIE":1201},"geometry":{"type":"Point","coordinates":[-1.58587436966429,47.247392868009]}},{"type":"Feature","properties":{"geo":{"name":"Maison Enfantine La Montagne"},"_l":[47.1883371601533,-1.67648833942706],"LIBTHEME":"VIE SOCIALE","CODE_POSTAL":44620,"WEB":null,"STATUT":null,"TELEPHONE":null,"THEME":12,"COMMUNE":"LA-MONTAGNE","LIBCATEGORIE":"Petite enfance","ADRESSE":"Rue Jules Verne","LIBTYPE":"Multi-accueil (Crèche)","_IDOBJ":3450,"TYPE":120101,"CATEGORIE":1201},"geometry":{"type":"Point","coordinates":[-1.67648833942706,47.1883371601533]}},{"type":"Feature","properties":{"geo":{"name":"Crèche associative Les Doudous sous l'Olivier"},"_l":[47.2210729059877,-1.62760288078862],"LIBTHEME":"VIE SOCIALE","CODE_POSTAL":44800,"WEB":"www.saint-herblain.fr","STATUT":"Non Non Municipal","TELEPHONE":"02 40 36 09 96","THEME":12,"COMMUNE":"ST-HERBLAIN","LIBCATEGORIE":"Petite enfance","ADRESSE":"Rue Victor Schoelcher","LIBTYPE":"Multi-accueil (Crèche)","_IDOBJ":3557,"TYPE":120101,"CATEGORIE":1201},"geometry":{"type":"Point","coordinates":[-1.62760288078862,47.2210729059877]}},{"type":"Feature","properties":{"geo":{"name":"Crèche La Petite Sirène"},"_l":[47.2632393910828,-1.62245030229444],"LIBTHEME":"VIE SOCIALE","CODE_POSTAL":44700,"WEB":"www.orvault.fr","STATUT":null,"TELEPHONE":"02 40 63 84 32","THEME":12,"COMMUNE":"ORVAULT","LIBCATEGORIE":"Petite enfance","ADRESSE":"112 Rue de la Garenne","LIBTYPE":"Multi-accueil (Crèche)","_IDOBJ":3575,"TYPE":120101,"CATEGORIE":1201},"geometry":{"type":"Point","coordinates":[-1.62245030229444,47.2632393910828]}},{"type":"Feature","properties":{"geo":{"name":"Multi-Accueil Les Bout'chous"},"_l":[47.3042561230202,-1.49709004734637],"LIBTHEME":"VIE SOCIALE","CODE_POSTAL":44470,"WEB":"www.carquefou.fr","STATUT":null,"TELEPHONE":"02 28 22 20 80","THEME":12,"COMMUNE":"CARQUEFOU","LIBCATEGORIE":"Petite enfance","ADRESSE":"12 Avenue du Souchais","LIBTYPE":"Multi-accueil (Crèche)","_IDOBJ":3585,"TYPE":120101,"CATEGORIE":1201},"geometry":{"type":"Point","coordinates":[-1.49709004734637,47.3042561230202]}},{"type":"Feature","properties":{"geo":{"name":"Crèche Une Souris Verte 4"},"_l":[47.2248369149731,-1.55323333989054],"LIBTHEME":"VIE SOCIALE","CODE_POSTAL":44000,"WEB":null,"STATUT":"Non Municipal","TELEPHONE":"02 40 29 45 22","THEME":12,"COMMUNE":"NANTES","LIBCATEGORIE":"Petite enfance","ADRESSE":"Quai Henri Barbusse","LIBTYPE":"Multi-accueil (Crèche)","_IDOBJ":3600,"TYPE":120101,"CATEGORIE":1201},"geometry":{"type":"Point","coordinates":[-1.55323333989054,47.2248369149731]}},{"type":"Feature","properties":{"geo":{"name":"Crèche Pomme de Reinette"},"_l":[47.217469155238,-1.6420927559744],"LIBTHEME":"VIE SOCIALE","CODE_POSTAL":44800,"WEB":"www.saint-herblain.fr","STATUT":null,"TELEPHONE":"02 28 03 82 67","THEME":12,"COMMUNE":"ST-HERBLAIN","LIBCATEGORIE":"Petite enfance","ADRESSE":"5 Chemin de la Solvardière","LIBTYPE":"Multi-accueil (Crèche)","_IDOBJ":3608,"TYPE":120101,"CATEGORIE":1201},"geometry":{"type":"Point","coordinates":[-1.6420927559744,47.217469155238]}},{"type":"Feature","properties":{"geo":{"name":"Relais Parental La Courte Echelle"},"_l":[47.2290414488514,-1.59736606907367],"LIBTHEME":"VIE SOCIALE","CODE_POSTAL":44100,"WEB":null,"STATUT":"Non Municipal","TELEPHONE":"02 40 58 15 78","THEME":12,"COMMUNE":"NANTES","LIBCATEGORIE":"Petite enfance","ADRESSE":"151 Boulevard du Massacre","LIBTYPE":"Multi-accueil (Crèche)","_IDOBJ":3618,"TYPE":120101,"CATEGORIE":1201},"geometry":{"type":"Point","coordinates":[-1.59736606907367,47.2290414488514]}},{"type":"Feature","properties":{"geo":{"name":"Antenne Marion Cahour"},"_l":[47.2225439301069,-1.56132745718364],"LIBTHEME":"VIE SOCIALE","CODE_POSTAL":44000,"WEB":null,"STATUT":"Municipal","TELEPHONE":"02 40 20 06 50","THEME":12,"COMMUNE":"NANTES","LIBCATEGORIE":"Petite enfance","ADRESSE":"18 Rue de Savenay","LIBTYPE":"Multi-accueil (Crèche)","_IDOBJ":3619,"TYPE":120101,"CATEGORIE":1201},"geometry":{"type":"Point","coordinates":[-1.56132745718364,47.2225439301069]}},{"type":"Feature","properties":{"geo":{"name":"Antenne Hauts Pavés"},"_l":[47.2243760361587,-1.56457256795806],"LIBTHEME":"VIE SOCIALE","CODE_POSTAL":44000,"WEB":null,"STATUT":"Municipal","TELEPHONE":"02 40 29 29 79","THEME":12,"COMMUNE":"NANTES","LIBCATEGORIE":"Petite enfance","ADRESSE":"42 Rue des Hauts Pavés","LIBTYPE":"Multi-accueil (Crèche)","_IDOBJ":3620,"TYPE":120101,"CATEGORIE":1201},"geometry":{"type":"Point","coordinates":[-1.56457256795806,47.2243760361587]}},{"type":"Feature","properties":{"geo":{"name":"Lieux Accueil  Enfants Parents Les Pâtes au Beurre"},"_l":[47.2384419449421,-1.56997206016722],"LIBTHEME":"VIE SOCIALE","CODE_POSTAL":44300,"WEB":null,"STATUT":"Non Municipal","TELEPHONE":"02 40 16 06 52","THEME":12,"COMMUNE":"NANTES","LIBCATEGORIE":"Petite enfance","ADRESSE":"73 Rue Léon Jost","LIBTYPE":"Multi-accueil (Crèche)","_IDOBJ":3621,"TYPE":120101,"CATEGORIE":1201},"geometry":{"type":"Point","coordinates":[-1.56997206016722,47.2384419449421]}},{"type":"Feature","properties":{"geo":{"name":"Lieux Accueil  Enfants Parents A l'Abord'âge, Le Café des Enfants"},"_l":[47.2252549797329,-1.5298946223859],"LIBTHEME":"VIE SOCIALE","CODE_POSTAL":44000,"WEB":null,"STATUT":"Non Municipal","TELEPHONE":"02 40 37 95 83","THEME":12,"COMMUNE":"NANTES","LIBCATEGORIE":"Petite enfance","ADRESSE":"94 Rue de la Ville en Pierre","LIBTYPE":"Multi-accueil (Crèche)","_IDOBJ":3622,"TYPE":120101,"CATEGORIE":1201},"geometry":{"type":"Point","coordinates":[-1.5298946223859,47.2252549797329]}},{"type":"Feature","properties":{"geo":{"name":"Lieux Accueil  Enfants Parents Jardin d'Enfants , Maison de Parents"},"_l":[47.1933358655967,-1.53016051210701],"LIBTHEME":"VIE SOCIALE","CODE_POSTAL":44200,"WEB":null,"STATUT":"Non Municipal","TELEPHONE":"02 40 75 86 58","THEME":12,"COMMUNE":"NANTES","LIBCATEGORIE":"Petite enfance","ADRESSE":"2B Route de Clisson","LIBTYPE":"Multi-accueil (Crèche)","_IDOBJ":3623,"TYPE":120101,"CATEGORIE":1201},"geometry":{"type":"Point","coordinates":[-1.53016051210701,47.1933358655967]}},{"type":"Feature","properties":{"geo":{"name":"Multi-accueil l'Escale des Bambins"},"_l":[47.2455755206872,-1.51618362132305],"LIBTHEME":"VIE SOCIALE","CODE_POSTAL":44300,"WEB":null,"STATUT":"Non Municipal","TELEPHONE":"02 40 49 13 44","THEME":12,"COMMUNE":"NANTES","LIBCATEGORIE":"Petite enfance","ADRESSE":"14B Rue Emile Gadeceau","LIBTYPE":"Multi-accueil (Crèche)","_IDOBJ":3646,"TYPE":120101,"CATEGORIE":1201},"geometry":{"type":"Point","coordinates":[-1.51618362132305,47.2455755206872]}},{"type":"Feature","properties":{"geo":{"name":"Multi-accueil \"La Vannerie\""},"_l":[47.181674189977,-1.49899176267104],"LIBTHEME":"VIE SOCIALE","CODE_POSTAL":44120,"WEB":null,"STATUT":null,"TELEPHONE":"02 40 13 17 63","THEME":12,"COMMUNE":"VERTOU","LIBCATEGORIE":"Petite enfance","ADRESSE":"Impasse du Stade Raymond Durand","LIBTYPE":"Multi-accueil (Crèche)","_IDOBJ":3782,"TYPE":120101,"CATEGORIE":1201},"geometry":{"type":"Point","coordinates":[-1.49899176267104,47.181674189977]}},{"type":"Feature","properties":{"geo":{"name":"Crèche Le Petit Prince"},"_l":[47.2095853262566,-1.52801522274912],"LIBTHEME":"VIE SOCIALE","CODE_POSTAL":44200,"WEB":null,"STATUT":"Non Municipal","TELEPHONE":"02 51 83 11 06","THEME":12,"COMMUNE":"NANTES","LIBCATEGORIE":"Petite enfance","ADRESSE":"12 Boulevard Georges Pompidou","LIBTYPE":"Multi-accueil (Crèche)","_IDOBJ":3825,"TYPE":120101,"CATEGORIE":1201},"geometry":{"type":"Point","coordinates":[-1.52801522274912,47.2095853262566]}},{"type":"Feature","properties":{"geo":{"name":"Crèche d'entreprise Cassiopée"},"_l":[47.3012379802451,-1.50258820681248],"LIBTHEME":"VIE SOCIALE","CODE_POSTAL":44470,"WEB":"www.carquefou.fr","STATUT":null,"TELEPHONE":"02 28 23 24 99","THEME":12,"COMMUNE":"CARQUEFOU","LIBCATEGORIE":"Petite enfance","ADRESSE":"26 Boulevard Ampère","LIBTYPE":"Multi-accueil (Crèche)","_IDOBJ":3956,"TYPE":120101,"CATEGORIE":1201},"geometry":{"type":"Point","coordinates":[-1.50258820681248,47.3012379802451]}},{"type":"Feature","properties":{"geo":{"name":"Multi-Accueil Petite Enfance Nantes Sud"},"_l":[47.1946669317774,-1.52859661804944],"LIBTHEME":"VIE SOCIALE","CODE_POSTAL":44200,"WEB":null,"STATUT":"Municipal","TELEPHONE":null,"THEME":12,"COMMUNE":"NANTES","LIBCATEGORIE":"Petite enfance","ADRESSE":"5 Place du Muguet Nantais","LIBTYPE":"Multi-accueil (Crèche)","_IDOBJ":4045,"TYPE":120101,"CATEGORIE":1201},"geometry":{"type":"Point","coordinates":[-1.52859661804944,47.1946669317774]}},{"type":"Feature","properties":{"geo":{"name":"Crèche associative La Toupie Magique de l'Ile"},"_l":[47.204419408597,-1.56578880809468],"LIBTHEME":"VIE SOCIALE","CODE_POSTAL":44200,"WEB":null,"STATUT":"Non Municipal","TELEPHONE":null,"THEME":12,"COMMUNE":"NANTES","LIBCATEGORIE":"Petite enfance","ADRESSE":"Boulevard de la Prairie au Duc","LIBTYPE":"Multi-accueil (Crèche)","_IDOBJ":4046,"TYPE":120101,"CATEGORIE":1201},"geometry":{"type":"Point","coordinates":[-1.56578880809468,47.204419408597]}},{"type":"Feature","properties":{"geo":{"name":"Lieux passerelle le chemin vers l'école"},"_l":[47.2586383014728,-1.57567152875483],"LIBTHEME":"VIE SOCIALE","CODE_POSTAL":44300,"WEB":null,"STATUT":null,"TELEPHONE":"02 40 59 47 88","THEME":12,"COMMUNE":"NANTES","LIBCATEGORIE":"Petite enfance","ADRESSE":"71 Route de la Chapelle Sur Erdre","LIBTYPE":"Multi-accueil (Crèche)","_IDOBJ":4059,"TYPE":120101,"CATEGORIE":1201},"geometry":{"type":"Point","coordinates":[-1.57567152875483,47.2586383014728]}},{"type":"Feature","properties":{"geo":{"name":"Multi-accueil Pom'Cannelle"},"_l":[47.1724434330317,-1.62673723124685],"LIBTHEME":"VIE SOCIALE","CODE_POSTAL":44340,"WEB":"www.ville-bouguenais.fr","STATUT":null,"TELEPHONE":"02 40 31 83 76","THEME":12,"COMMUNE":"BOUGUENAIS","LIBCATEGORIE":"Petite enfance","ADRESSE":"1 Rue du Cheval à Bascule","LIBTYPE":"Multi-accueil (Crèche)","_IDOBJ":4115,"TYPE":120101,"CATEGORIE":1201},"geometry":{"type":"Point","coordinates":[-1.62673723124685,47.1724434330317]}},{"type":"Feature","properties":{"geo":{"name":"Crèche L'Enfant d'Eau"},"_l":[47.1915184598325,-1.55356296003186],"LIBTHEME":"VIE SOCIALE","CODE_POSTAL":44400,"WEB":null,"STATUT":null,"TELEPHONE":"02 51 72 74 40","THEME":12,"COMMUNE":"REZE","LIBCATEGORIE":"Petite enfance","ADRESSE":"Rond-Point Gustave Raballand","LIBTYPE":"Multi-accueil (Crèche)","_IDOBJ":4138,"TYPE":120101,"CATEGORIE":1201},"geometry":{"type":"Point","coordinates":[-1.55356296003186,47.1915184598325]}},{"type":"Feature","properties":{"geo":{"name":"Accueil Périscolaire"},"_l":[47.2968892964857,-1.39309598470623],"LIBTHEME":"VIE SOCIALE","CODE_POSTAL":44470,"WEB":null,"STATUT":null,"TELEPHONE":"02 40 25 01 54","THEME":12,"COMMUNE":"MAUVES-SUR-LOIRE","LIBCATEGORIE":"Petite enfance","ADRESSE":"11B Rue du Cellier","LIBTYPE":"Multi-accueil (Crèche)","_IDOBJ":4144,"TYPE":120101,"CATEGORIE":1201},"geometry":{"type":"Point","coordinates":[-1.39309598470623,47.2968892964857]}},{"type":"Feature","properties":{"geo":{"name":"Crèche Les doudous d'Ar Mor"},"_l":[47.230941232094,-1.62766915928133],"LIBTHEME":"VIE SOCIALE","CODE_POSTAL":44800,"WEB":"www.creche-armor.fr/","STATUT":null,"TELEPHONE":"02 40 63 07 17","THEME":12,"COMMUNE":"ST-HERBLAIN","LIBCATEGORIE":"Petite enfance","ADRESSE":"6 Boulevard du Zénith","LIBTYPE":"Multi-accueil (Crèche)","_IDOBJ":4160,"TYPE":120101,"CATEGORIE":1201},"geometry":{"type":"Point","coordinates":[-1.62766915928133,47.230941232094]}},{"type":"Feature","properties":{"geo":{"name":"Garderie municipale périscolaire"},"_l":[47.1359743142703,-1.73002503145745],"LIBTHEME":"VIE SOCIALE","CODE_POSTAL":44710,"WEB":null,"STATUT":null,"TELEPHONE":null,"THEME":12,"COMMUNE":"SAINT-LEGER-LES-VIGNES","LIBCATEGORIE":"Petite enfance","ADRESSE":"6 Rue de Nantes","LIBTYPE":"Multi-accueil (Crèche)","_IDOBJ":4164,"TYPE":120101,"CATEGORIE":1201},"geometry":{"type":"Point","coordinates":[-1.73002503145745,47.1359743142703]}},{"type":"Feature","properties":{"geo":{"name":"Association Départementale de Sauvegarde de l'Enfance"},"_l":[47.1633163705666,-1.5537534100028],"LIBTHEME":"VIE SOCIALE","CODE_POSTAL":44400,"WEB":null,"STATUT":null,"TELEPHONE":null,"THEME":12,"COMMUNE":"REZE","LIBCATEGORIE":"Petite enfance","ADRESSE":"153 Rue du Genétais","LIBTYPE":null,"_IDOBJ":4203,"TYPE":null,"CATEGORIE":1201},"geometry":{"type":"Point","coordinates":[-1.5537534100028,47.1633163705666]}},{"type":"Feature","properties":{"geo":{"name":"Maison de la Petite Enfance"},"_l":[47.2054010181052,-1.50058522078494],"LIBTHEME":"VIE SOCIALE","CODE_POSTAL":44230,"WEB":null,"STATUT":null,"TELEPHONE":"02 40 80 86 28","THEME":12,"COMMUNE":"ST-SEBASTIEN","LIBCATEGORIE":"Petite enfance","ADRESSE":"1 Rue Annie Hure","LIBTYPE":"Multi-accueil (Crèche)","_IDOBJ":4212,"TYPE":120101,"CATEGORIE":1201},"geometry":{"type":"Point","coordinates":[-1.50058522078494,47.2054010181052]}},{"type":"Feature","properties":{"geo":{"name":"Relais Assistantes Maternelles de Saint-Sébastien"},"_l":[47.2052727987597,-1.50039483584241],"LIBTHEME":"VIE SOCIALE","CODE_POSTAL":44230,"WEB":null,"STATUT":null,"TELEPHONE":"02 40 80 86 27","THEME":12,"COMMUNE":"ST-SEBASTIEN","LIBCATEGORIE":"Petite enfance","ADRESSE":"1 Rue Annie Hure","LIBTYPE":"R.A.M.","_IDOBJ":4213,"TYPE":120102,"CATEGORIE":1201},"geometry":{"type":"Point","coordinates":[-1.50039483584241,47.2052727987597]}},{"type":"Feature","properties":{"geo":{"name":"Crèche l'Ile Mystérieuse"},"_l":[47.2608959056743,-1.66844229266225],"LIBTHEME":"VIE SOCIALE","CODE_POSTAL":44880,"WEB":null,"STATUT":null,"TELEPHONE":"02 28 07 03 84","THEME":12,"COMMUNE":"SAUTRON","LIBCATEGORIE":"Petite enfance","ADRESSE":"5 Allée du Capitaine Grant","LIBTYPE":"Multi-accueil (Crèche)","_IDOBJ":4271,"TYPE":120101,"CATEGORIE":1201},"geometry":{"type":"Point","coordinates":[-1.66844229266225,47.2608959056743]}},{"type":"Feature","properties":{"geo":{"name":"Relais Assistantes Maternelles"},"_l":[47.2644651273058,-1.67388986724364],"LIBTHEME":"VIE SOCIALE","CODE_POSTAL":44880,"WEB":null,"STATUT":null,"TELEPHONE":null,"THEME":12,"COMMUNE":"SAUTRON","LIBCATEGORIE":"Petite enfance","ADRESSE":"25 Rue de la Vallée","LIBTYPE":"R.A.M.","_IDOBJ":4275,"TYPE":120102,"CATEGORIE":1201},"geometry":{"type":"Point","coordinates":[-1.67388986724364,47.2644651273058]}},{"type":"Feature","properties":{"geo":{"name":"Maison de l'Enfance - Crèche associative Les Lapins Bleus"},"_l":[47.2123774909557,-1.72815673116416],"LIBTHEME":"VIE SOCIALE","CODE_POSTAL":44220,"WEB":"www.sautron.fr","STATUT":null,"TELEPHONE":null,"THEME":12,"COMMUNE":"COUERON","LIBCATEGORIE":"Petite enfance","ADRESSE":"Rue Joséphine Even","LIBTYPE":"Multi-accueil (Crèche)","_IDOBJ":4283,"TYPE":120101,"CATEGORIE":1201},"geometry":{"type":"Point","coordinates":[-1.72815673116416,47.2123774909557]}},{"type":"Feature","properties":{"geo":{"name":"Multi-Accueil La Courte Echelle"},"_l":[47.2448393005811,-1.59178657126141],"LIBTHEME":"VIE SOCIALE","CODE_POSTAL":44700,"WEB":"www.orvault.fr","STATUT":null,"TELEPHONE":"02 40 63 27 03","THEME":12,"COMMUNE":"ORVAULT","LIBCATEGORIE":"Petite enfance","ADRESSE":"2B Avenue de la Jeunesse","LIBTYPE":"Multi-accueil (Crèche)","_IDOBJ":4321,"TYPE":120101,"CATEGORIE":1201},"geometry":{"type":"Point","coordinates":[-1.59178657126141,47.2448393005811]}},{"type":"Feature","properties":{"geo":{"name":"Multi-Accueil La Capucine"},"_l":[47.3030293975306,-1.55229798958936],"LIBTHEME":"VIE SOCIALE","CODE_POSTAL":44240,"WEB":"www.lachapellesurerdre.fr","STATUT":null,"TELEPHONE":"02 40 72 04 74","THEME":12,"COMMUNE":"LA-CHAPELLE-SUR-ERDRE","LIBCATEGORIE":"Petite enfance","ADRESSE":"34 Rue du Plessis","LIBTYPE":"Multi-accueil (Crèche)","_IDOBJ":4348,"TYPE":120101,"CATEGORIE":1201},"geometry":{"type":"Point","coordinates":[-1.55229798958936,47.3030293975306]}},{"type":"Feature","properties":{"geo":{"name":"Multi-Accueil Les Petits Pas du Ploreau"},"_l":[47.3030402500328,-1.55075094436778],"LIBTHEME":"VIE SOCIALE","CODE_POSTAL":44240,"WEB":"www.lachapellesurerdre.fr","STATUT":null,"TELEPHONE":"02 40 54 47 72","THEME":12,"COMMUNE":"LA-CHAPELLE-SUR-ERDRE","LIBCATEGORIE":"Petite enfance","ADRESSE":"2 Rue Emilie Launay","LIBTYPE":"Multi-accueil (Crèche)","_IDOBJ":4350,"TYPE":120101,"CATEGORIE":1201},"geometry":{"type":"Point","coordinates":[-1.55075094436778,47.3030402500328]}},{"type":"Feature","properties":{"geo":{"name":"Centre Baptiste Marcet - Relais Assistantes Maternelles"},"_l":[47.1814999460873,-1.58831546550771],"LIBTHEME":"VIE SOCIALE","CODE_POSTAL":44340,"WEB":"www.ville-bouguenais.fr","STATUT":null,"TELEPHONE":"02 40 65 33 87","THEME":12,"COMMUNE":"BOUGUENAIS","LIBCATEGORIE":"Petite enfance","ADRESSE":"2 Rue Célestin Freinet","LIBTYPE":"R.A.M.","_IDOBJ":4377,"TYPE":120102,"CATEGORIE":1201},"geometry":{"type":"Point","coordinates":[-1.58831546550771,47.1814999460873]}},{"type":"Feature","properties":{"geo":{"name":"Centre Baptiste Marcet - Crèche familiale Les p'tits Bouts"},"_l":[47.1814930507215,-1.58860771614566],"LIBTHEME":"VIE SOCIALE","CODE_POSTAL":44340,"WEB":"www.ville-bouguenais.fr","STATUT":null,"TELEPHONE":"02 40 32 00 64","THEME":12,"COMMUNE":"BOUGUENAIS","LIBCATEGORIE":"Petite enfance","ADRESSE":"2 Rue Célestin Freinet","LIBTYPE":"Multi-accueil (Crèche)","_IDOBJ":4378,"TYPE":120101,"CATEGORIE":1201},"geometry":{"type":"Point","coordinates":[-1.58860771614566,47.1814930507215]}},{"type":"Feature","properties":{"geo":{"name":"Maison de l'Enfance"},"_l":[47.1946917435663,-1.75857526378592],"LIBTHEME":"VIE SOCIALE","CODE_POSTAL":44640,"WEB":"www.ville-lepellerin.fr","STATUT":null,"TELEPHONE":"02 40 97 36 24","THEME":12,"COMMUNE":"LE-PELLERIN","LIBCATEGORIE":"Petite enfance","ADRESSE":"Allée des Asphodèles","LIBTYPE":"Multi-accueil (Crèche)","_IDOBJ":4400,"TYPE":120101,"CATEGORIE":1201},"geometry":{"type":"Point","coordinates":[-1.75857526378592,47.1946917435663]}},{"type":"Feature","properties":{"geo":{"name":"Multi-accueil petite enfance Concertino"},"_l":[47.2065471999626,-1.53776882310606],"LIBTHEME":"VIE SOCIALE","CODE_POSTAL":44200,"WEB":"www.nantes.fr","STATUT":null,"TELEPHONE":"02 40 41 95 80","THEME":12,"COMMUNE":"NANTES","LIBCATEGORIE":"Petite enfance","ADRESSE":"15 Boulevard Général de Gaulle","LIBTYPE":"Multi-accueil (Crèche)","_IDOBJ":4491,"TYPE":120101,"CATEGORIE":1201},"geometry":{"type":"Point","coordinates":[-1.53776882310606,47.2065471999626]}},{"type":"Feature","properties":{"geo":{"name":"Crèche La chanson des Poupies"},"_l":[47.2414532655921,-1.51542224321807],"LIBTHEME":"VIE SOCIALE","CODE_POSTAL":44300,"WEB":"www.jardindespoupies.fr","STATUT":null,"TELEPHONE":"02 51 85 39 50","THEME":12,"COMMUNE":"NANTES","LIBCATEGORIE":"Petite enfance","ADRESSE":"9 Mail Haroun Tazieff","LIBTYPE":"Multi-accueil (Crèche)","_IDOBJ":4508,"TYPE":120101,"CATEGORIE":1201},"geometry":{"type":"Point","coordinates":[-1.51542224321807,47.2414532655921]}},{"type":"Feature","properties":{"geo":{"name":"Micro-crèche Les castors"},"_l":[47.1821276168699,-1.56230701717303],"LIBTHEME":"VIE SOCIALE","CODE_POSTAL":44400,"WEB":"anaf.asso.fr","STATUT":null,"TELEPHONE":"02 40 76 40 68","THEME":12,"COMMUNE":"REZE","LIBCATEGORIE":"Petite enfance","ADRESSE":"7 Place Renoir","LIBTYPE":"Multi-accueil (Crèche)","_IDOBJ":4515,"TYPE":120101,"CATEGORIE":1201},"geometry":{"type":"Point","coordinates":[-1.56230701717303,47.1821276168699]}},{"type":"Feature","properties":{"geo":{"name":"Micro-crèche Mélodie"},"_l":[47.1908629574346,-1.50517510059679],"LIBTHEME":"VIE SOCIALE","CODE_POSTAL":44230,"WEB":"anaf.asso.fr","STATUT":null,"TELEPHONE":null,"THEME":12,"COMMUNE":"ST-SEBASTIEN","LIBCATEGORIE":"Petite enfance","ADRESSE":"54 Rue des Bernardières","LIBTYPE":"Multi-accueil (Crèche)","_IDOBJ":4516,"TYPE":120101,"CATEGORIE":1201},"geometry":{"type":"Point","coordinates":[-1.50517510059679,47.1908629574346]}},{"type":"Feature","properties":{"geo":{"name":"Micro-Crèche Nos Petits Pouces"},"_l":[47.2223421754422,-1.58256926776266],"LIBTHEME":"VIE SOCIALE","CODE_POSTAL":44100,"WEB":"www.nospetitspouces.com/","STATUT":"Privé","TELEPHONE":null,"THEME":12,"COMMUNE":"NANTES","LIBCATEGORIE":"Petite enfance","ADRESSE":"35 Rue des Dervallières","LIBTYPE":"Multi-accueil (Crèche)","_IDOBJ":4557,"TYPE":120101,"CATEGORIE":1201},"geometry":{"type":"Point","coordinates":[-1.58256926776266,47.2223421754422]}},{"type":"Feature","properties":{"geo":{"name":"Micro-Crèche Nos Petits Pouces"},"_l":[47.2079921486692,-1.58066564217016],"LIBTHEME":"VIE SOCIALE","CODE_POSTAL":44100,"WEB":"www.nospetitspouces.com","STATUT":"Privé","TELEPHONE":null,"THEME":12,"COMMUNE":"NANTES","LIBCATEGORIE":"Petite enfance","ADRESSE":"5 Rue des Aveneaux","LIBTYPE":"Multi-accueil (Crèche)","_IDOBJ":4558,"TYPE":120101,"CATEGORIE":1201},"geometry":{"type":"Point","coordinates":[-1.58066564217016,47.2079921486692]}},{"type":"Feature","properties":{"geo":{"name":"Micro-Crèche Nos Petits Pouces"},"_l":[47.2179455978438,-1.54642771175326],"LIBTHEME":"VIE SOCIALE","CODE_POSTAL":44000,"WEB":"www.nospetitspouces.com","STATUT":"Privé","TELEPHONE":null,"THEME":12,"COMMUNE":"NANTES","LIBCATEGORIE":"Petite enfance","ADRESSE":"5 Rue Malherbe","LIBTYPE":"Multi-accueil (Crèche)","_IDOBJ":4559,"TYPE":120101,"CATEGORIE":1201},"geometry":{"type":"Point","coordinates":[-1.54642771175326,47.2179455978438]}},{"type":"Feature","properties":{"geo":{"name":"Micro-Crèche Nos Petits Pouces"},"_l":[47.2178211963413,-1.58222311236383],"LIBTHEME":"VIE SOCIALE","CODE_POSTAL":44100,"WEB":"www.nospetitspouces.com","STATUT":"Privé","TELEPHONE":null,"THEME":12,"COMMUNE":"NANTES","LIBCATEGORIE":"Petite enfance","ADRESSE":"6 Avenue du Parc de Procé","LIBTYPE":"Multi-accueil (Crèche)","_IDOBJ":4560,"TYPE":120101,"CATEGORIE":1201},"geometry":{"type":"Point","coordinates":[-1.58222311236383,47.2178211963413]}},{"type":"Feature","properties":{"geo":{"name":"Micro-crèche Habitat et Humanisme"},"_l":[47.2201946844125,-1.57368846662711],"LIBTHEME":"VIE SOCIALE","CODE_POSTAL":44000,"WEB":"www.habitat-humanisme.org","STATUT":null,"TELEPHONE":null,"THEME":12,"COMMUNE":"NANTES","LIBCATEGORIE":"Petite enfance","ADRESSE":"93 Rue de la Bastille","LIBTYPE":"Multi-accueil (Crèche)","_IDOBJ":4561,"TYPE":120101,"CATEGORIE":1201},"geometry":{"type":"Point","coordinates":[-1.57368846662711,47.2201946844125]}}]}