{"type":"FeatureCollection","features":[{"type":"Feature","properties":{"geo":{"name":"Foyer Jeunes Travailleurs Frère Louis"},"_l":[47.1956009454992,-1.53825032136384],"LIBTHEME":"VIE SOCIALE","CODE_POSTAL":44200,"WEB":null,"STATUT":null,"TELEPHONE":"02 51 11 06 87","THEME":12,"COMMUNE":"NANTES","LIBCATEGORIE":"Jeunesse","ADRESSE":"7 Rue Frère Louis","LIBTYPE":"Foyer","_IDOBJ":3025,"TYPE":120202,"CATEGORIE":1202},"geometry":{"type":"Point","coordinates":[-1.53825032136384,47.1956009454992]}},{"type":"Feature","properties":{"geo":{"name":"Foyer Jeunes Filles Sainte Geneviève"},"_l":[47.2261467770434,-1.56077518986988],"LIBTHEME":"VIE SOCIALE","CODE_POSTAL":44000,"WEB":null,"STATUT":null,"TELEPHONE":"02 51 25 05 30","THEME":12,"COMMUNE":"NANTES","LIBCATEGORIE":"Jeunesse","ADRESSE":"91 Rue Paul Bellamy","LIBTYPE":"Foyer","_IDOBJ":3172,"TYPE":120202,"CATEGORIE":1202},"geometry":{"type":"Point","coordinates":[-1.56077518986988,47.2261467770434]}},{"type":"Feature","properties":{"geo":{"name":"Foyer Catholique des Etudiants"},"_l":[47.2147403192855,-1.5614151610593],"LIBTHEME":"VIE SOCIALE","CODE_POSTAL":44000,"WEB":null,"STATUT":null,"TELEPHONE":"02 40 48 50 75","THEME":12,"COMMUNE":"NANTES","LIBCATEGORIE":"Jeunesse","ADRESSE":"13 Rue du Chapeau Rouge","LIBTYPE":"Foyer","_IDOBJ":3173,"TYPE":120202,"CATEGORIE":1202},"geometry":{"type":"Point","coordinates":[-1.5614151610593,47.2147403192855]}},{"type":"Feature","properties":{"geo":{"name":"Foyer Catholique des Etudiants"},"_l":[47.2140600360741,-1.56974504635161],"LIBTHEME":"VIE SOCIALE","CODE_POSTAL":44100,"WEB":null,"STATUT":null,"TELEPHONE":"02 40 69 22 26","THEME":12,"COMMUNE":"NANTES","LIBCATEGORIE":"Jeunesse","ADRESSE":"13 Rue de Gigant","LIBTYPE":"Foyer","_IDOBJ":3174,"TYPE":120202,"CATEGORIE":1202},"geometry":{"type":"Point","coordinates":[-1.56974504635161,47.2140600360741]}},{"type":"Feature","properties":{"geo":{"name":"Foyer Jeunes Travailleurs Chanteclerc"},"_l":[47.2353255720706,-1.57924473728344],"LIBTHEME":"VIE SOCIALE","CODE_POSTAL":44300,"WEB":null,"STATUT":null,"TELEPHONE":null,"THEME":12,"COMMUNE":"NANTES","LIBCATEGORIE":"Jeunesse","ADRESSE":"42 Rue Chanteclerc","LIBTYPE":"Foyer","_IDOBJ":3234,"TYPE":120202,"CATEGORIE":1202},"geometry":{"type":"Point","coordinates":[-1.57924473728344,47.2353255720706]}},{"type":"Feature","properties":{"geo":{"name":"Foyer Jeunes Travailleurs Barbusse"},"_l":[47.2264529479268,-1.55294927477693],"LIBTHEME":"VIE SOCIALE","CODE_POSTAL":44000,"WEB":null,"STATUT":null,"TELEPHONE":null,"THEME":12,"COMMUNE":"NANTES","LIBCATEGORIE":"Jeunesse","ADRESSE":"61 Rue Jean Emile Laboureur","LIBTYPE":"Foyer","_IDOBJ":3588,"TYPE":120202,"CATEGORIE":1202},"geometry":{"type":"Point","coordinates":[-1.55294927477693,47.2264529479268]}},{"type":"Feature","properties":{"geo":{"name":"Espace Jeunes du Charbonneau"},"_l":[47.3029382608916,-1.49228822922751],"LIBTHEME":"VIE SOCIALE","CODE_POSTAL":44470,"WEB":"www.carquefou.fr","STATUT":null,"TELEPHONE":null,"THEME":12,"COMMUNE":"CARQUEFOU","LIBCATEGORIE":"Jeunesse","ADRESSE":"10 Rue Pierre Mendes France","LIBTYPE":"Foyer","_IDOBJ":4298,"TYPE":120202,"CATEGORIE":1202},"geometry":{"type":"Point","coordinates":[-1.49228822922751,47.3029382608916]}},{"type":"Feature","properties":{"geo":{"name":"Maison départementale des adolescents de Nantes"},"_l":[47.2075336067557,-1.56484784192801],"LIBTHEME":"VIE SOCIALE","CODE_POSTAL":44200,"WEB":"www.mda44.fr","STATUT":null,"TELEPHONE":"02 40 20 89 65","THEME":12,"COMMUNE":"NANTES","LIBCATEGORIE":"Jeunesse","ADRESSE":"7 Rue Julien Videment","LIBTYPE":"Foyer","_IDOBJ":4450,"TYPE":120202,"CATEGORIE":1202},"geometry":{"type":"Point","coordinates":[-1.56484784192801,47.2075336067557]}},{"type":"Feature","properties":{"geo":{"name":"Foyer Jeunes Travailleurs Port Beaulieu"},"_l":[47.2060855308096,-1.54317922705893],"LIBTHEME":"VIE SOCIALE","CODE_POSTAL":44200,"WEB":null,"STATUT":null,"TELEPHONE":"02 40 12 24 00","THEME":12,"COMMUNE":"NANTES","LIBCATEGORIE":"Jeunesse","ADRESSE":"9 Boulevard Vincent Gâche","LIBTYPE":"Foyer","_IDOBJ":1028,"TYPE":120202,"CATEGORIE":1202},"geometry":{"type":"Point","coordinates":[-1.54317922705893,47.2060855308096]}},{"type":"Feature","properties":{"geo":{"name":"Foyer Jeunes Travailleurs Edit de Nantes"},"_l":[47.2143456685545,-1.56861201165052],"LIBTHEME":"VIE SOCIALE","CODE_POSTAL":44100,"WEB":"http://www.edit-nantes.fr","STATUT":null,"TELEPHONE":"02 40 73 41 46","THEME":12,"COMMUNE":"NANTES","LIBCATEGORIE":"Jeunesse","ADRESSE":"7 Rue de Gigant","LIBTYPE":"Foyer","_IDOBJ":1355,"TYPE":120202,"CATEGORIE":1202},"geometry":{"type":"Point","coordinates":[-1.56861201165052,47.2143456685545]}},{"type":"Feature","properties":{"geo":{"name":"Foyer Jeunes Travailleurs Association Nantaise"},"_l":[47.2207020911686,-1.55881837640046],"LIBTHEME":"VIE SOCIALE","CODE_POSTAL":44000,"WEB":null,"STATUT":null,"TELEPHONE":"02 51 72 98 70","THEME":12,"COMMUNE":"NANTES","LIBCATEGORIE":"Jeunesse","ADRESSE":"6 Rue de Bel Air","LIBTYPE":"Foyer","_IDOBJ":1409,"TYPE":120202,"CATEGORIE":1202},"geometry":{"type":"Point","coordinates":[-1.55881837640046,47.2207020911686]}},{"type":"Feature","properties":{"geo":{"name":"Foyer Centre d'Apprentis du Batiment"},"_l":[47.2204509780888,-1.65260969087806],"LIBTHEME":"VIE SOCIALE","CODE_POSTAL":44800,"WEB":null,"STATUT":"Privé","TELEPHONE":"02 40 92 13 43","THEME":12,"COMMUNE":"ST-HERBLAIN","LIBCATEGORIE":"Jeunesse","ADRESSE":"27 Rue de la Rivaudière","LIBTYPE":"Foyer","_IDOBJ":1900,"TYPE":120202,"CATEGORIE":1202},"geometry":{"type":"Point","coordinates":[-1.65260969087806,47.2204509780888]}}]}