{"type":"FeatureCollection","features":[{"type":"Feature","properties":{"geo":{"name":"Centre de Secours Gouzé"},"_l":[47.2212114995258,-1.54526821868743],"LIBTHEME":"JUSTICE & SECURITE","CODE_POSTAL":44000,"WEB":"www.pompiersdefrance.org","STATUT":null,"TELEPHONE":"02 40 37 85 85","THEME":9,"COMMUNE":"NANTES","LIBCATEGORIE":"Pompiers","ADRESSE":"37 Rue Maréchal Joffre","LIBTYPE":null,"_IDOBJ":209,"TYPE":null,"CATEGORIE":903},"geometry":{"type":"Point","coordinates":[-1.54526821868743,47.2212114995258]}},{"type":"Feature","properties":{"geo":{"name":"Commissariat de Police Nationale - Central Waldeck Rousseau"},"_l":[47.2275369538359,-1.55135389739537],"LIBTHEME":"JUSTICE & SECURITE","CODE_POSTAL":44000,"WEB":"www.police-nationale.interieur.gouv.fr","STATUT":null,"TELEPHONE":"02 53 46 70 00","THEME":9,"COMMUNE":"NANTES","LIBCATEGORIE":"Police","ADRESSE":"6 Place Waldeck Rousseau","LIBTYPE":"Police nationale","_IDOBJ":211,"TYPE":90401,"CATEGORIE":904},"geometry":{"type":"Point","coordinates":[-1.55135389739537,47.2275369538359]}},{"type":"Feature","properties":{"geo":{"name":"Tribunal de Grande Instance de Nantes"},"_l":[47.2077509795832,-1.56171651845791],"LIBTHEME":"JUSTICE & SECURITE","CODE_POSTAL":44200,"WEB":"www.justice.gouv.fr","STATUT":null,"TELEPHONE":"02 51 17 95 00","THEME":9,"COMMUNE":"NANTES","LIBCATEGORIE":"Justice","ADRESSE":"19 Quai François Mitterrand","LIBTYPE":null,"_IDOBJ":222,"TYPE":null,"CATEGORIE":901},"geometry":{"type":"Point","coordinates":[-1.56171651845791,47.2077509795832]}},{"type":"Feature","properties":{"geo":{"name":"Quart. Mellinet"},"_l":[47.2275255535266,-1.53865082694786],"LIBTHEME":"JUSTICE & SECURITE","CODE_POSTAL":44000,"WEB":"www.defense.gouv.fr/terre","STATUT":null,"TELEPHONE":null,"THEME":9,"COMMUNE":"NANTES","LIBCATEGORIE":"Armée","ADRESSE":"4 Place du 51ième RA","LIBTYPE":null,"_IDOBJ":229,"TYPE":null,"CATEGORIE":905},"geometry":{"type":"Point","coordinates":[-1.53865082694786,47.2275255535266]}},{"type":"Feature","properties":{"geo":{"name":"Quartier Richemont Lamoricière"},"_l":[47.2247607222181,-1.5320308867113],"LIBTHEME":"JUSTICE & SECURITE","CODE_POSTAL":44000,"WEB":"www.defense.gouv.fr/terre","STATUT":null,"TELEPHONE":null,"THEME":9,"COMMUNE":"NANTES","LIBCATEGORIE":"Armée","ADRESSE":"16 Rue des Rochettes","LIBTYPE":null,"_IDOBJ":230,"TYPE":null,"CATEGORIE":905},"geometry":{"type":"Point","coordinates":[-1.5320308867113,47.2247607222181]}},{"type":"Feature","properties":{"geo":{"name":"Centre de Secours Nantes Nord"},"_l":[47.2631741573758,-1.58220930362375],"LIBTHEME":"JUSTICE & SECURITE","CODE_POSTAL":44300,"WEB":"www.pompiersdefrance.org","STATUT":null,"TELEPHONE":"02 28 20 46 50","THEME":9,"COMMUNE":"NANTES","LIBCATEGORIE":"Pompiers","ADRESSE":"26 Boulevard René Cassin","LIBTYPE":null,"_IDOBJ":232,"TYPE":null,"CATEGORIE":903},"geometry":{"type":"Point","coordinates":[-1.58220930362375,47.2631741573758]}},{"type":"Feature","properties":{"geo":{"name":"Centre Pénitentiaire de Nantes"},"_l":[47.2651649423429,-1.57076412041346],"LIBTHEME":"JUSTICE & SECURITE","CODE_POSTAL":44300,"WEB":"www.justice.gouv.fr","STATUT":null,"TELEPHONE":"02 40 16 45 00","THEME":9,"COMMUNE":"NANTES","LIBCATEGORIE":"Justice","ADRESSE":"68 Boulevard Albert Einstein","LIBTYPE":null,"_IDOBJ":233,"TYPE":null,"CATEGORIE":901},"geometry":{"type":"Point","coordinates":[-1.57076412041346,47.2651649423429]}},{"type":"Feature","properties":{"geo":{"name":"Casier Judiciaire National"},"_l":[47.2337154160348,-1.51160980604455],"LIBTHEME":"JUSTICE & SECURITE","CODE_POSTAL":44300,"WEB":"www.justice.gouv.fr/cjn","STATUT":null,"TELEPHONE":"02 51 89 89 51","THEME":9,"COMMUNE":"NANTES","LIBCATEGORIE":"Justice","ADRESSE":"107 Rue du Landreau","LIBTYPE":null,"_IDOBJ":238,"TYPE":null,"CATEGORIE":901},"geometry":{"type":"Point","coordinates":[-1.51160980604455,47.2337154160348]}},{"type":"Feature","properties":{"geo":{"name":"Gendarmerie Nationale Doulon"},"_l":[47.2273502656567,-1.52819220144191],"LIBTHEME":"JUSTICE & SECURITE","CODE_POSTAL":44000,"WEB":"www.defense.gouv.fr/gendarmerie","STATUT":null,"TELEPHONE":"02 40 49 75 24","THEME":9,"COMMUNE":"NANTES","LIBCATEGORIE":"Gendarmerie","ADRESSE":"18 Boulevard Ernest Dalby","LIBTYPE":null,"_IDOBJ":240,"TYPE":null,"CATEGORIE":902},"geometry":{"type":"Point","coordinates":[-1.52819220144191,47.2273502656567]}},{"type":"Feature","properties":{"geo":{"name":"Gendarmerie Nationale Etat Major"},"_l":[47.2243629962894,-1.52857205006087],"LIBTHEME":"JUSTICE & SECURITE","CODE_POSTAL":44000,"WEB":"www.defense.gouv.fr/gendarmerie","STATUT":null,"TELEPHONE":"02 40 49 64 45","THEME":9,"COMMUNE":"NANTES","LIBCATEGORIE":"Gendarmerie","ADRESSE":"8 Rue Stéphenson","LIBTYPE":null,"_IDOBJ":252,"TYPE":null,"CATEGORIE":902},"geometry":{"type":"Point","coordinates":[-1.52857205006087,47.2243629962894]}},{"type":"Feature","properties":{"geo":{"name":"Conseil des Prud'Hommes"},"_l":[47.2062779979058,-1.54665068395541],"LIBTHEME":"JUSTICE & SECURITE","CODE_POSTAL":44200,"WEB":null,"STATUT":null,"TELEPHONE":"02 40 20 61 30","THEME":9,"COMMUNE":"NANTES","LIBCATEGORIE":"Justice","ADRESSE":"26 Boulevard Vincent Gâche","LIBTYPE":null,"_IDOBJ":1047,"TYPE":null,"CATEGORIE":901},"geometry":{"type":"Point","coordinates":[-1.54665068395541,47.2062779979058]}},{"type":"Feature","properties":{"geo":{"name":"Cour Administrative d'Appel de Nantes"},"_l":[47.2147380452398,-1.56778140476585],"LIBTHEME":"JUSTICE & SECURITE","CODE_POSTAL":44000,"WEB":null,"STATUT":null,"TELEPHONE":"02 51 84 77 77","THEME":9,"COMMUNE":"NANTES","LIBCATEGORIE":"Justice","ADRESSE":"2 Place de l'Edit de Nantes","LIBTYPE":null,"_IDOBJ":1048,"TYPE":null,"CATEGORIE":901},"geometry":{"type":"Point","coordinates":[-1.56778140476585,47.2147380452398]}},{"type":"Feature","properties":{"geo":{"name":"Tribunal d'Instance de Nantes"},"_l":[47.2077922886444,-1.56116889517563],"LIBTHEME":"JUSTICE & SECURITE","CODE_POSTAL":44200,"WEB":"www.justice.gouv.fr","STATUT":null,"TELEPHONE":"02 51 17 95 00","THEME":9,"COMMUNE":"NANTES","LIBCATEGORIE":"Justice","ADRESSE":"19 Quai François Mitterrand","LIBTYPE":null,"_IDOBJ":1049,"TYPE":null,"CATEGORIE":901},"geometry":{"type":"Point","coordinates":[-1.56116889517563,47.2077922886444]}},{"type":"Feature","properties":{"geo":{"name":"Tribunal de commerce de Nantes"},"_l":[47.2073391203546,-1.55606117383452],"LIBTHEME":"JUSTICE & SECURITE","CODE_POSTAL":44200,"WEB":null,"STATUT":null,"TELEPHONE":"02 40 41 02 00","THEME":9,"COMMUNE":"NANTES","LIBCATEGORIE":"Justice","ADRESSE":"2B Quai François Mitterrand","LIBTYPE":null,"_IDOBJ":1050,"TYPE":null,"CATEGORIE":901},"geometry":{"type":"Point","coordinates":[-1.55606117383452,47.2073391203546]}},{"type":"Feature","properties":{"geo":{"name":"Tribunal Administratif de Nantes"},"_l":[47.2109319159173,-1.55768591088906],"LIBTHEME":"JUSTICE & SECURITE","CODE_POSTAL":44000,"WEB":null,"STATUT":null,"TELEPHONE":"02 40 99 46 00","THEME":9,"COMMUNE":"NANTES","LIBCATEGORIE":"Justice","ADRESSE":"6 Allée de l'Ile Gloriette","LIBTYPE":null,"_IDOBJ":1051,"TYPE":null,"CATEGORIE":901},"geometry":{"type":"Point","coordinates":[-1.55768591088906,47.2109319159173]}},{"type":"Feature","properties":{"geo":{"name":"Bureau Armée de l'Air Information Nantes"},"_l":[47.2241423002735,-1.53683302304528],"LIBTHEME":"JUSTICE & SECURITE","CODE_POSTAL":44000,"WEB":"www.defense.gouv.fr/air","STATUT":null,"TELEPHONE":"02 40 74 21 29","THEME":9,"COMMUNE":"NANTES","LIBCATEGORIE":"Armée","ADRESSE":"16 Rue des Rochettes","LIBTYPE":null,"_IDOBJ":1052,"TYPE":null,"CATEGORIE":905},"geometry":{"type":"Point","coordinates":[-1.53683302304528,47.2241423002735]}},{"type":"Feature","properties":{"geo":{"name":"Commissariat de Police Nationale - Chantenay"},"_l":[47.2055598265254,-1.58776051774145],"LIBTHEME":"JUSTICE & SECURITE","CODE_POSTAL":44100,"WEB":"www.police-nationale.interieur.gouv.fr","STATUT":null,"TELEPHONE":"02 51 80 43 70","THEME":9,"COMMUNE":"NANTES","LIBCATEGORIE":"Police","ADRESSE":"130 Boulevard de la Liberté","LIBTYPE":"Police nationale","_IDOBJ":1056,"TYPE":90401,"CATEGORIE":904},"geometry":{"type":"Point","coordinates":[-1.58776051774145,47.2055598265254]}},{"type":"Feature","properties":{"geo":{"name":"Gendarmerie Mobile Nantes"},"_l":[47.223374256173,-1.53352495444874],"LIBTHEME":"JUSTICE & SECURITE","CODE_POSTAL":44000,"WEB":"www.defense.gouv.fr/gendarmerie","STATUT":null,"TELEPHONE":"02 51 12 50 00","THEME":9,"COMMUNE":"NANTES","LIBCATEGORIE":"Gendarmerie","ADRESSE":"4 Rue d'Allonville","LIBTYPE":null,"_IDOBJ":1057,"TYPE":null,"CATEGORIE":902},"geometry":{"type":"Point","coordinates":[-1.53352495444874,47.223374256173]}},{"type":"Feature","properties":{"geo":{"name":"Maison de justice et du droit de Nantes"},"_l":[47.2229884421266,-1.59758055330341],"LIBTHEME":"JUSTICE & SECURITE","CODE_POSTAL":44100,"WEB":null,"STATUT":null,"TELEPHONE":"02 51 80 64 30","THEME":9,"COMMUNE":"NANTES","LIBCATEGORIE":"Justice","ADRESSE":"21 Rue Charles Roger","LIBTYPE":null,"_IDOBJ":1333,"TYPE":null,"CATEGORIE":901},"geometry":{"type":"Point","coordinates":[-1.59758055330341,47.2229884421266]}},{"type":"Feature","properties":{"geo":{"name":"Police Municipale Nantes"},"_l":[47.2194095732912,-1.53643017875723],"LIBTHEME":"JUSTICE & SECURITE","CODE_POSTAL":44000,"WEB":null,"STATUT":null,"TELEPHONE":"02 40 41 95 30","THEME":9,"COMMUNE":"NANTES","LIBCATEGORIE":"Police","ADRESSE":"11 Boulevard de Stalingrad","LIBTYPE":"Police municipale","_IDOBJ":1334,"TYPE":90402,"CATEGORIE":904},"geometry":{"type":"Point","coordinates":[-1.53643017875723,47.2194095732912]}},{"type":"Feature","properties":{"geo":{"name":"Tribunal des Affaires de Sécurité Sociale Nantes"},"_l":[47.2183063029992,-1.56935262388943],"LIBTHEME":"JUSTICE & SECURITE","CODE_POSTAL":44000,"WEB":null,"STATUT":null,"TELEPHONE":"02 40 20 31 04","THEME":9,"COMMUNE":"NANTES","LIBCATEGORIE":"Justice","ADRESSE":"10 Rue Mondésir","LIBTYPE":null,"_IDOBJ":1622,"TYPE":null,"CATEGORIE":901},"geometry":{"type":"Point","coordinates":[-1.56935262388943,47.2183063029992]}},{"type":"Feature","properties":{"geo":{"name":"Cellule Opérationnelle de Prévention des Risques Nantes"},"_l":[47.2217066772754,-1.54673143308088],"LIBTHEME":"JUSTICE & SECURITE","CODE_POSTAL":44000,"WEB":"www.pompiersdefrance.org","STATUT":null,"TELEPHONE":"02 40 37 85 54","THEME":9,"COMMUNE":"NANTES","LIBCATEGORIE":"Pompiers","ADRESSE":"37 Rue Maréchal Joffre","LIBTYPE":null,"_IDOBJ":1670,"TYPE":null,"CATEGORIE":903},"geometry":{"type":"Point","coordinates":[-1.54673143308088,47.2217066772754]}},{"type":"Feature","properties":{"geo":{"name":"Caserne Commandant Rivière Détach. Maintenance Génie"},"_l":[47.2233046771476,-1.53543615535935],"LIBTHEME":"JUSTICE & SECURITE","CODE_POSTAL":44000,"WEB":"www.defense.gouv.fr/terre","STATUT":null,"TELEPHONE":null,"THEME":9,"COMMUNE":"NANTES","LIBCATEGORIE":"Armée","ADRESSE":"12 Rue des Rochettes","LIBTYPE":null,"_IDOBJ":1677,"TYPE":null,"CATEGORIE":905},"geometry":{"type":"Point","coordinates":[-1.53543615535935,47.2233046771476]}},{"type":"Feature","properties":{"geo":{"name":"Etat Major de Force No 2 Nantes"},"_l":[47.2250321688163,-1.53247147766662],"LIBTHEME":"JUSTICE & SECURITE","CODE_POSTAL":44000,"WEB":"www.defense.gouv.fr/terre","STATUT":null,"TELEPHONE":null,"THEME":9,"COMMUNE":"NANTES","LIBCATEGORIE":"Armée","ADRESSE":"16 Rue des Rochettes","LIBTYPE":null,"_IDOBJ":1679,"TYPE":null,"CATEGORIE":905},"geometry":{"type":"Point","coordinates":[-1.53247147766662,47.2250321688163]}},{"type":"Feature","properties":{"geo":{"name":"22ème Bataillon d'Infanterie de Marine Nantes"},"_l":[47.2277442322788,-1.53828917707472],"LIBTHEME":"JUSTICE & SECURITE","CODE_POSTAL":44000,"WEB":"www.defense.gouv.fr/terre","STATUT":null,"TELEPHONE":null,"THEME":9,"COMMUNE":"NANTES","LIBCATEGORIE":"Armée","ADRESSE":"4 Place du 51ième RA","LIBTYPE":null,"_IDOBJ":1680,"TYPE":null,"CATEGORIE":905},"geometry":{"type":"Point","coordinates":[-1.53828917707472,47.2277442322788]}},{"type":"Feature","properties":{"geo":{"name":"9ème Brigade Légère Blindée de Marine Nantes"},"_l":[47.2272906724048,-1.53897732011467],"LIBTHEME":"JUSTICE & SECURITE","CODE_POSTAL":44000,"WEB":"www.defense.gouv.fr/terre","STATUT":null,"TELEPHONE":null,"THEME":9,"COMMUNE":"NANTES","LIBCATEGORIE":"Armée","ADRESSE":"4 Place du 51ième RA","LIBTYPE":null,"_IDOBJ":1718,"TYPE":null,"CATEGORIE":905},"geometry":{"type":"Point","coordinates":[-1.53897732011467,47.2272906724048]}},{"type":"Feature","properties":{"geo":{"name":"Commissariat de Police Nationale - Saint-Herblain"},"_l":[47.2139049083682,-1.64871155737979],"LIBTHEME":"JUSTICE & SECURITE","CODE_POSTAL":44800,"WEB":"www.police-nationale.interieur.gouv.fr","STATUT":"Public","TELEPHONE":"02 40 85 00 00","THEME":9,"COMMUNE":"ST-HERBLAIN","LIBCATEGORIE":"Police","ADRESSE":"118 Boulevard François Mitterrand","LIBTYPE":"Police nationale","_IDOBJ":1807,"TYPE":90401,"CATEGORIE":904},"geometry":{"type":"Point","coordinates":[-1.64871155737979,47.2139049083682]}},{"type":"Feature","properties":{"geo":{"name":"Commissariat de Police Nationale - St-Sébastien"},"_l":[47.2065958244569,-1.50256770370674],"LIBTHEME":"JUSTICE & SECURITE","CODE_POSTAL":44230,"WEB":"www.police-nationale.interieur.gouv.fr","STATUT":"Public","TELEPHONE":"02 88 00 10 09","THEME":9,"COMMUNE":"ST-SEBASTIEN","LIBCATEGORIE":"Police","ADRESSE":"11 Rue du Huit Mai 1945","LIBTYPE":"Police nationale","_IDOBJ":1874,"TYPE":90401,"CATEGORIE":904},"geometry":{"type":"Point","coordinates":[-1.50256770370674,47.2065958244569]}},{"type":"Feature","properties":{"geo":{"name":"Commissariat de Police Nationale - Orvault"},"_l":[47.2536769875717,-1.5972990669044],"LIBTHEME":"JUSTICE & SECURITE","CODE_POSTAL":44700,"WEB":"www.police-nationale.interieur.gouv.fr","STATUT":"Public","TELEPHONE":"02 40 67 12 60","THEME":9,"COMMUNE":"ORVAULT","LIBCATEGORIE":"Police","ADRESSE":"38 Avenue Alexandre Goupil","LIBTYPE":"Police nationale","_IDOBJ":1875,"TYPE":90401,"CATEGORIE":904},"geometry":{"type":"Point","coordinates":[-1.5972990669044,47.2536769875717]}},{"type":"Feature","properties":{"geo":{"name":"Compagnie Républicaine de Sécurité 42 Nantes"},"_l":[47.2381702192087,-1.60023736499209],"LIBTHEME":"JUSTICE & SECURITE","CODE_POSTAL":44800,"WEB":null,"STATUT":"Public","TELEPHONE":"02 40 67 22 00","THEME":9,"COMMUNE":"ST-HERBLAIN","LIBCATEGORIE":"Police","ADRESSE":"Avenue des Naudières","LIBTYPE":"Police nationale","_IDOBJ":1876,"TYPE":90401,"CATEGORIE":904},"geometry":{"type":"Point","coordinates":[-1.60023736499209,47.2381702192087]}},{"type":"Feature","properties":{"geo":{"name":"Centre de Secours Pompiers Bouguenais"},"_l":[47.1780544360104,-1.62718771406128],"LIBTHEME":"JUSTICE & SECURITE","CODE_POSTAL":44340,"WEB":"www.pompiersdefrance.org","STATUT":"Public","TELEPHONE":"02 40 32 02 80","THEME":9,"COMMUNE":"BOUGUENAIS","LIBCATEGORIE":"Pompiers","ADRESSE":"19 Rue Eugène Pottier","LIBTYPE":null,"_IDOBJ":2105,"TYPE":null,"CATEGORIE":903},"geometry":{"type":"Point","coordinates":[-1.62718771406128,47.1780544360104]}},{"type":"Feature","properties":{"geo":{"name":"Police Municipale Saint Sébastien"},"_l":[47.2074588958979,-1.50281186638497],"LIBTHEME":"JUSTICE & SECURITE","CODE_POSTAL":44230,"WEB":null,"STATUT":"Public","TELEPHONE":"02 40 80 86 03","THEME":9,"COMMUNE":"ST-SEBASTIEN","LIBCATEGORIE":"Police","ADRESSE":"6 Rue du Général De Gaulle","LIBTYPE":"Police municipale","_IDOBJ":2146,"TYPE":90402,"CATEGORIE":904},"geometry":{"type":"Point","coordinates":[-1.50281186638497,47.2074588958979]}},{"type":"Feature","properties":{"geo":{"name":"Gendarmerie Nationale"},"_l":[47.1727752370534,-1.61728280058149],"LIBTHEME":"JUSTICE & SECURITE","CODE_POSTAL":44340,"WEB":"www.gendarmerie.defense.gouv.fr","STATUT":"Public","TELEPHONE":"02 40 65 16 79","THEME":9,"COMMUNE":"BOUGUENAIS","LIBCATEGORIE":"Gendarmerie","ADRESSE":"23 Rue Gutenberg","LIBTYPE":null,"_IDOBJ":2173,"TYPE":null,"CATEGORIE":902},"geometry":{"type":"Point","coordinates":[-1.61728280058149,47.1727752370534]}},{"type":"Feature","properties":{"geo":{"name":"Gendarmerie Centrale Saint Herblain"},"_l":[47.2358825266874,-1.58874503753763],"LIBTHEME":"JUSTICE & SECURITE","CODE_POSTAL":44800,"WEB":"www.gendarmerie.defense.gouv.fr","STATUT":"Public","TELEPHONE":"02 40 67 56 00","THEME":9,"COMMUNE":"ST-HERBLAIN","LIBCATEGORIE":"Gendarmerie","ADRESSE":"Boulevard du Massacre","LIBTYPE":null,"_IDOBJ":2208,"TYPE":null,"CATEGORIE":902},"geometry":{"type":"Point","coordinates":[-1.58874503753763,47.2358825266874]}},{"type":"Feature","properties":{"geo":{"name":"Centre d'Incendie et de Secours Indre"},"_l":[47.1994018513443,-1.66860754120348],"LIBTHEME":"JUSTICE & SECURITE","CODE_POSTAL":44610,"WEB":"www.pompiersdefrance.org","STATUT":"Public","TELEPHONE":"02 40 38 02 28","THEME":9,"COMMUNE":"INDRE","LIBCATEGORIE":"Pompiers","ADRESSE":"Allée des Sapeurs-Pompiers","LIBTYPE":null,"_IDOBJ":2250,"TYPE":null,"CATEGORIE":903},"geometry":{"type":"Point","coordinates":[-1.66860754120348,47.1994018513443]}},{"type":"Feature","properties":{"geo":{"name":"Direction Départementale de la Protection Judiciaire de la Jeunesse Nantes"},"_l":[47.2240434159426,-1.54386319358932],"LIBTHEME":"JUSTICE & SECURITE","CODE_POSTAL":44000,"WEB":null,"STATUT":null,"TELEPHONE":"02 40 14 59 59","THEME":9,"COMMUNE":"NANTES","LIBCATEGORIE":"Justice","ADRESSE":"4 Rue de Courson","LIBTYPE":null,"_IDOBJ":2267,"TYPE":null,"CATEGORIE":901},"geometry":{"type":"Point","coordinates":[-1.54386319358932,47.2240434159426]}},{"type":"Feature","properties":{"geo":{"name":"Commissariat de Police Nationale - Olivier De Clisson"},"_l":[47.2131197189799,-1.5540734526188],"LIBTHEME":"JUSTICE & SECURITE","CODE_POSTAL":44000,"WEB":"www.police-nationale.interieur.gouv.fr","STATUT":null,"TELEPHONE":"02 40 20 73 50","THEME":9,"COMMUNE":"NANTES","LIBCATEGORIE":"Police","ADRESSE":"5 Cours Olivier De Clisson","LIBTYPE":"Police nationale","_IDOBJ":2298,"TYPE":90401,"CATEGORIE":904},"geometry":{"type":"Point","coordinates":[-1.5540734526188,47.2131197189799]}},{"type":"Feature","properties":{"geo":{"name":"Centre d'Incendie et de Secours Saint Herblain"},"_l":[47.2111254142498,-1.62421356013104],"LIBTHEME":"JUSTICE & SECURITE","CODE_POSTAL":44800,"WEB":"www.pompiersdefrance.org","STATUT":null,"TELEPHONE":"02 51 80 37 00","THEME":9,"COMMUNE":"ST-HERBLAIN","LIBCATEGORIE":"Pompiers","ADRESSE":"Boulevard Charles De Gaulle","LIBTYPE":null,"_IDOBJ":2308,"TYPE":null,"CATEGORIE":903},"geometry":{"type":"Point","coordinates":[-1.62421356013104,47.2111254142498]}},{"type":"Feature","properties":{"geo":{"name":"Gendarmerie Nationale Couëron"},"_l":[47.2135476935474,-1.69865344320466],"LIBTHEME":"JUSTICE & SECURITE","CODE_POSTAL":44220,"WEB":null,"STATUT":null,"TELEPHONE":"02 40 86 12 17","THEME":9,"COMMUNE":"COUERON","LIBCATEGORIE":"Gendarmerie","ADRESSE":"177 Boulevard de la Libération","LIBTYPE":null,"_IDOBJ":2455,"TYPE":null,"CATEGORIE":902},"geometry":{"type":"Point","coordinates":[-1.69865344320466,47.2135476935474]}},{"type":"Feature","properties":{"geo":{"name":"Centre d'Incendie et de Secours Couëron"},"_l":[47.2119866857997,-1.72830366379091],"LIBTHEME":"JUSTICE & SECURITE","CODE_POSTAL":44220,"WEB":"www.pompiersdefrance.org","STATUT":null,"TELEPHONE":"02 40 86 53 11","THEME":9,"COMMUNE":"COUERON","LIBCATEGORIE":"Pompiers","ADRESSE":"Rue Joséphine Even","LIBTYPE":null,"_IDOBJ":2484,"TYPE":null,"CATEGORIE":903},"geometry":{"type":"Point","coordinates":[-1.72830366379091,47.2119866857997]}},{"type":"Feature","properties":{"geo":{"name":"Gendarmerie Nationale"},"_l":[47.1936663750652,-1.75865341485942],"LIBTHEME":"JUSTICE & SECURITE","CODE_POSTAL":44640,"WEB":null,"STATUT":null,"TELEPHONE":"02 40 04 66 17","THEME":9,"COMMUNE":"LE-PELLERIN","LIBCATEGORIE":"Gendarmerie","ADRESSE":"Rue de Villeneuve","LIBTYPE":null,"_IDOBJ":2486,"TYPE":null,"CATEGORIE":902},"geometry":{"type":"Point","coordinates":[-1.75865341485942,47.1936663750652]}},{"type":"Feature","properties":{"geo":{"name":"Centre d'Incendie et de Secours Le Pellerin"},"_l":[47.2021659240053,-1.75900202086203],"LIBTHEME":"JUSTICE & SECURITE","CODE_POSTAL":44640,"WEB":null,"STATUT":null,"TELEPHONE":"02 40 05 61 27","THEME":9,"COMMUNE":"LE-PELLERIN","LIBCATEGORIE":"Pompiers","ADRESSE":"Place du Champ de Foire","LIBTYPE":null,"_IDOBJ":2494,"TYPE":null,"CATEGORIE":903},"geometry":{"type":"Point","coordinates":[-1.75900202086203,47.2021659240053]}},{"type":"Feature","properties":{"geo":{"name":"Centre d'Incendie et de Secours La Montagne"},"_l":[47.1886723997494,-1.69008022307873],"LIBTHEME":"JUSTICE & SECURITE","CODE_POSTAL":44620,"WEB":"www.pompiersdefrance.org","STATUT":null,"TELEPHONE":"02 40 65 84 97","THEME":9,"COMMUNE":"LA-MONTAGNE","LIBCATEGORIE":"Pompiers","ADRESSE":"Rue de la Briandière","LIBTYPE":null,"_IDOBJ":2530,"TYPE":null,"CATEGORIE":903},"geometry":{"type":"Point","coordinates":[-1.69008022307873,47.1886723997494]}},{"type":"Feature","properties":{"geo":{"name":"Police Municipale Sainte Luce sur Loire"},"_l":[47.2486643065644,-1.48396369108732],"LIBTHEME":"JUSTICE & SECURITE","CODE_POSTAL":44980,"WEB":null,"STATUT":null,"TELEPHONE":"02 40 68 16 86","THEME":9,"COMMUNE":"SAINTE-LUCE-SUR-LOIRE","LIBCATEGORIE":"Police","ADRESSE":"Mail de l'Europe","LIBTYPE":"Police municipale","_IDOBJ":2587,"TYPE":90402,"CATEGORIE":904},"geometry":{"type":"Point","coordinates":[-1.48396369108732,47.2486643065644]}},{"type":"Feature","properties":{"geo":{"name":"Gendarmerie Nationale Sautron"},"_l":[47.2632558368628,-1.67273321377832],"LIBTHEME":"JUSTICE & SECURITE","CODE_POSTAL":44880,"WEB":null,"STATUT":null,"TELEPHONE":"02 40 63 46 10","THEME":9,"COMMUNE":"SAUTRON","LIBCATEGORIE":"Gendarmerie","ADRESSE":"1 Rue de la Mairie","LIBTYPE":null,"_IDOBJ":2605,"TYPE":null,"CATEGORIE":902},"geometry":{"type":"Point","coordinates":[-1.67273321377832,47.2632558368628]}},{"type":"Feature","properties":{"geo":{"name":"Centre d'Incendie et Secours Gabriel Pinson"},"_l":[47.1456508977537,-1.68985848943553],"LIBTHEME":"JUSTICE & SECURITE","CODE_POSTAL":44830,"WEB":"www.pompiersdefrance.org","STATUT":null,"TELEPHONE":"02 40 65 50 09","THEME":9,"COMMUNE":"BOUAYE","LIBCATEGORIE":"Pompiers","ADRESSE":"3B Rue des Epinettes","LIBTYPE":null,"_IDOBJ":2691,"TYPE":null,"CATEGORIE":903},"geometry":{"type":"Point","coordinates":[-1.68985848943553,47.1456508977537]}},{"type":"Feature","properties":{"geo":{"name":"Centre d' Incendie et Secours Carquefou"},"_l":[47.2933499185985,-1.47388394769838],"LIBTHEME":"JUSTICE & SECURITE","CODE_POSTAL":44470,"WEB":"www.pompiersdefrance.org","STATUT":null,"TELEPHONE":"02 51 13 91 00","THEME":9,"COMMUNE":"CARQUEFOU","LIBCATEGORIE":"Pompiers","ADRESSE":"Impasse de Vieilleville","LIBTYPE":null,"_IDOBJ":2694,"TYPE":null,"CATEGORIE":903},"geometry":{"type":"Point","coordinates":[-1.47388394769838,47.2933499185985]}},{"type":"Feature","properties":{"geo":{"name":"Centre d'Incendie et de Secours Rezé"},"_l":[47.1941603533334,-1.55452321401702],"LIBTHEME":"JUSTICE & SECURITE","CODE_POSTAL":44400,"WEB":"www.pompiersdefrance.org","STATUT":null,"TELEPHONE":"02 28 20 45 00","THEME":9,"COMMUNE":"REZE","LIBCATEGORIE":"Pompiers","ADRESSE":"Rue de l'Ile Macé","LIBTYPE":null,"_IDOBJ":2697,"TYPE":null,"CATEGORIE":903},"geometry":{"type":"Point","coordinates":[-1.55452321401702,47.1941603533334]}},{"type":"Feature","properties":{"geo":{"name":"Service Départemental d'Incendie et de Secours La Chapelle sur Erdre"},"_l":[47.263204761222,-1.55393058461534],"LIBTHEME":"JUSTICE & SECURITE","CODE_POSTAL":44240,"WEB":"www.pompiersdefrance.org","STATUT":null,"TELEPHONE":"02 40 67 86 18","THEME":9,"COMMUNE":"LA-CHAPELLE-SUR-ERDRE","LIBCATEGORIE":"Pompiers","ADRESSE":"12 Rue Arago","LIBTYPE":null,"_IDOBJ":2698,"TYPE":null,"CATEGORIE":903},"geometry":{"type":"Point","coordinates":[-1.55393058461534,47.263204761222]}},{"type":"Feature","properties":{"geo":{"name":"Centre de Secours et d'Incendie Brains"},"_l":[47.17140451987,-1.71770215658723],"LIBTHEME":"JUSTICE & SECURITE","CODE_POSTAL":44830,"WEB":"www.pompiersdefrance.org","STATUT":null,"TELEPHONE":"02 40 32 68 18","THEME":9,"COMMUNE":"BRAINS","LIBCATEGORIE":"Pompiers","ADRESSE":"Rue Professeur Yves Boquien","LIBTYPE":null,"_IDOBJ":2713,"TYPE":null,"CATEGORIE":903},"geometry":{"type":"Point","coordinates":[-1.71770215658723,47.17140451987]}},{"type":"Feature","properties":{"geo":{"name":"Gendarmerie Nationale Bouaye"},"_l":[47.143355253328,-1.68191990948651],"LIBTHEME":"JUSTICE & SECURITE","CODE_POSTAL":44830,"WEB":null,"STATUT":null,"TELEPHONE":"02 40 65 41 17","THEME":9,"COMMUNE":"BOUAYE","LIBCATEGORIE":"Gendarmerie","ADRESSE":"1 Rue du Pinier","LIBTYPE":null,"_IDOBJ":2715,"TYPE":null,"CATEGORIE":902},"geometry":{"type":"Point","coordinates":[-1.68191990948651,47.143355253328]}},{"type":"Feature","properties":{"geo":{"name":"Gendarmerie Nationale Carquefou"},"_l":[47.2951619398599,-1.48878834714578],"LIBTHEME":"JUSTICE & SECURITE","CODE_POSTAL":44470,"WEB":null,"STATUT":null,"TELEPHONE":"02 40 50 87 17","THEME":9,"COMMUNE":"CARQUEFOU","LIBCATEGORIE":"Gendarmerie","ADRESSE":"12 Rue Louis Armand","LIBTYPE":null,"_IDOBJ":2716,"TYPE":null,"CATEGORIE":902},"geometry":{"type":"Point","coordinates":[-1.48878834714578,47.2951619398599]}},{"type":"Feature","properties":{"geo":{"name":"Gendarmerie Nationale La Chapelle sur Erdre"},"_l":[47.3100465861879,-1.54399105328342],"LIBTHEME":"JUSTICE & SECURITE","CODE_POSTAL":44240,"WEB":"www.lachapellesurerdre.fr","STATUT":null,"TELEPHONE":"17","THEME":9,"COMMUNE":"LA-CHAPELLE-SUR-ERDRE","LIBCATEGORIE":"Gendarmerie","ADRESSE":"15 Avenue des Perrières","LIBTYPE":null,"_IDOBJ":2719,"TYPE":null,"CATEGORIE":902},"geometry":{"type":"Point","coordinates":[-1.54399105328342,47.3100465861879]}},{"type":"Feature","properties":{"geo":{"name":"Gendarmerie Nationale Rezé"},"_l":[47.1870814098566,-1.54962901536836],"LIBTHEME":"JUSTICE & SECURITE","CODE_POSTAL":44400,"WEB":null,"STATUT":null,"TELEPHONE":"02 40 75 65 26","THEME":9,"COMMUNE":"REZE","LIBCATEGORIE":"Gendarmerie","ADRESSE":"4 Rue Pierre Brossolette","LIBTYPE":null,"_IDOBJ":2721,"TYPE":null,"CATEGORIE":902},"geometry":{"type":"Point","coordinates":[-1.54962901536836,47.1870814098566]}},{"type":"Feature","properties":{"geo":{"name":"Centre d'Incendie et de Secours Vertou"},"_l":[47.17777658054,-1.46164149225231],"LIBTHEME":"JUSTICE & SECURITE","CODE_POSTAL":44120,"WEB":"www.pompiersdefrance.org","STATUT":null,"TELEPHONE":"02 40 03 17 18","THEME":9,"COMMUNE":"VERTOU","LIBCATEGORIE":"Pompiers","ADRESSE":"Allée des Cadets","LIBTYPE":null,"_IDOBJ":2748,"TYPE":null,"CATEGORIE":903},"geometry":{"type":"Point","coordinates":[-1.46164149225231,47.17777658054]}},{"type":"Feature","properties":{"geo":{"name":"Gendarmerie Nationale Sainte Luce Sur loire"},"_l":[47.2555225890293,-1.46980639256882],"LIBTHEME":"JUSTICE & SECURITE","CODE_POSTAL":44980,"WEB":null,"STATUT":null,"TELEPHONE":"02 51 13 39 90","THEME":9,"COMMUNE":"SAINTE-LUCE-SUR-LOIRE","LIBCATEGORIE":"Gendarmerie","ADRESSE":"20 Route de Thouaré","LIBTYPE":null,"_IDOBJ":3076,"TYPE":null,"CATEGORIE":902},"geometry":{"type":"Point","coordinates":[-1.46980639256882,47.2555225890293]}},{"type":"Feature","properties":{"geo":{"name":"Gendarmerie Nationale Vertou"},"_l":[47.1659128203067,-1.4611430015081],"LIBTHEME":"JUSTICE & SECURITE","CODE_POSTAL":44120,"WEB":null,"STATUT":null,"TELEPHONE":"02 40 34 41 17","THEME":9,"COMMUNE":"VERTOU","LIBCATEGORIE":"Gendarmerie","ADRESSE":"85 Boulevard de l'Europe","LIBTYPE":null,"_IDOBJ":3077,"TYPE":null,"CATEGORIE":902},"geometry":{"type":"Point","coordinates":[-1.4611430015081,47.1659128203067]}},{"type":"Feature","properties":{"geo":{"name":"Police municipale"},"_l":[47.300169530962,-1.55054687788154],"LIBTHEME":"JUSTICE & SECURITE","CODE_POSTAL":44240,"WEB":"www.lachapellesurerdre.fr","STATUT":null,"TELEPHONE":"02 51 81 87 17","THEME":9,"COMMUNE":"LA-CHAPELLE-SUR-ERDRE","LIBCATEGORIE":"Police","ADRESSE":"10T Rue François Clouet","LIBTYPE":"Police municipale","_IDOBJ":3102,"TYPE":90402,"CATEGORIE":904},"geometry":{"type":"Point","coordinates":[-1.55054687788154,47.300169530962]}},{"type":"Feature","properties":{"geo":{"name":"Police Municipale Basse Goulaine"},"_l":[47.2149289935171,-1.46879678230613],"LIBTHEME":"JUSTICE & SECURITE","CODE_POSTAL":44115,"WEB":null,"STATUT":null,"TELEPHONE":"02 40 54 52 07","THEME":9,"COMMUNE":"BASSE-GOULAINE","LIBCATEGORIE":"Police","ADRESSE":"25 Rue de la Razée","LIBTYPE":"Police municipale","_IDOBJ":3103,"TYPE":90402,"CATEGORIE":904},"geometry":{"type":"Point","coordinates":[-1.46879678230613,47.2149289935171]}},{"type":"Feature","properties":{"geo":{"name":"Police Municipale Bouaye"},"_l":[47.1435447869797,-1.69399233931024],"LIBTHEME":"JUSTICE & SECURITE","CODE_POSTAL":44830,"WEB":null,"STATUT":null,"TELEPHONE":"02 51 70 55 59","THEME":9,"COMMUNE":"BOUAYE","LIBCATEGORIE":"Police","ADRESSE":"12 Rue de Pornic","LIBTYPE":"Police municipale","_IDOBJ":3104,"TYPE":90402,"CATEGORIE":904},"geometry":{"type":"Point","coordinates":[-1.69399233931024,47.1435447869797]}},{"type":"Feature","properties":{"geo":{"name":"Police Municipale Bouguenais"},"_l":[47.1793798674169,-1.62281386447333],"LIBTHEME":"JUSTICE & SECURITE","CODE_POSTAL":44340,"WEB":"www.ville-bouguenais.fr","STATUT":null,"TELEPHONE":"02 28 00 18 81","THEME":9,"COMMUNE":"BOUGUENAIS","LIBCATEGORIE":"Police","ADRESSE":"21 Rue Aristide Briand","LIBTYPE":"Police municipale","_IDOBJ":3105,"TYPE":90402,"CATEGORIE":904},"geometry":{"type":"Point","coordinates":[-1.62281386447333,47.1793798674169]}},{"type":"Feature","properties":{"geo":{"name":"Police Municipale Carquefou"},"_l":[47.2984994743738,-1.48951117007884],"LIBTHEME":"JUSTICE & SECURITE","CODE_POSTAL":44470,"WEB":"www.carquefou.fr","STATUT":null,"TELEPHONE":"02 28 22 22 00","THEME":9,"COMMUNE":"CARQUEFOU","LIBCATEGORIE":"Police","ADRESSE":"13 Rue de la Marquise de Sévigné","LIBTYPE":"Police municipale","_IDOBJ":3106,"TYPE":90402,"CATEGORIE":904},"geometry":{"type":"Point","coordinates":[-1.48951117007884,47.2984994743738]}},{"type":"Feature","properties":{"geo":{"name":"Police Municipale Couëon"},"_l":[47.2119812885141,-1.72768022248575],"LIBTHEME":"JUSTICE & SECURITE","CODE_POSTAL":44220,"WEB":null,"STATUT":null,"TELEPHONE":"02 40 38 51 18","THEME":9,"COMMUNE":"COUERON","LIBCATEGORIE":"Police","ADRESSE":"8 Place Charles De Gaulle","LIBTYPE":"Police municipale","_IDOBJ":3108,"TYPE":90402,"CATEGORIE":904},"geometry":{"type":"Point","coordinates":[-1.72768022248575,47.2119812885141]}},{"type":"Feature","properties":{"geo":{"name":"Police Municipale Indre"},"_l":[47.1998888713703,-1.66832547827052],"LIBTHEME":"JUSTICE & SECURITE","CODE_POSTAL":44610,"WEB":null,"STATUT":null,"TELEPHONE":"02 40 85 45 86","THEME":9,"COMMUNE":"INDRE","LIBCATEGORIE":"Police","ADRESSE":"Avenue de la Loire","LIBTYPE":"Police municipale","_IDOBJ":3109,"TYPE":90402,"CATEGORIE":904},"geometry":{"type":"Point","coordinates":[-1.66832547827052,47.1998888713703]}},{"type":"Feature","properties":{"geo":{"name":"Police Municipale Orvault"},"_l":[47.2715036233613,-1.62401416483746],"LIBTHEME":"JUSTICE & SECURITE","CODE_POSTAL":44700,"WEB":null,"STATUT":null,"TELEPHONE":"02 51 78 31 57","THEME":9,"COMMUNE":"ORVAULT","LIBCATEGORIE":"Police","ADRESSE":"9 Rue Robert Le Ricolais","LIBTYPE":"Police municipale","_IDOBJ":3110,"TYPE":90402,"CATEGORIE":904},"geometry":{"type":"Point","coordinates":[-1.62401416483746,47.2715036233613]}},{"type":"Feature","properties":{"geo":{"name":"Police Municipale Vertou"},"_l":[47.1687794773689,-1.47331399444406],"LIBTHEME":"JUSTICE & SECURITE","CODE_POSTAL":44120,"WEB":"www.vertou.fr","STATUT":null,"TELEPHONE":"02 51 71 30 47","THEME":9,"COMMUNE":"VERTOU","LIBCATEGORIE":"Police","ADRESSE":"2 Rue du Chemin Creux","LIBTYPE":"Police municipale","_IDOBJ":3111,"TYPE":90402,"CATEGORIE":904},"geometry":{"type":"Point","coordinates":[-1.47331399444406,47.1687794773689]}},{"type":"Feature","properties":{"geo":{"name":"Commissariat de Police Nationale - Rezé"},"_l":[47.1858153602726,-1.55585736634066],"LIBTHEME":"JUSTICE & SECURITE","CODE_POSTAL":44400,"WEB":"www.police-nationale.interieur.gouv.fr","STATUT":null,"TELEPHONE":"02 51 11 23 00","THEME":9,"COMMUNE":"REZE","LIBCATEGORIE":"Police","ADRESSE":"8 Allée de Touraine","LIBTYPE":"Police nationale","_IDOBJ":3112,"TYPE":90401,"CATEGORIE":904},"geometry":{"type":"Point","coordinates":[-1.55585736634066,47.1858153602726]}},{"type":"Feature","properties":{"geo":{"name":"Ministère de la Défense Service des Essences Couëron"},"_l":[47.210793663913,-1.68507671211545],"LIBTHEME":"JUSTICE & SECURITE","CODE_POSTAL":44220,"WEB":null,"STATUT":null,"TELEPHONE":"02 40 85 40 00","THEME":9,"COMMUNE":"COUERON","LIBCATEGORIE":"Armée","ADRESSE":"RD 617","LIBTYPE":null,"_IDOBJ":3150,"TYPE":null,"CATEGORIE":905},"geometry":{"type":"Point","coordinates":[-1.68507671211545,47.210793663913]}},{"type":"Feature","properties":{"geo":{"name":"DCNS"},"_l":[47.1960820868105,-1.68005386628998],"LIBTHEME":"JUSTICE & SECURITE","CODE_POSTAL":44620,"WEB":"fr.dcnsgroup.com","STATUT":null,"TELEPHONE":"02 40 84 85 00","THEME":9,"COMMUNE":"INDRE","LIBCATEGORIE":"Armée","ADRESSE":"Porte Houdaille","LIBTYPE":null,"_IDOBJ":3151,"TYPE":null,"CATEGORIE":905},"geometry":{"type":"Point","coordinates":[-1.68005386628998,47.1960820868105]}},{"type":"Feature","properties":{"geo":{"name":"Direction Départementale Protection Judiciaire de la Jeunesse Bouguenais"},"_l":[47.1740779721185,-1.57354231599371],"LIBTHEME":"JUSTICE & SECURITE","CODE_POSTAL":44340,"WEB":null,"STATUT":null,"TELEPHONE":"02 40 32 31 81","THEME":9,"COMMUNE":"BOUGUENAIS","LIBCATEGORIE":"Justice","ADRESSE":"Rue de la Flûte Enchantée","LIBTYPE":null,"_IDOBJ":3176,"TYPE":null,"CATEGORIE":901},"geometry":{"type":"Point","coordinates":[-1.57354231599371,47.1740779721185]}},{"type":"Feature","properties":{"geo":{"name":"Centre Educatif Nantes ouest - PJJ"},"_l":[47.2140881638019,-1.54881762575851],"LIBTHEME":"JUSTICE & SECURITE","CODE_POSTAL":44000,"WEB":null,"STATUT":null,"TELEPHONE":"02 40 20 64 20","THEME":9,"COMMUNE":"NANTES","LIBCATEGORIE":"Justice","ADRESSE":"11 Allée Baco","LIBTYPE":null,"_IDOBJ":3177,"TYPE":null,"CATEGORIE":901},"geometry":{"type":"Point","coordinates":[-1.54881762575851,47.2140881638019]}},{"type":"Feature","properties":{"geo":{"name":"Direction Départementale Protection Judiciaire de la Jeunesse Nantes"},"_l":[47.2307587426875,-1.52979585325581],"LIBTHEME":"JUSTICE & SECURITE","CODE_POSTAL":44000,"WEB":null,"STATUT":null,"TELEPHONE":"02 40 84 07 00","THEME":9,"COMMUNE":"NANTES","LIBCATEGORIE":"Justice","ADRESSE":"69 Boulevard des Poilus","LIBTYPE":null,"_IDOBJ":3178,"TYPE":null,"CATEGORIE":901},"geometry":{"type":"Point","coordinates":[-1.52979585325581,47.2307587426875]}},{"type":"Feature","properties":{"geo":{"name":"Centre d'Action Educative Protection Judiciaire de la Jeunesse Nantes"},"_l":[47.2120656563371,-1.55025579980218],"LIBTHEME":"JUSTICE & SECURITE","CODE_POSTAL":44000,"WEB":null,"STATUT":null,"TELEPHONE":"02 40 35 39 74","THEME":9,"COMMUNE":"NANTES","LIBCATEGORIE":"Justice","ADRESSE":"4 Rue des Olivettes","LIBTYPE":null,"_IDOBJ":3179,"TYPE":null,"CATEGORIE":901},"geometry":{"type":"Point","coordinates":[-1.55025579980218,47.2120656563371]}},{"type":"Feature","properties":{"geo":{"name":"Centre d'Action Educative Protection Judiciaire de la Jeunesse Nantes"},"_l":[47.2307301138029,-1.53011509508906],"LIBTHEME":"JUSTICE & SECURITE","CODE_POSTAL":44000,"WEB":null,"STATUT":null,"TELEPHONE":"02 40 50 44 82","THEME":9,"COMMUNE":"NANTES","LIBCATEGORIE":"Justice","ADRESSE":"62 Rue des Trois Rois","LIBTYPE":null,"_IDOBJ":3180,"TYPE":null,"CATEGORIE":901},"geometry":{"type":"Point","coordinates":[-1.53011509508906,47.2307301138029]}},{"type":"Feature","properties":{"geo":{"name":"Centre d'Action Educative Protection Judiciaire de la Jeunesse"},"_l":[47.2353464563975,-1.54416652607627],"LIBTHEME":"JUSTICE & SECURITE","CODE_POSTAL":44300,"WEB":null,"STATUT":null,"TELEPHONE":"02 51 13 45 19","THEME":9,"COMMUNE":"NANTES","LIBCATEGORIE":"Justice","ADRESSE":"106 Boulevard des Belges","LIBTYPE":null,"_IDOBJ":3181,"TYPE":null,"CATEGORIE":901},"geometry":{"type":"Point","coordinates":[-1.54416652607627,47.2353464563975]}},{"type":"Feature","properties":{"geo":{"name":"Centre d'Action Educative Protection Judiciaire de la Jeunesse Nantes"},"_l":[47.1911644777912,-1.52430137838358],"LIBTHEME":"JUSTICE & SECURITE","CODE_POSTAL":44200,"WEB":null,"STATUT":null,"TELEPHONE":"02 51 71 21 31","THEME":9,"COMMUNE":"NANTES","LIBCATEGORIE":"Justice","ADRESSE":"1 Rue Mauvoisins","LIBTYPE":null,"_IDOBJ":3182,"TYPE":null,"CATEGORIE":901},"geometry":{"type":"Point","coordinates":[-1.52430137838358,47.1911644777912]}},{"type":"Feature","properties":{"geo":{"name":"Etablissement Pénitentiaire pour Mineurs"},"_l":[47.2678262128539,-1.59024802315103],"LIBTHEME":"JUSTICE & SECURITE","CODE_POSTAL":44700,"WEB":null,"STATUT":null,"TELEPHONE":null,"THEME":9,"COMMUNE":"ORVAULT","LIBCATEGORIE":"Justice","ADRESSE":"Avenue de la Jalière","LIBTYPE":null,"_IDOBJ":3964,"TYPE":null,"CATEGORIE":901},"geometry":{"type":"Point","coordinates":[-1.59024802315103,47.2678262128539]}},{"type":"Feature","properties":{"geo":{"name":"Centre de semi-liberté"},"_l":[47.2413126437672,-1.57591395996756],"LIBTHEME":"JUSTICE & SECURITE","CODE_POSTAL":44300,"WEB":null,"STATUT":null,"TELEPHONE":null,"THEME":9,"COMMUNE":"NANTES","LIBCATEGORIE":"Justice","ADRESSE":"19 Avenue de la Close","LIBTYPE":null,"_IDOBJ":3966,"TYPE":null,"CATEGORIE":901},"geometry":{"type":"Point","coordinates":[-1.57591395996756,47.2413126437672]}},{"type":"Feature","properties":{"geo":{"name":"Maison d'Arrêt Hommes et Femmes"},"_l":[47.2670668606546,-1.50582543730028],"LIBTHEME":"JUSTICE & SECURITE","CODE_POSTAL":44300,"WEB":null,"STATUT":null,"TELEPHONE":"02 72 65 33 00","THEME":9,"COMMUNE":"CARQUEFOU","LIBCATEGORIE":"Justice","ADRESSE":"Rue de la Mainguais","LIBTYPE":null,"_IDOBJ":3968,"TYPE":null,"CATEGORIE":901},"geometry":{"type":"Point","coordinates":[-1.50582543730028,47.2670668606546]}},{"type":"Feature","properties":{"geo":{"name":"Gendarmerie de Basse-Goulaine"},"_l":[47.2085058444167,-1.46129821547674],"LIBTHEME":"JUSTICE & SECURITE","CODE_POSTAL":44115,"WEB":null,"STATUT":null,"TELEPHONE":"02 40 80 56 93","THEME":9,"COMMUNE":"BASSE-GOULAINE","LIBCATEGORIE":"Gendarmerie","ADRESSE":"80 Rue de Goulaine","LIBTYPE":null,"_IDOBJ":4104,"TYPE":null,"CATEGORIE":902},"geometry":{"type":"Point","coordinates":[-1.46129821547674,47.2085058444167]}},{"type":"Feature","properties":{"geo":{"name":"Police Municipale"},"_l":[47.1484520362943,-1.53071038613555],"LIBTHEME":"JUSTICE & SECURITE","CODE_POSTAL":44840,"WEB":null,"STATUT":null,"TELEPHONE":null,"THEME":9,"COMMUNE":"LES-SORINIERES","LIBCATEGORIE":"Police","ADRESSE":"49 Rue Georges Clemenceau","LIBTYPE":"Police municipale","_IDOBJ":4187,"TYPE":90402,"CATEGORIE":904},"geometry":{"type":"Point","coordinates":[-1.53071038613555,47.1484520362943]}},{"type":"Feature","properties":{"geo":{"name":"Police Municipale"},"_l":[47.1917929077833,-1.68653764520161],"LIBTHEME":"JUSTICE & SECURITE","CODE_POSTAL":44620,"WEB":null,"STATUT":null,"TELEPHONE":null,"THEME":9,"COMMUNE":"LA-MONTAGNE","LIBCATEGORIE":"Police","ADRESSE":"Place François Mitterrand","LIBTYPE":"Police municipale","_IDOBJ":4242,"TYPE":90402,"CATEGORIE":904},"geometry":{"type":"Point","coordinates":[-1.68653764520161,47.1917929077833]}},{"type":"Feature","properties":{"geo":{"name":"Police Municipale"},"_l":[47.2644480366383,-1.67375705808084],"LIBTHEME":"JUSTICE & SECURITE","CODE_POSTAL":44880,"WEB":"www.sautron.fr","STATUT":null,"TELEPHONE":null,"THEME":9,"COMMUNE":"SAUTRON","LIBCATEGORIE":"Police","ADRESSE":"25 Rue de la Vallée","LIBTYPE":"Police municipale","_IDOBJ":4274,"TYPE":90402,"CATEGORIE":904},"geometry":{"type":"Point","coordinates":[-1.67375705808084,47.2644480366383]}},{"type":"Feature","properties":{"geo":{"name":"Commissariat de Police Nationale - Beaujoire"},"_l":[47.2556200327667,-1.51630775620862],"LIBTHEME":"JUSTICE & SECURITE","CODE_POSTAL":44300,"WEB":"www.police-nationale.interieur.gouv.fr","STATUT":null,"TELEPHONE":"02 40 35 07 00","THEME":9,"COMMUNE":"NANTES","LIBCATEGORIE":"Police","ADRESSE":"26 Rue du Champ de Tir","LIBTYPE":"Police nationale","_IDOBJ":4407,"TYPE":90401,"CATEGORIE":904},"geometry":{"type":"Point","coordinates":[-1.51630775620862,47.2556200327667]}},{"type":"Feature","properties":{"geo":{"name":"Commissariat de Police Nationale - Préfecture"},"_l":[47.2206951060414,-1.55279134539954],"LIBTHEME":"JUSTICE & SECURITE","CODE_POSTAL":44000,"WEB":"www.police-nationale.interieur.gouv.fr","STATUT":null,"TELEPHONE":"02 40 41 20 13","THEME":9,"COMMUNE":"NANTES","LIBCATEGORIE":"Police","ADRESSE":"Place Roger Salengro","LIBTYPE":"Police nationale","_IDOBJ":4408,"TYPE":90401,"CATEGORIE":904},"geometry":{"type":"Point","coordinates":[-1.55279134539954,47.2206951060414]}},{"type":"Feature","properties":{"geo":{"name":"Commissariat de Police Nationale - Gare SNCF"},"_l":[47.2176307095692,-1.54157747944123],"LIBTHEME":"JUSTICE & SECURITE","CODE_POSTAL":44000,"WEB":"www.police-nationale.interieur.gouv.fr","STATUT":null,"TELEPHONE":"02 40 08 16 75","THEME":9,"COMMUNE":"NANTES","LIBCATEGORIE":"Police","ADRESSE":"Boulevard de Stalingrad","LIBTYPE":"Police nationale","_IDOBJ":4409,"TYPE":90401,"CATEGORIE":904},"geometry":{"type":"Point","coordinates":[-1.54157747944123,47.2176307095692]}},{"type":"Feature","properties":{"geo":{"name":"Commissariat de Police Nationale - Sillon de Bretagne"},"_l":[47.2436114433639,-1.60666681777909],"LIBTHEME":"JUSTICE & SECURITE","CODE_POSTAL":44800,"WEB":"www.police-nationale.interieur.gouv.fr","STATUT":null,"TELEPHONE":"02 40 63 48 00","THEME":9,"COMMUNE":"ST-HERBLAIN","LIBCATEGORIE":"Police","ADRESSE":"1 Place des Thébaudières","LIBTYPE":"Police nationale","_IDOBJ":4410,"TYPE":90401,"CATEGORIE":904},"geometry":{"type":"Point","coordinates":[-1.60666681777909,47.2436114433639]}},{"type":"Feature","properties":{"geo":{"name":"Tribunal pour Enfants de Nantes"},"_l":[47.2075002332305,-1.56206252305157],"LIBTHEME":"JUSTICE & SECURITE","CODE_POSTAL":44200,"WEB":null,"STATUT":null,"TELEPHONE":"02 51 17 96 74","THEME":9,"COMMUNE":"NANTES","LIBCATEGORIE":"Justice","ADRESSE":"19 Quai François Mitterrand","LIBTYPE":null,"_IDOBJ":4436,"TYPE":null,"CATEGORIE":901},"geometry":{"type":"Point","coordinates":[-1.56206252305157,47.2075002332305]}},{"type":"Feature","properties":{"geo":{"name":"Maison de justice et du droit Sud-Loire"},"_l":[47.1909203284456,-1.54615547997798],"LIBTHEME":"JUSTICE & SECURITE","CODE_POSTAL":44400,"WEB":null,"STATUT":null,"TELEPHONE":"02 51 11 37 00","THEME":9,"COMMUNE":"REZE","LIBCATEGORIE":"Justice","ADRESSE":"8 Rue Jean Baptiste Vigier","LIBTYPE":null,"_IDOBJ":4437,"TYPE":null,"CATEGORIE":901},"geometry":{"type":"Point","coordinates":[-1.54615547997798,47.1909203284456]}},{"type":"Feature","properties":{"geo":{"name":"Service Pénitentiaire d'Insertion et de Probation de Loire-Atlantique"},"_l":[47.2204205067145,-1.55705173421949],"LIBTHEME":"JUSTICE & SECURITE","CODE_POSTAL":44000,"WEB":null,"STATUT":null,"TELEPHONE":"02 51 25 03 25","THEME":9,"COMMUNE":"NANTES","LIBCATEGORIE":"Justice","ADRESSE":"19 Rue Jeanne d'Arc","LIBTYPE":null,"_IDOBJ":4438,"TYPE":null,"CATEGORIE":901},"geometry":{"type":"Point","coordinates":[-1.55705173421949,47.2204205067145]}}],"properties":[{"type":"Feature","properties":{"geo":{"name":"Centre de Secours Gouzé"},"_l":[47.2212114995258,-1.54526821868743],"LIBTHEME":"JUSTICE & SECURITE","CODE_POSTAL":44000,"WEB":"www.pompiersdefrance.org","STATUT":null,"TELEPHONE":"02 40 37 85 85","THEME":9,"COMMUNE":"NANTES","LIBCATEGORIE":"Pompiers","ADRESSE":"37 Rue Maréchal Joffre","LIBTYPE":null,"_IDOBJ":209,"TYPE":null,"CATEGORIE":903},"geometry":{"type":"Point","coordinates":[-1.54526821868743,47.2212114995258]}},{"type":"Feature","properties":{"geo":{"name":"Commissariat de Police Nationale - Central Waldeck Rousseau"},"_l":[47.2275369538359,-1.55135389739537],"LIBTHEME":"JUSTICE & SECURITE","CODE_POSTAL":44000,"WEB":"www.police-nationale.interieur.gouv.fr","STATUT":null,"TELEPHONE":"02 53 46 70 00","THEME":9,"COMMUNE":"NANTES","LIBCATEGORIE":"Police","ADRESSE":"6 Place Waldeck Rousseau","LIBTYPE":"Police nationale","_IDOBJ":211,"TYPE":90401,"CATEGORIE":904},"geometry":{"type":"Point","coordinates":[-1.55135389739537,47.2275369538359]}},{"type":"Feature","properties":{"geo":{"name":"Tribunal de Grande Instance de Nantes"},"_l":[47.2077509795832,-1.56171651845791],"LIBTHEME":"JUSTICE & SECURITE","CODE_POSTAL":44200,"WEB":"www.justice.gouv.fr","STATUT":null,"TELEPHONE":"02 51 17 95 00","THEME":9,"COMMUNE":"NANTES","LIBCATEGORIE":"Justice","ADRESSE":"19 Quai François Mitterrand","LIBTYPE":null,"_IDOBJ":222,"TYPE":null,"CATEGORIE":901},"geometry":{"type":"Point","coordinates":[-1.56171651845791,47.2077509795832]}},{"type":"Feature","properties":{"geo":{"name":"Quart. Mellinet"},"_l":[47.2275255535266,-1.53865082694786],"LIBTHEME":"JUSTICE & SECURITE","CODE_POSTAL":44000,"WEB":"www.defense.gouv.fr/terre","STATUT":null,"TELEPHONE":null,"THEME":9,"COMMUNE":"NANTES","LIBCATEGORIE":"Armée","ADRESSE":"4 Place du 51ième RA","LIBTYPE":null,"_IDOBJ":229,"TYPE":null,"CATEGORIE":905},"geometry":{"type":"Point","coordinates":[-1.53865082694786,47.2275255535266]}},{"type":"Feature","properties":{"geo":{"name":"Quartier Richemont Lamoricière"},"_l":[47.2247607222181,-1.5320308867113],"LIBTHEME":"JUSTICE & SECURITE","CODE_POSTAL":44000,"WEB":"www.defense.gouv.fr/terre","STATUT":null,"TELEPHONE":null,"THEME":9,"COMMUNE":"NANTES","LIBCATEGORIE":"Armée","ADRESSE":"16 Rue des Rochettes","LIBTYPE":null,"_IDOBJ":230,"TYPE":null,"CATEGORIE":905},"geometry":{"type":"Point","coordinates":[-1.5320308867113,47.2247607222181]}},{"type":"Feature","properties":{"geo":{"name":"Centre de Secours Nantes Nord"},"_l":[47.2631741573758,-1.58220930362375],"LIBTHEME":"JUSTICE & SECURITE","CODE_POSTAL":44300,"WEB":"www.pompiersdefrance.org","STATUT":null,"TELEPHONE":"02 28 20 46 50","THEME":9,"COMMUNE":"NANTES","LIBCATEGORIE":"Pompiers","ADRESSE":"26 Boulevard René Cassin","LIBTYPE":null,"_IDOBJ":232,"TYPE":null,"CATEGORIE":903},"geometry":{"type":"Point","coordinates":[-1.58220930362375,47.2631741573758]}},{"type":"Feature","properties":{"geo":{"name":"Centre Pénitentiaire de Nantes"},"_l":[47.2651649423429,-1.57076412041346],"LIBTHEME":"JUSTICE & SECURITE","CODE_POSTAL":44300,"WEB":"www.justice.gouv.fr","STATUT":null,"TELEPHONE":"02 40 16 45 00","THEME":9,"COMMUNE":"NANTES","LIBCATEGORIE":"Justice","ADRESSE":"68 Boulevard Albert Einstein","LIBTYPE":null,"_IDOBJ":233,"TYPE":null,"CATEGORIE":901},"geometry":{"type":"Point","coordinates":[-1.57076412041346,47.2651649423429]}},{"type":"Feature","properties":{"geo":{"name":"Casier Judiciaire National"},"_l":[47.2337154160348,-1.51160980604455],"LIBTHEME":"JUSTICE & SECURITE","CODE_POSTAL":44300,"WEB":"www.justice.gouv.fr/cjn","STATUT":null,"TELEPHONE":"02 51 89 89 51","THEME":9,"COMMUNE":"NANTES","LIBCATEGORIE":"Justice","ADRESSE":"107 Rue du Landreau","LIBTYPE":null,"_IDOBJ":238,"TYPE":null,"CATEGORIE":901},"geometry":{"type":"Point","coordinates":[-1.51160980604455,47.2337154160348]}},{"type":"Feature","properties":{"geo":{"name":"Gendarmerie Nationale Doulon"},"_l":[47.2273502656567,-1.52819220144191],"LIBTHEME":"JUSTICE & SECURITE","CODE_POSTAL":44000,"WEB":"www.defense.gouv.fr/gendarmerie","STATUT":null,"TELEPHONE":"02 40 49 75 24","THEME":9,"COMMUNE":"NANTES","LIBCATEGORIE":"Gendarmerie","ADRESSE":"18 Boulevard Ernest Dalby","LIBTYPE":null,"_IDOBJ":240,"TYPE":null,"CATEGORIE":902},"geometry":{"type":"Point","coordinates":[-1.52819220144191,47.2273502656567]}},{"type":"Feature","properties":{"geo":{"name":"Gendarmerie Nationale Etat Major"},"_l":[47.2243629962894,-1.52857205006087],"LIBTHEME":"JUSTICE & SECURITE","CODE_POSTAL":44000,"WEB":"www.defense.gouv.fr/gendarmerie","STATUT":null,"TELEPHONE":"02 40 49 64 45","THEME":9,"COMMUNE":"NANTES","LIBCATEGORIE":"Gendarmerie","ADRESSE":"8 Rue Stéphenson","LIBTYPE":null,"_IDOBJ":252,"TYPE":null,"CATEGORIE":902},"geometry":{"type":"Point","coordinates":[-1.52857205006087,47.2243629962894]}},{"type":"Feature","properties":{"geo":{"name":"Conseil des Prud'Hommes"},"_l":[47.2062779979058,-1.54665068395541],"LIBTHEME":"JUSTICE & SECURITE","CODE_POSTAL":44200,"WEB":null,"STATUT":null,"TELEPHONE":"02 40 20 61 30","THEME":9,"COMMUNE":"NANTES","LIBCATEGORIE":"Justice","ADRESSE":"26 Boulevard Vincent Gâche","LIBTYPE":null,"_IDOBJ":1047,"TYPE":null,"CATEGORIE":901},"geometry":{"type":"Point","coordinates":[-1.54665068395541,47.2062779979058]}},{"type":"Feature","properties":{"geo":{"name":"Cour Administrative d'Appel de Nantes"},"_l":[47.2147380452398,-1.56778140476585],"LIBTHEME":"JUSTICE & SECURITE","CODE_POSTAL":44000,"WEB":null,"STATUT":null,"TELEPHONE":"02 51 84 77 77","THEME":9,"COMMUNE":"NANTES","LIBCATEGORIE":"Justice","ADRESSE":"2 Place de l'Edit de Nantes","LIBTYPE":null,"_IDOBJ":1048,"TYPE":null,"CATEGORIE":901},"geometry":{"type":"Point","coordinates":[-1.56778140476585,47.2147380452398]}},{"type":"Feature","properties":{"geo":{"name":"Tribunal d'Instance de Nantes"},"_l":[47.2077922886444,-1.56116889517563],"LIBTHEME":"JUSTICE & SECURITE","CODE_POSTAL":44200,"WEB":"www.justice.gouv.fr","STATUT":null,"TELEPHONE":"02 51 17 95 00","THEME":9,"COMMUNE":"NANTES","LIBCATEGORIE":"Justice","ADRESSE":"19 Quai François Mitterrand","LIBTYPE":null,"_IDOBJ":1049,"TYPE":null,"CATEGORIE":901},"geometry":{"type":"Point","coordinates":[-1.56116889517563,47.2077922886444]}},{"type":"Feature","properties":{"geo":{"name":"Tribunal de commerce de Nantes"},"_l":[47.2073391203546,-1.55606117383452],"LIBTHEME":"JUSTICE & SECURITE","CODE_POSTAL":44200,"WEB":null,"STATUT":null,"TELEPHONE":"02 40 41 02 00","THEME":9,"COMMUNE":"NANTES","LIBCATEGORIE":"Justice","ADRESSE":"2B Quai François Mitterrand","LIBTYPE":null,"_IDOBJ":1050,"TYPE":null,"CATEGORIE":901},"geometry":{"type":"Point","coordinates":[-1.55606117383452,47.2073391203546]}},{"type":"Feature","properties":{"geo":{"name":"Tribunal Administratif de Nantes"},"_l":[47.2109319159173,-1.55768591088906],"LIBTHEME":"JUSTICE & SECURITE","CODE_POSTAL":44000,"WEB":null,"STATUT":null,"TELEPHONE":"02 40 99 46 00","THEME":9,"COMMUNE":"NANTES","LIBCATEGORIE":"Justice","ADRESSE":"6 Allée de l'Ile Gloriette","LIBTYPE":null,"_IDOBJ":1051,"TYPE":null,"CATEGORIE":901},"geometry":{"type":"Point","coordinates":[-1.55768591088906,47.2109319159173]}},{"type":"Feature","properties":{"geo":{"name":"Bureau Armée de l'Air Information Nantes"},"_l":[47.2241423002735,-1.53683302304528],"LIBTHEME":"JUSTICE & SECURITE","CODE_POSTAL":44000,"WEB":"www.defense.gouv.fr/air","STATUT":null,"TELEPHONE":"02 40 74 21 29","THEME":9,"COMMUNE":"NANTES","LIBCATEGORIE":"Armée","ADRESSE":"16 Rue des Rochettes","LIBTYPE":null,"_IDOBJ":1052,"TYPE":null,"CATEGORIE":905},"geometry":{"type":"Point","coordinates":[-1.53683302304528,47.2241423002735]}},{"type":"Feature","properties":{"geo":{"name":"Commissariat de Police Nationale - Chantenay"},"_l":[47.2055598265254,-1.58776051774145],"LIBTHEME":"JUSTICE & SECURITE","CODE_POSTAL":44100,"WEB":"www.police-nationale.interieur.gouv.fr","STATUT":null,"TELEPHONE":"02 51 80 43 70","THEME":9,"COMMUNE":"NANTES","LIBCATEGORIE":"Police","ADRESSE":"130 Boulevard de la Liberté","LIBTYPE":"Police nationale","_IDOBJ":1056,"TYPE":90401,"CATEGORIE":904},"geometry":{"type":"Point","coordinates":[-1.58776051774145,47.2055598265254]}},{"type":"Feature","properties":{"geo":{"name":"Gendarmerie Mobile Nantes"},"_l":[47.223374256173,-1.53352495444874],"LIBTHEME":"JUSTICE & SECURITE","CODE_POSTAL":44000,"WEB":"www.defense.gouv.fr/gendarmerie","STATUT":null,"TELEPHONE":"02 51 12 50 00","THEME":9,"COMMUNE":"NANTES","LIBCATEGORIE":"Gendarmerie","ADRESSE":"4 Rue d'Allonville","LIBTYPE":null,"_IDOBJ":1057,"TYPE":null,"CATEGORIE":902},"geometry":{"type":"Point","coordinates":[-1.53352495444874,47.223374256173]}},{"type":"Feature","properties":{"geo":{"name":"Maison de justice et du droit de Nantes"},"_l":[47.2229884421266,-1.59758055330341],"LIBTHEME":"JUSTICE & SECURITE","CODE_POSTAL":44100,"WEB":null,"STATUT":null,"TELEPHONE":"02 51 80 64 30","THEME":9,"COMMUNE":"NANTES","LIBCATEGORIE":"Justice","ADRESSE":"21 Rue Charles Roger","LIBTYPE":null,"_IDOBJ":1333,"TYPE":null,"CATEGORIE":901},"geometry":{"type":"Point","coordinates":[-1.59758055330341,47.2229884421266]}},{"type":"Feature","properties":{"geo":{"name":"Police Municipale Nantes"},"_l":[47.2194095732912,-1.53643017875723],"LIBTHEME":"JUSTICE & SECURITE","CODE_POSTAL":44000,"WEB":null,"STATUT":null,"TELEPHONE":"02 40 41 95 30","THEME":9,"COMMUNE":"NANTES","LIBCATEGORIE":"Police","ADRESSE":"11 Boulevard de Stalingrad","LIBTYPE":"Police municipale","_IDOBJ":1334,"TYPE":90402,"CATEGORIE":904},"geometry":{"type":"Point","coordinates":[-1.53643017875723,47.2194095732912]}},{"type":"Feature","properties":{"geo":{"name":"Tribunal des Affaires de Sécurité Sociale Nantes"},"_l":[47.2183063029992,-1.56935262388943],"LIBTHEME":"JUSTICE & SECURITE","CODE_POSTAL":44000,"WEB":null,"STATUT":null,"TELEPHONE":"02 40 20 31 04","THEME":9,"COMMUNE":"NANTES","LIBCATEGORIE":"Justice","ADRESSE":"10 Rue Mondésir","LIBTYPE":null,"_IDOBJ":1622,"TYPE":null,"CATEGORIE":901},"geometry":{"type":"Point","coordinates":[-1.56935262388943,47.2183063029992]}},{"type":"Feature","properties":{"geo":{"name":"Cellule Opérationnelle de Prévention des Risques Nantes"},"_l":[47.2217066772754,-1.54673143308088],"LIBTHEME":"JUSTICE & SECURITE","CODE_POSTAL":44000,"WEB":"www.pompiersdefrance.org","STATUT":null,"TELEPHONE":"02 40 37 85 54","THEME":9,"COMMUNE":"NANTES","LIBCATEGORIE":"Pompiers","ADRESSE":"37 Rue Maréchal Joffre","LIBTYPE":null,"_IDOBJ":1670,"TYPE":null,"CATEGORIE":903},"geometry":{"type":"Point","coordinates":[-1.54673143308088,47.2217066772754]}},{"type":"Feature","properties":{"geo":{"name":"Caserne Commandant Rivière Détach. Maintenance Génie"},"_l":[47.2233046771476,-1.53543615535935],"LIBTHEME":"JUSTICE & SECURITE","CODE_POSTAL":44000,"WEB":"www.defense.gouv.fr/terre","STATUT":null,"TELEPHONE":null,"THEME":9,"COMMUNE":"NANTES","LIBCATEGORIE":"Armée","ADRESSE":"12 Rue des Rochettes","LIBTYPE":null,"_IDOBJ":1677,"TYPE":null,"CATEGORIE":905},"geometry":{"type":"Point","coordinates":[-1.53543615535935,47.2233046771476]}},{"type":"Feature","properties":{"geo":{"name":"Etat Major de Force No 2 Nantes"},"_l":[47.2250321688163,-1.53247147766662],"LIBTHEME":"JUSTICE & SECURITE","CODE_POSTAL":44000,"WEB":"www.defense.gouv.fr/terre","STATUT":null,"TELEPHONE":null,"THEME":9,"COMMUNE":"NANTES","LIBCATEGORIE":"Armée","ADRESSE":"16 Rue des Rochettes","LIBTYPE":null,"_IDOBJ":1679,"TYPE":null,"CATEGORIE":905},"geometry":{"type":"Point","coordinates":[-1.53247147766662,47.2250321688163]}},{"type":"Feature","properties":{"geo":{"name":"22ème Bataillon d'Infanterie de Marine Nantes"},"_l":[47.2277442322788,-1.53828917707472],"LIBTHEME":"JUSTICE & SECURITE","CODE_POSTAL":44000,"WEB":"www.defense.gouv.fr/terre","STATUT":null,"TELEPHONE":null,"THEME":9,"COMMUNE":"NANTES","LIBCATEGORIE":"Armée","ADRESSE":"4 Place du 51ième RA","LIBTYPE":null,"_IDOBJ":1680,"TYPE":null,"CATEGORIE":905},"geometry":{"type":"Point","coordinates":[-1.53828917707472,47.2277442322788]}},{"type":"Feature","properties":{"geo":{"name":"9ème Brigade Légère Blindée de Marine Nantes"},"_l":[47.2272906724048,-1.53897732011467],"LIBTHEME":"JUSTICE & SECURITE","CODE_POSTAL":44000,"WEB":"www.defense.gouv.fr/terre","STATUT":null,"TELEPHONE":null,"THEME":9,"COMMUNE":"NANTES","LIBCATEGORIE":"Armée","ADRESSE":"4 Place du 51ième RA","LIBTYPE":null,"_IDOBJ":1718,"TYPE":null,"CATEGORIE":905},"geometry":{"type":"Point","coordinates":[-1.53897732011467,47.2272906724048]}},{"type":"Feature","properties":{"geo":{"name":"Commissariat de Police Nationale - Saint-Herblain"},"_l":[47.2139049083682,-1.64871155737979],"LIBTHEME":"JUSTICE & SECURITE","CODE_POSTAL":44800,"WEB":"www.police-nationale.interieur.gouv.fr","STATUT":"Public","TELEPHONE":"02 40 85 00 00","THEME":9,"COMMUNE":"ST-HERBLAIN","LIBCATEGORIE":"Police","ADRESSE":"118 Boulevard François Mitterrand","LIBTYPE":"Police nationale","_IDOBJ":1807,"TYPE":90401,"CATEGORIE":904},"geometry":{"type":"Point","coordinates":[-1.64871155737979,47.2139049083682]}},{"type":"Feature","properties":{"geo":{"name":"Commissariat de Police Nationale - St-Sébastien"},"_l":[47.2065958244569,-1.50256770370674],"LIBTHEME":"JUSTICE & SECURITE","CODE_POSTAL":44230,"WEB":"www.police-nationale.interieur.gouv.fr","STATUT":"Public","TELEPHONE":"02 88 00 10 09","THEME":9,"COMMUNE":"ST-SEBASTIEN","LIBCATEGORIE":"Police","ADRESSE":"11 Rue du Huit Mai 1945","LIBTYPE":"Police nationale","_IDOBJ":1874,"TYPE":90401,"CATEGORIE":904},"geometry":{"type":"Point","coordinates":[-1.50256770370674,47.2065958244569]}},{"type":"Feature","properties":{"geo":{"name":"Commissariat de Police Nationale - Orvault"},"_l":[47.2536769875717,-1.5972990669044],"LIBTHEME":"JUSTICE & SECURITE","CODE_POSTAL":44700,"WEB":"www.police-nationale.interieur.gouv.fr","STATUT":"Public","TELEPHONE":"02 40 67 12 60","THEME":9,"COMMUNE":"ORVAULT","LIBCATEGORIE":"Police","ADRESSE":"38 Avenue Alexandre Goupil","LIBTYPE":"Police nationale","_IDOBJ":1875,"TYPE":90401,"CATEGORIE":904},"geometry":{"type":"Point","coordinates":[-1.5972990669044,47.2536769875717]}},{"type":"Feature","properties":{"geo":{"name":"Compagnie Républicaine de Sécurité 42 Nantes"},"_l":[47.2381702192087,-1.60023736499209],"LIBTHEME":"JUSTICE & SECURITE","CODE_POSTAL":44800,"WEB":null,"STATUT":"Public","TELEPHONE":"02 40 67 22 00","THEME":9,"COMMUNE":"ST-HERBLAIN","LIBCATEGORIE":"Police","ADRESSE":"Avenue des Naudières","LIBTYPE":"Police nationale","_IDOBJ":1876,"TYPE":90401,"CATEGORIE":904},"geometry":{"type":"Point","coordinates":[-1.60023736499209,47.2381702192087]}},{"type":"Feature","properties":{"geo":{"name":"Centre de Secours Pompiers Bouguenais"},"_l":[47.1780544360104,-1.62718771406128],"LIBTHEME":"JUSTICE & SECURITE","CODE_POSTAL":44340,"WEB":"www.pompiersdefrance.org","STATUT":"Public","TELEPHONE":"02 40 32 02 80","THEME":9,"COMMUNE":"BOUGUENAIS","LIBCATEGORIE":"Pompiers","ADRESSE":"19 Rue Eugène Pottier","LIBTYPE":null,"_IDOBJ":2105,"TYPE":null,"CATEGORIE":903},"geometry":{"type":"Point","coordinates":[-1.62718771406128,47.1780544360104]}},{"type":"Feature","properties":{"geo":{"name":"Police Municipale Saint Sébastien"},"_l":[47.2074588958979,-1.50281186638497],"LIBTHEME":"JUSTICE & SECURITE","CODE_POSTAL":44230,"WEB":null,"STATUT":"Public","TELEPHONE":"02 40 80 86 03","THEME":9,"COMMUNE":"ST-SEBASTIEN","LIBCATEGORIE":"Police","ADRESSE":"6 Rue du Général De Gaulle","LIBTYPE":"Police municipale","_IDOBJ":2146,"TYPE":90402,"CATEGORIE":904},"geometry":{"type":"Point","coordinates":[-1.50281186638497,47.2074588958979]}},{"type":"Feature","properties":{"geo":{"name":"Gendarmerie Nationale"},"_l":[47.1727752370534,-1.61728280058149],"LIBTHEME":"JUSTICE & SECURITE","CODE_POSTAL":44340,"WEB":"www.gendarmerie.defense.gouv.fr","STATUT":"Public","TELEPHONE":"02 40 65 16 79","THEME":9,"COMMUNE":"BOUGUENAIS","LIBCATEGORIE":"Gendarmerie","ADRESSE":"23 Rue Gutenberg","LIBTYPE":null,"_IDOBJ":2173,"TYPE":null,"CATEGORIE":902},"geometry":{"type":"Point","coordinates":[-1.61728280058149,47.1727752370534]}},{"type":"Feature","properties":{"geo":{"name":"Gendarmerie Centrale Saint Herblain"},"_l":[47.2358825266874,-1.58874503753763],"LIBTHEME":"JUSTICE & SECURITE","CODE_POSTAL":44800,"WEB":"www.gendarmerie.defense.gouv.fr","STATUT":"Public","TELEPHONE":"02 40 67 56 00","THEME":9,"COMMUNE":"ST-HERBLAIN","LIBCATEGORIE":"Gendarmerie","ADRESSE":"Boulevard du Massacre","LIBTYPE":null,"_IDOBJ":2208,"TYPE":null,"CATEGORIE":902},"geometry":{"type":"Point","coordinates":[-1.58874503753763,47.2358825266874]}},{"type":"Feature","properties":{"geo":{"name":"Centre d'Incendie et de Secours Indre"},"_l":[47.1994018513443,-1.66860754120348],"LIBTHEME":"JUSTICE & SECURITE","CODE_POSTAL":44610,"WEB":"www.pompiersdefrance.org","STATUT":"Public","TELEPHONE":"02 40 38 02 28","THEME":9,"COMMUNE":"INDRE","LIBCATEGORIE":"Pompiers","ADRESSE":"Allée des Sapeurs-Pompiers","LIBTYPE":null,"_IDOBJ":2250,"TYPE":null,"CATEGORIE":903},"geometry":{"type":"Point","coordinates":[-1.66860754120348,47.1994018513443]}},{"type":"Feature","properties":{"geo":{"name":"Direction Départementale de la Protection Judiciaire de la Jeunesse Nantes"},"_l":[47.2240434159426,-1.54386319358932],"LIBTHEME":"JUSTICE & SECURITE","CODE_POSTAL":44000,"WEB":null,"STATUT":null,"TELEPHONE":"02 40 14 59 59","THEME":9,"COMMUNE":"NANTES","LIBCATEGORIE":"Justice","ADRESSE":"4 Rue de Courson","LIBTYPE":null,"_IDOBJ":2267,"TYPE":null,"CATEGORIE":901},"geometry":{"type":"Point","coordinates":[-1.54386319358932,47.2240434159426]}},{"type":"Feature","properties":{"geo":{"name":"Commissariat de Police Nationale - Olivier De Clisson"},"_l":[47.2131197189799,-1.5540734526188],"LIBTHEME":"JUSTICE & SECURITE","CODE_POSTAL":44000,"WEB":"www.police-nationale.interieur.gouv.fr","STATUT":null,"TELEPHONE":"02 40 20 73 50","THEME":9,"COMMUNE":"NANTES","LIBCATEGORIE":"Police","ADRESSE":"5 Cours Olivier De Clisson","LIBTYPE":"Police nationale","_IDOBJ":2298,"TYPE":90401,"CATEGORIE":904},"geometry":{"type":"Point","coordinates":[-1.5540734526188,47.2131197189799]}},{"type":"Feature","properties":{"geo":{"name":"Centre d'Incendie et de Secours Saint Herblain"},"_l":[47.2111254142498,-1.62421356013104],"LIBTHEME":"JUSTICE & SECURITE","CODE_POSTAL":44800,"WEB":"www.pompiersdefrance.org","STATUT":null,"TELEPHONE":"02 51 80 37 00","THEME":9,"COMMUNE":"ST-HERBLAIN","LIBCATEGORIE":"Pompiers","ADRESSE":"Boulevard Charles De Gaulle","LIBTYPE":null,"_IDOBJ":2308,"TYPE":null,"CATEGORIE":903},"geometry":{"type":"Point","coordinates":[-1.62421356013104,47.2111254142498]}},{"type":"Feature","properties":{"geo":{"name":"Gendarmerie Nationale Couëron"},"_l":[47.2135476935474,-1.69865344320466],"LIBTHEME":"JUSTICE & SECURITE","CODE_POSTAL":44220,"WEB":null,"STATUT":null,"TELEPHONE":"02 40 86 12 17","THEME":9,"COMMUNE":"COUERON","LIBCATEGORIE":"Gendarmerie","ADRESSE":"177 Boulevard de la Libération","LIBTYPE":null,"_IDOBJ":2455,"TYPE":null,"CATEGORIE":902},"geometry":{"type":"Point","coordinates":[-1.69865344320466,47.2135476935474]}},{"type":"Feature","properties":{"geo":{"name":"Centre d'Incendie et de Secours Couëron"},"_l":[47.2119866857997,-1.72830366379091],"LIBTHEME":"JUSTICE & SECURITE","CODE_POSTAL":44220,"WEB":"www.pompiersdefrance.org","STATUT":null,"TELEPHONE":"02 40 86 53 11","THEME":9,"COMMUNE":"COUERON","LIBCATEGORIE":"Pompiers","ADRESSE":"Rue Joséphine Even","LIBTYPE":null,"_IDOBJ":2484,"TYPE":null,"CATEGORIE":903},"geometry":{"type":"Point","coordinates":[-1.72830366379091,47.2119866857997]}},{"type":"Feature","properties":{"geo":{"name":"Gendarmerie Nationale"},"_l":[47.1936663750652,-1.75865341485942],"LIBTHEME":"JUSTICE & SECURITE","CODE_POSTAL":44640,"WEB":null,"STATUT":null,"TELEPHONE":"02 40 04 66 17","THEME":9,"COMMUNE":"LE-PELLERIN","LIBCATEGORIE":"Gendarmerie","ADRESSE":"Rue de Villeneuve","LIBTYPE":null,"_IDOBJ":2486,"TYPE":null,"CATEGORIE":902},"geometry":{"type":"Point","coordinates":[-1.75865341485942,47.1936663750652]}},{"type":"Feature","properties":{"geo":{"name":"Centre d'Incendie et de Secours Le Pellerin"},"_l":[47.2021659240053,-1.75900202086203],"LIBTHEME":"JUSTICE & SECURITE","CODE_POSTAL":44640,"WEB":null,"STATUT":null,"TELEPHONE":"02 40 05 61 27","THEME":9,"COMMUNE":"LE-PELLERIN","LIBCATEGORIE":"Pompiers","ADRESSE":"Place du Champ de Foire","LIBTYPE":null,"_IDOBJ":2494,"TYPE":null,"CATEGORIE":903},"geometry":{"type":"Point","coordinates":[-1.75900202086203,47.2021659240053]}},{"type":"Feature","properties":{"geo":{"name":"Centre d'Incendie et de Secours La Montagne"},"_l":[47.1886723997494,-1.69008022307873],"LIBTHEME":"JUSTICE & SECURITE","CODE_POSTAL":44620,"WEB":"www.pompiersdefrance.org","STATUT":null,"TELEPHONE":"02 40 65 84 97","THEME":9,"COMMUNE":"LA-MONTAGNE","LIBCATEGORIE":"Pompiers","ADRESSE":"Rue de la Briandière","LIBTYPE":null,"_IDOBJ":2530,"TYPE":null,"CATEGORIE":903},"geometry":{"type":"Point","coordinates":[-1.69008022307873,47.1886723997494]}},{"type":"Feature","properties":{"geo":{"name":"Police Municipale Sainte Luce sur Loire"},"_l":[47.2486643065644,-1.48396369108732],"LIBTHEME":"JUSTICE & SECURITE","CODE_POSTAL":44980,"WEB":null,"STATUT":null,"TELEPHONE":"02 40 68 16 86","THEME":9,"COMMUNE":"SAINTE-LUCE-SUR-LOIRE","LIBCATEGORIE":"Police","ADRESSE":"Mail de l'Europe","LIBTYPE":"Police municipale","_IDOBJ":2587,"TYPE":90402,"CATEGORIE":904},"geometry":{"type":"Point","coordinates":[-1.48396369108732,47.2486643065644]}},{"type":"Feature","properties":{"geo":{"name":"Gendarmerie Nationale Sautron"},"_l":[47.2632558368628,-1.67273321377832],"LIBTHEME":"JUSTICE & SECURITE","CODE_POSTAL":44880,"WEB":null,"STATUT":null,"TELEPHONE":"02 40 63 46 10","THEME":9,"COMMUNE":"SAUTRON","LIBCATEGORIE":"Gendarmerie","ADRESSE":"1 Rue de la Mairie","LIBTYPE":null,"_IDOBJ":2605,"TYPE":null,"CATEGORIE":902},"geometry":{"type":"Point","coordinates":[-1.67273321377832,47.2632558368628]}},{"type":"Feature","properties":{"geo":{"name":"Centre d'Incendie et Secours Gabriel Pinson"},"_l":[47.1456508977537,-1.68985848943553],"LIBTHEME":"JUSTICE & SECURITE","CODE_POSTAL":44830,"WEB":"www.pompiersdefrance.org","STATUT":null,"TELEPHONE":"02 40 65 50 09","THEME":9,"COMMUNE":"BOUAYE","LIBCATEGORIE":"Pompiers","ADRESSE":"3B Rue des Epinettes","LIBTYPE":null,"_IDOBJ":2691,"TYPE":null,"CATEGORIE":903},"geometry":{"type":"Point","coordinates":[-1.68985848943553,47.1456508977537]}},{"type":"Feature","properties":{"geo":{"name":"Centre d' Incendie et Secours Carquefou"},"_l":[47.2933499185985,-1.47388394769838],"LIBTHEME":"JUSTICE & SECURITE","CODE_POSTAL":44470,"WEB":"www.pompiersdefrance.org","STATUT":null,"TELEPHONE":"02 51 13 91 00","THEME":9,"COMMUNE":"CARQUEFOU","LIBCATEGORIE":"Pompiers","ADRESSE":"Impasse de Vieilleville","LIBTYPE":null,"_IDOBJ":2694,"TYPE":null,"CATEGORIE":903},"geometry":{"type":"Point","coordinates":[-1.47388394769838,47.2933499185985]}},{"type":"Feature","properties":{"geo":{"name":"Centre d'Incendie et de Secours Rezé"},"_l":[47.1941603533334,-1.55452321401702],"LIBTHEME":"JUSTICE & SECURITE","CODE_POSTAL":44400,"WEB":"www.pompiersdefrance.org","STATUT":null,"TELEPHONE":"02 28 20 45 00","THEME":9,"COMMUNE":"REZE","LIBCATEGORIE":"Pompiers","ADRESSE":"Rue de l'Ile Macé","LIBTYPE":null,"_IDOBJ":2697,"TYPE":null,"CATEGORIE":903},"geometry":{"type":"Point","coordinates":[-1.55452321401702,47.1941603533334]}},{"type":"Feature","properties":{"geo":{"name":"Service Départemental d'Incendie et de Secours La Chapelle sur Erdre"},"_l":[47.263204761222,-1.55393058461534],"LIBTHEME":"JUSTICE & SECURITE","CODE_POSTAL":44240,"WEB":"www.pompiersdefrance.org","STATUT":null,"TELEPHONE":"02 40 67 86 18","THEME":9,"COMMUNE":"LA-CHAPELLE-SUR-ERDRE","LIBCATEGORIE":"Pompiers","ADRESSE":"12 Rue Arago","LIBTYPE":null,"_IDOBJ":2698,"TYPE":null,"CATEGORIE":903},"geometry":{"type":"Point","coordinates":[-1.55393058461534,47.263204761222]}},{"type":"Feature","properties":{"geo":{"name":"Centre de Secours et d'Incendie Brains"},"_l":[47.17140451987,-1.71770215658723],"LIBTHEME":"JUSTICE & SECURITE","CODE_POSTAL":44830,"WEB":"www.pompiersdefrance.org","STATUT":null,"TELEPHONE":"02 40 32 68 18","THEME":9,"COMMUNE":"BRAINS","LIBCATEGORIE":"Pompiers","ADRESSE":"Rue Professeur Yves Boquien","LIBTYPE":null,"_IDOBJ":2713,"TYPE":null,"CATEGORIE":903},"geometry":{"type":"Point","coordinates":[-1.71770215658723,47.17140451987]}},{"type":"Feature","properties":{"geo":{"name":"Gendarmerie Nationale Bouaye"},"_l":[47.143355253328,-1.68191990948651],"LIBTHEME":"JUSTICE & SECURITE","CODE_POSTAL":44830,"WEB":null,"STATUT":null,"TELEPHONE":"02 40 65 41 17","THEME":9,"COMMUNE":"BOUAYE","LIBCATEGORIE":"Gendarmerie","ADRESSE":"1 Rue du Pinier","LIBTYPE":null,"_IDOBJ":2715,"TYPE":null,"CATEGORIE":902},"geometry":{"type":"Point","coordinates":[-1.68191990948651,47.143355253328]}},{"type":"Feature","properties":{"geo":{"name":"Gendarmerie Nationale Carquefou"},"_l":[47.2951619398599,-1.48878834714578],"LIBTHEME":"JUSTICE & SECURITE","CODE_POSTAL":44470,"WEB":null,"STATUT":null,"TELEPHONE":"02 40 50 87 17","THEME":9,"COMMUNE":"CARQUEFOU","LIBCATEGORIE":"Gendarmerie","ADRESSE":"12 Rue Louis Armand","LIBTYPE":null,"_IDOBJ":2716,"TYPE":null,"CATEGORIE":902},"geometry":{"type":"Point","coordinates":[-1.48878834714578,47.2951619398599]}},{"type":"Feature","properties":{"geo":{"name":"Gendarmerie Nationale La Chapelle sur Erdre"},"_l":[47.3100465861879,-1.54399105328342],"LIBTHEME":"JUSTICE & SECURITE","CODE_POSTAL":44240,"WEB":"www.lachapellesurerdre.fr","STATUT":null,"TELEPHONE":"17","THEME":9,"COMMUNE":"LA-CHAPELLE-SUR-ERDRE","LIBCATEGORIE":"Gendarmerie","ADRESSE":"15 Avenue des Perrières","LIBTYPE":null,"_IDOBJ":2719,"TYPE":null,"CATEGORIE":902},"geometry":{"type":"Point","coordinates":[-1.54399105328342,47.3100465861879]}},{"type":"Feature","properties":{"geo":{"name":"Gendarmerie Nationale Rezé"},"_l":[47.1870814098566,-1.54962901536836],"LIBTHEME":"JUSTICE & SECURITE","CODE_POSTAL":44400,"WEB":null,"STATUT":null,"TELEPHONE":"02 40 75 65 26","THEME":9,"COMMUNE":"REZE","LIBCATEGORIE":"Gendarmerie","ADRESSE":"4 Rue Pierre Brossolette","LIBTYPE":null,"_IDOBJ":2721,"TYPE":null,"CATEGORIE":902},"geometry":{"type":"Point","coordinates":[-1.54962901536836,47.1870814098566]}},{"type":"Feature","properties":{"geo":{"name":"Centre d'Incendie et de Secours Vertou"},"_l":[47.17777658054,-1.46164149225231],"LIBTHEME":"JUSTICE & SECURITE","CODE_POSTAL":44120,"WEB":"www.pompiersdefrance.org","STATUT":null,"TELEPHONE":"02 40 03 17 18","THEME":9,"COMMUNE":"VERTOU","LIBCATEGORIE":"Pompiers","ADRESSE":"Allée des Cadets","LIBTYPE":null,"_IDOBJ":2748,"TYPE":null,"CATEGORIE":903},"geometry":{"type":"Point","coordinates":[-1.46164149225231,47.17777658054]}},{"type":"Feature","properties":{"geo":{"name":"Gendarmerie Nationale Sainte Luce Sur loire"},"_l":[47.2555225890293,-1.46980639256882],"LIBTHEME":"JUSTICE & SECURITE","CODE_POSTAL":44980,"WEB":null,"STATUT":null,"TELEPHONE":"02 51 13 39 90","THEME":9,"COMMUNE":"SAINTE-LUCE-SUR-LOIRE","LIBCATEGORIE":"Gendarmerie","ADRESSE":"20 Route de Thouaré","LIBTYPE":null,"_IDOBJ":3076,"TYPE":null,"CATEGORIE":902},"geometry":{"type":"Point","coordinates":[-1.46980639256882,47.2555225890293]}},{"type":"Feature","properties":{"geo":{"name":"Gendarmerie Nationale Vertou"},"_l":[47.1659128203067,-1.4611430015081],"LIBTHEME":"JUSTICE & SECURITE","CODE_POSTAL":44120,"WEB":null,"STATUT":null,"TELEPHONE":"02 40 34 41 17","THEME":9,"COMMUNE":"VERTOU","LIBCATEGORIE":"Gendarmerie","ADRESSE":"85 Boulevard de l'Europe","LIBTYPE":null,"_IDOBJ":3077,"TYPE":null,"CATEGORIE":902},"geometry":{"type":"Point","coordinates":[-1.4611430015081,47.1659128203067]}},{"type":"Feature","properties":{"geo":{"name":"Police municipale"},"_l":[47.300169530962,-1.55054687788154],"LIBTHEME":"JUSTICE & SECURITE","CODE_POSTAL":44240,"WEB":"www.lachapellesurerdre.fr","STATUT":null,"TELEPHONE":"02 51 81 87 17","THEME":9,"COMMUNE":"LA-CHAPELLE-SUR-ERDRE","LIBCATEGORIE":"Police","ADRESSE":"10T Rue François Clouet","LIBTYPE":"Police municipale","_IDOBJ":3102,"TYPE":90402,"CATEGORIE":904},"geometry":{"type":"Point","coordinates":[-1.55054687788154,47.300169530962]}},{"type":"Feature","properties":{"geo":{"name":"Police Municipale Basse Goulaine"},"_l":[47.2149289935171,-1.46879678230613],"LIBTHEME":"JUSTICE & SECURITE","CODE_POSTAL":44115,"WEB":null,"STATUT":null,"TELEPHONE":"02 40 54 52 07","THEME":9,"COMMUNE":"BASSE-GOULAINE","LIBCATEGORIE":"Police","ADRESSE":"25 Rue de la Razée","LIBTYPE":"Police municipale","_IDOBJ":3103,"TYPE":90402,"CATEGORIE":904},"geometry":{"type":"Point","coordinates":[-1.46879678230613,47.2149289935171]}},{"type":"Feature","properties":{"geo":{"name":"Police Municipale Bouaye"},"_l":[47.1435447869797,-1.69399233931024],"LIBTHEME":"JUSTICE & SECURITE","CODE_POSTAL":44830,"WEB":null,"STATUT":null,"TELEPHONE":"02 51 70 55 59","THEME":9,"COMMUNE":"BOUAYE","LIBCATEGORIE":"Police","ADRESSE":"12 Rue de Pornic","LIBTYPE":"Police municipale","_IDOBJ":3104,"TYPE":90402,"CATEGORIE":904},"geometry":{"type":"Point","coordinates":[-1.69399233931024,47.1435447869797]}},{"type":"Feature","properties":{"geo":{"name":"Police Municipale Bouguenais"},"_l":[47.1793798674169,-1.62281386447333],"LIBTHEME":"JUSTICE & SECURITE","CODE_POSTAL":44340,"WEB":"www.ville-bouguenais.fr","STATUT":null,"TELEPHONE":"02 28 00 18 81","THEME":9,"COMMUNE":"BOUGUENAIS","LIBCATEGORIE":"Police","ADRESSE":"21 Rue Aristide Briand","LIBTYPE":"Police municipale","_IDOBJ":3105,"TYPE":90402,"CATEGORIE":904},"geometry":{"type":"Point","coordinates":[-1.62281386447333,47.1793798674169]}},{"type":"Feature","properties":{"geo":{"name":"Police Municipale Carquefou"},"_l":[47.2984994743738,-1.48951117007884],"LIBTHEME":"JUSTICE & SECURITE","CODE_POSTAL":44470,"WEB":"www.carquefou.fr","STATUT":null,"TELEPHONE":"02 28 22 22 00","THEME":9,"COMMUNE":"CARQUEFOU","LIBCATEGORIE":"Police","ADRESSE":"13 Rue de la Marquise de Sévigné","LIBTYPE":"Police municipale","_IDOBJ":3106,"TYPE":90402,"CATEGORIE":904},"geometry":{"type":"Point","coordinates":[-1.48951117007884,47.2984994743738]}},{"type":"Feature","properties":{"geo":{"name":"Police Municipale Couëon"},"_l":[47.2119812885141,-1.72768022248575],"LIBTHEME":"JUSTICE & SECURITE","CODE_POSTAL":44220,"WEB":null,"STATUT":null,"TELEPHONE":"02 40 38 51 18","THEME":9,"COMMUNE":"COUERON","LIBCATEGORIE":"Police","ADRESSE":"8 Place Charles De Gaulle","LIBTYPE":"Police municipale","_IDOBJ":3108,"TYPE":90402,"CATEGORIE":904},"geometry":{"type":"Point","coordinates":[-1.72768022248575,47.2119812885141]}},{"type":"Feature","properties":{"geo":{"name":"Police Municipale Indre"},"_l":[47.1998888713703,-1.66832547827052],"LIBTHEME":"JUSTICE & SECURITE","CODE_POSTAL":44610,"WEB":null,"STATUT":null,"TELEPHONE":"02 40 85 45 86","THEME":9,"COMMUNE":"INDRE","LIBCATEGORIE":"Police","ADRESSE":"Avenue de la Loire","LIBTYPE":"Police municipale","_IDOBJ":3109,"TYPE":90402,"CATEGORIE":904},"geometry":{"type":"Point","coordinates":[-1.66832547827052,47.1998888713703]}},{"type":"Feature","properties":{"geo":{"name":"Police Municipale Orvault"},"_l":[47.2715036233613,-1.62401416483746],"LIBTHEME":"JUSTICE & SECURITE","CODE_POSTAL":44700,"WEB":null,"STATUT":null,"TELEPHONE":"02 51 78 31 57","THEME":9,"COMMUNE":"ORVAULT","LIBCATEGORIE":"Police","ADRESSE":"9 Rue Robert Le Ricolais","LIBTYPE":"Police municipale","_IDOBJ":3110,"TYPE":90402,"CATEGORIE":904},"geometry":{"type":"Point","coordinates":[-1.62401416483746,47.2715036233613]}},{"type":"Feature","properties":{"geo":{"name":"Police Municipale Vertou"},"_l":[47.1687794773689,-1.47331399444406],"LIBTHEME":"JUSTICE & SECURITE","CODE_POSTAL":44120,"WEB":"www.vertou.fr","STATUT":null,"TELEPHONE":"02 51 71 30 47","THEME":9,"COMMUNE":"VERTOU","LIBCATEGORIE":"Police","ADRESSE":"2 Rue du Chemin Creux","LIBTYPE":"Police municipale","_IDOBJ":3111,"TYPE":90402,"CATEGORIE":904},"geometry":{"type":"Point","coordinates":[-1.47331399444406,47.1687794773689]}},{"type":"Feature","properties":{"geo":{"name":"Commissariat de Police Nationale - Rezé"},"_l":[47.1858153602726,-1.55585736634066],"LIBTHEME":"JUSTICE & SECURITE","CODE_POSTAL":44400,"WEB":"www.police-nationale.interieur.gouv.fr","STATUT":null,"TELEPHONE":"02 51 11 23 00","THEME":9,"COMMUNE":"REZE","LIBCATEGORIE":"Police","ADRESSE":"8 Allée de Touraine","LIBTYPE":"Police nationale","_IDOBJ":3112,"TYPE":90401,"CATEGORIE":904},"geometry":{"type":"Point","coordinates":[-1.55585736634066,47.1858153602726]}},{"type":"Feature","properties":{"geo":{"name":"Ministère de la Défense Service des Essences Couëron"},"_l":[47.210793663913,-1.68507671211545],"LIBTHEME":"JUSTICE & SECURITE","CODE_POSTAL":44220,"WEB":null,"STATUT":null,"TELEPHONE":"02 40 85 40 00","THEME":9,"COMMUNE":"COUERON","LIBCATEGORIE":"Armée","ADRESSE":"RD 617","LIBTYPE":null,"_IDOBJ":3150,"TYPE":null,"CATEGORIE":905},"geometry":{"type":"Point","coordinates":[-1.68507671211545,47.210793663913]}},{"type":"Feature","properties":{"geo":{"name":"DCNS"},"_l":[47.1960820868105,-1.68005386628998],"LIBTHEME":"JUSTICE & SECURITE","CODE_POSTAL":44620,"WEB":"fr.dcnsgroup.com","STATUT":null,"TELEPHONE":"02 40 84 85 00","THEME":9,"COMMUNE":"INDRE","LIBCATEGORIE":"Armée","ADRESSE":"Porte Houdaille","LIBTYPE":null,"_IDOBJ":3151,"TYPE":null,"CATEGORIE":905},"geometry":{"type":"Point","coordinates":[-1.68005386628998,47.1960820868105]}},{"type":"Feature","properties":{"geo":{"name":"Direction Départementale Protection Judiciaire de la Jeunesse Bouguenais"},"_l":[47.1740779721185,-1.57354231599371],"LIBTHEME":"JUSTICE & SECURITE","CODE_POSTAL":44340,"WEB":null,"STATUT":null,"TELEPHONE":"02 40 32 31 81","THEME":9,"COMMUNE":"BOUGUENAIS","LIBCATEGORIE":"Justice","ADRESSE":"Rue de la Flûte Enchantée","LIBTYPE":null,"_IDOBJ":3176,"TYPE":null,"CATEGORIE":901},"geometry":{"type":"Point","coordinates":[-1.57354231599371,47.1740779721185]}},{"type":"Feature","properties":{"geo":{"name":"Centre Educatif Nantes ouest - PJJ"},"_l":[47.2140881638019,-1.54881762575851],"LIBTHEME":"JUSTICE & SECURITE","CODE_POSTAL":44000,"WEB":null,"STATUT":null,"TELEPHONE":"02 40 20 64 20","THEME":9,"COMMUNE":"NANTES","LIBCATEGORIE":"Justice","ADRESSE":"11 Allée Baco","LIBTYPE":null,"_IDOBJ":3177,"TYPE":null,"CATEGORIE":901},"geometry":{"type":"Point","coordinates":[-1.54881762575851,47.2140881638019]}},{"type":"Feature","properties":{"geo":{"name":"Direction Départementale Protection Judiciaire de la Jeunesse Nantes"},"_l":[47.2307587426875,-1.52979585325581],"LIBTHEME":"JUSTICE & SECURITE","CODE_POSTAL":44000,"WEB":null,"STATUT":null,"TELEPHONE":"02 40 84 07 00","THEME":9,"COMMUNE":"NANTES","LIBCATEGORIE":"Justice","ADRESSE":"69 Boulevard des Poilus","LIBTYPE":null,"_IDOBJ":3178,"TYPE":null,"CATEGORIE":901},"geometry":{"type":"Point","coordinates":[-1.52979585325581,47.2307587426875]}},{"type":"Feature","properties":{"geo":{"name":"Centre d'Action Educative Protection Judiciaire de la Jeunesse Nantes"},"_l":[47.2120656563371,-1.55025579980218],"LIBTHEME":"JUSTICE & SECURITE","CODE_POSTAL":44000,"WEB":null,"STATUT":null,"TELEPHONE":"02 40 35 39 74","THEME":9,"COMMUNE":"NANTES","LIBCATEGORIE":"Justice","ADRESSE":"4 Rue des Olivettes","LIBTYPE":null,"_IDOBJ":3179,"TYPE":null,"CATEGORIE":901},"geometry":{"type":"Point","coordinates":[-1.55025579980218,47.2120656563371]}},{"type":"Feature","properties":{"geo":{"name":"Centre d'Action Educative Protection Judiciaire de la Jeunesse Nantes"},"_l":[47.2307301138029,-1.53011509508906],"LIBTHEME":"JUSTICE & SECURITE","CODE_POSTAL":44000,"WEB":null,"STATUT":null,"TELEPHONE":"02 40 50 44 82","THEME":9,"COMMUNE":"NANTES","LIBCATEGORIE":"Justice","ADRESSE":"62 Rue des Trois Rois","LIBTYPE":null,"_IDOBJ":3180,"TYPE":null,"CATEGORIE":901},"geometry":{"type":"Point","coordinates":[-1.53011509508906,47.2307301138029]}},{"type":"Feature","properties":{"geo":{"name":"Centre d'Action Educative Protection Judiciaire de la Jeunesse"},"_l":[47.2353464563975,-1.54416652607627],"LIBTHEME":"JUSTICE & SECURITE","CODE_POSTAL":44300,"WEB":null,"STATUT":null,"TELEPHONE":"02 51 13 45 19","THEME":9,"COMMUNE":"NANTES","LIBCATEGORIE":"Justice","ADRESSE":"106 Boulevard des Belges","LIBTYPE":null,"_IDOBJ":3181,"TYPE":null,"CATEGORIE":901},"geometry":{"type":"Point","coordinates":[-1.54416652607627,47.2353464563975]}},{"type":"Feature","properties":{"geo":{"name":"Centre d'Action Educative Protection Judiciaire de la Jeunesse Nantes"},"_l":[47.1911644777912,-1.52430137838358],"LIBTHEME":"JUSTICE & SECURITE","CODE_POSTAL":44200,"WEB":null,"STATUT":null,"TELEPHONE":"02 51 71 21 31","THEME":9,"COMMUNE":"NANTES","LIBCATEGORIE":"Justice","ADRESSE":"1 Rue Mauvoisins","LIBTYPE":null,"_IDOBJ":3182,"TYPE":null,"CATEGORIE":901},"geometry":{"type":"Point","coordinates":[-1.52430137838358,47.1911644777912]}},{"type":"Feature","properties":{"geo":{"name":"Etablissement Pénitentiaire pour Mineurs"},"_l":[47.2678262128539,-1.59024802315103],"LIBTHEME":"JUSTICE & SECURITE","CODE_POSTAL":44700,"WEB":null,"STATUT":null,"TELEPHONE":null,"THEME":9,"COMMUNE":"ORVAULT","LIBCATEGORIE":"Justice","ADRESSE":"Avenue de la Jalière","LIBTYPE":null,"_IDOBJ":3964,"TYPE":null,"CATEGORIE":901},"geometry":{"type":"Point","coordinates":[-1.59024802315103,47.2678262128539]}},{"type":"Feature","properties":{"geo":{"name":"Centre de semi-liberté"},"_l":[47.2413126437672,-1.57591395996756],"LIBTHEME":"JUSTICE & SECURITE","CODE_POSTAL":44300,"WEB":null,"STATUT":null,"TELEPHONE":null,"THEME":9,"COMMUNE":"NANTES","LIBCATEGORIE":"Justice","ADRESSE":"19 Avenue de la Close","LIBTYPE":null,"_IDOBJ":3966,"TYPE":null,"CATEGORIE":901},"geometry":{"type":"Point","coordinates":[-1.57591395996756,47.2413126437672]}},{"type":"Feature","properties":{"geo":{"name":"Maison d'Arrêt Hommes et Femmes"},"_l":[47.2670668606546,-1.50582543730028],"LIBTHEME":"JUSTICE & SECURITE","CODE_POSTAL":44300,"WEB":null,"STATUT":null,"TELEPHONE":"02 72 65 33 00","THEME":9,"COMMUNE":"CARQUEFOU","LIBCATEGORIE":"Justice","ADRESSE":"Rue de la Mainguais","LIBTYPE":null,"_IDOBJ":3968,"TYPE":null,"CATEGORIE":901},"geometry":{"type":"Point","coordinates":[-1.50582543730028,47.2670668606546]}},{"type":"Feature","properties":{"geo":{"name":"Gendarmerie de Basse-Goulaine"},"_l":[47.2085058444167,-1.46129821547674],"LIBTHEME":"JUSTICE & SECURITE","CODE_POSTAL":44115,"WEB":null,"STATUT":null,"TELEPHONE":"02 40 80 56 93","THEME":9,"COMMUNE":"BASSE-GOULAINE","LIBCATEGORIE":"Gendarmerie","ADRESSE":"80 Rue de Goulaine","LIBTYPE":null,"_IDOBJ":4104,"TYPE":null,"CATEGORIE":902},"geometry":{"type":"Point","coordinates":[-1.46129821547674,47.2085058444167]}},{"type":"Feature","properties":{"geo":{"name":"Police Municipale"},"_l":[47.1484520362943,-1.53071038613555],"LIBTHEME":"JUSTICE & SECURITE","CODE_POSTAL":44840,"WEB":null,"STATUT":null,"TELEPHONE":null,"THEME":9,"COMMUNE":"LES-SORINIERES","LIBCATEGORIE":"Police","ADRESSE":"49 Rue Georges Clemenceau","LIBTYPE":"Police municipale","_IDOBJ":4187,"TYPE":90402,"CATEGORIE":904},"geometry":{"type":"Point","coordinates":[-1.53071038613555,47.1484520362943]}},{"type":"Feature","properties":{"geo":{"name":"Police Municipale"},"_l":[47.1917929077833,-1.68653764520161],"LIBTHEME":"JUSTICE & SECURITE","CODE_POSTAL":44620,"WEB":null,"STATUT":null,"TELEPHONE":null,"THEME":9,"COMMUNE":"LA-MONTAGNE","LIBCATEGORIE":"Police","ADRESSE":"Place François Mitterrand","LIBTYPE":"Police municipale","_IDOBJ":4242,"TYPE":90402,"CATEGORIE":904},"geometry":{"type":"Point","coordinates":[-1.68653764520161,47.1917929077833]}},{"type":"Feature","properties":{"geo":{"name":"Police Municipale"},"_l":[47.2644480366383,-1.67375705808084],"LIBTHEME":"JUSTICE & SECURITE","CODE_POSTAL":44880,"WEB":"www.sautron.fr","STATUT":null,"TELEPHONE":null,"THEME":9,"COMMUNE":"SAUTRON","LIBCATEGORIE":"Police","ADRESSE":"25 Rue de la Vallée","LIBTYPE":"Police municipale","_IDOBJ":4274,"TYPE":90402,"CATEGORIE":904},"geometry":{"type":"Point","coordinates":[-1.67375705808084,47.2644480366383]}},{"type":"Feature","properties":{"geo":{"name":"Commissariat de Police Nationale - Beaujoire"},"_l":[47.2556200327667,-1.51630775620862],"LIBTHEME":"JUSTICE & SECURITE","CODE_POSTAL":44300,"WEB":"www.police-nationale.interieur.gouv.fr","STATUT":null,"TELEPHONE":"02 40 35 07 00","THEME":9,"COMMUNE":"NANTES","LIBCATEGORIE":"Police","ADRESSE":"26 Rue du Champ de Tir","LIBTYPE":"Police nationale","_IDOBJ":4407,"TYPE":90401,"CATEGORIE":904},"geometry":{"type":"Point","coordinates":[-1.51630775620862,47.2556200327667]}},{"type":"Feature","properties":{"geo":{"name":"Commissariat de Police Nationale - Préfecture"},"_l":[47.2206951060414,-1.55279134539954],"LIBTHEME":"JUSTICE & SECURITE","CODE_POSTAL":44000,"WEB":"www.police-nationale.interieur.gouv.fr","STATUT":null,"TELEPHONE":"02 40 41 20 13","THEME":9,"COMMUNE":"NANTES","LIBCATEGORIE":"Police","ADRESSE":"Place Roger Salengro","LIBTYPE":"Police nationale","_IDOBJ":4408,"TYPE":90401,"CATEGORIE":904},"geometry":{"type":"Point","coordinates":[-1.55279134539954,47.2206951060414]}},{"type":"Feature","properties":{"geo":{"name":"Commissariat de Police Nationale - Gare SNCF"},"_l":[47.2176307095692,-1.54157747944123],"LIBTHEME":"JUSTICE & SECURITE","CODE_POSTAL":44000,"WEB":"www.police-nationale.interieur.gouv.fr","STATUT":null,"TELEPHONE":"02 40 08 16 75","THEME":9,"COMMUNE":"NANTES","LIBCATEGORIE":"Police","ADRESSE":"Boulevard de Stalingrad","LIBTYPE":"Police nationale","_IDOBJ":4409,"TYPE":90401,"CATEGORIE":904},"geometry":{"type":"Point","coordinates":[-1.54157747944123,47.2176307095692]}},{"type":"Feature","properties":{"geo":{"name":"Commissariat de Police Nationale - Sillon de Bretagne"},"_l":[47.2436114433639,-1.60666681777909],"LIBTHEME":"JUSTICE & SECURITE","CODE_POSTAL":44800,"WEB":"www.police-nationale.interieur.gouv.fr","STATUT":null,"TELEPHONE":"02 40 63 48 00","THEME":9,"COMMUNE":"ST-HERBLAIN","LIBCATEGORIE":"Police","ADRESSE":"1 Place des Thébaudières","LIBTYPE":"Police nationale","_IDOBJ":4410,"TYPE":90401,"CATEGORIE":904},"geometry":{"type":"Point","coordinates":[-1.60666681777909,47.2436114433639]}},{"type":"Feature","properties":{"geo":{"name":"Tribunal pour Enfants de Nantes"},"_l":[47.2075002332305,-1.56206252305157],"LIBTHEME":"JUSTICE & SECURITE","CODE_POSTAL":44200,"WEB":null,"STATUT":null,"TELEPHONE":"02 51 17 96 74","THEME":9,"COMMUNE":"NANTES","LIBCATEGORIE":"Justice","ADRESSE":"19 Quai François Mitterrand","LIBTYPE":null,"_IDOBJ":4436,"TYPE":null,"CATEGORIE":901},"geometry":{"type":"Point","coordinates":[-1.56206252305157,47.2075002332305]}},{"type":"Feature","properties":{"geo":{"name":"Maison de justice et du droit Sud-Loire"},"_l":[47.1909203284456,-1.54615547997798],"LIBTHEME":"JUSTICE & SECURITE","CODE_POSTAL":44400,"WEB":null,"STATUT":null,"TELEPHONE":"02 51 11 37 00","THEME":9,"COMMUNE":"REZE","LIBCATEGORIE":"Justice","ADRESSE":"8 Rue Jean Baptiste Vigier","LIBTYPE":null,"_IDOBJ":4437,"TYPE":null,"CATEGORIE":901},"geometry":{"type":"Point","coordinates":[-1.54615547997798,47.1909203284456]}},{"type":"Feature","properties":{"geo":{"name":"Service Pénitentiaire d'Insertion et de Probation de Loire-Atlantique"},"_l":[47.2204205067145,-1.55705173421949],"LIBTHEME":"JUSTICE & SECURITE","CODE_POSTAL":44000,"WEB":null,"STATUT":null,"TELEPHONE":"02 51 25 03 25","THEME":9,"COMMUNE":"NANTES","LIBCATEGORIE":"Justice","ADRESSE":"19 Rue Jeanne d'Arc","LIBTYPE":null,"_IDOBJ":4438,"TYPE":null,"CATEGORIE":901},"geometry":{"type":"Point","coordinates":[-1.55705173421949,47.2204205067145]}}]}