{"type":"FeatureCollection","features":[{"type":"Feature","properties":{"title":"Hôpital Bellier","Catégorie":"Santé","Type":"Hôpital-Clinique","Statut (privé/public)":null,"Commune":"NANTES","Site Internet":null,"Code postal":44000,"Téléphone":"02 40 68 66 60","Adresse":"41 Rue Pierre et Marie Curie","icon":"equipub-actionsociale"},"geometry":{"type":"Point","coordinates":[-1.52330957372563,47.2223767265097]}},{"type":"Feature","properties":{"title":"CHU Hôpital Hôtel Dieu","Catégorie":"Santé","Type":"Hôpital-Clinique","Statut (privé/public)":null,"Commune":"NANTES","Site Internet":"www.chu-nantes.fr","Code postal":44000,"Téléphone":"02 40 08 33 33","Adresse":"1 Place Alexis Ricordeau","icon":"equipub-actionsociale"},"geometry":{"type":"Point","coordinates":[-1.55476974661646,47.2100646062681]}},{"type":"Feature","properties":{"title":"Centre Médico-Social Boissière","Catégorie":"Santé","Type":"Centres Médico Sociaux","Statut (privé/public)":null,"Commune":"NANTES","Site Internet":"www.loire-atlantique.fr","Code postal":44300,"Téléphone":"02 40 76 90 51","Adresse":"9B Rue Jean De La Bruyère","icon":"equipub-actionsociale"},"geometry":{"type":"Point","coordinates":[-1.56753008324299,47.2543413036244]}},{"type":"Feature","properties":{"title":"Restaurant Social Pierre Landais","Catégorie":"Insertion","Type":"Restauration","Statut (privé/public)":null,"Commune":"NANTES","Site Internet":null,"Code postal":44200,"Téléphone":"02 40 47 12 61","Adresse":"16 Rue Pierre Landais","icon":"equipub-actionsociale"},"geometry":{"type":"Point","coordinates":[-1.55942750581692,47.205558561414]}},{"type":"Feature","properties":{"title":"Restaurant du Coeur  Gustave Roch","Catégorie":"Insertion","Type":"Restauration","Statut (privé/public)":null,"Commune":"NANTES","Site Internet":"www.terra.fr/restos","Code postal":44200,"Téléphone":"02 40 45 12 38","Adresse":"43 Boulevard Gustave Roch","icon":"equipub-actionsociale"},"geometry":{"type":"Point","coordinates":[-1.5532058523237,47.2023589118884]}},{"type":"Feature","properties":{"title":"Centre Médico Psycho Pédagogique Henri Vallon","Catégorie":"Santé","Type":"Centres Médico Sociaux","Statut (privé/public)":null,"Commune":"NANTES","Site Internet":"www.loire-atlantique.fr","Code postal":44100,"Téléphone":"02 40 43 61 46","Adresse":"63 Rue de la Marzelle de Grillaud","icon":"equipub-actionsociale"},"geometry":{"type":"Point","coordinates":[-1.59240279160081,47.2209495745629]}},{"type":"Feature","properties":{"title":"Restaurant du Coeur Moutonnerie","Catégorie":"Insertion","Type":"Restauration","Statut (privé/public)":null,"Commune":"NANTES","Site Internet":"www.terra.fr/restos","Code postal":44000,"Téléphone":"02 40 37 07 93","Adresse":"7B Rue des Stocks","icon":"equipub-actionsociale"},"geometry":{"type":"Point","coordinates":[-1.53208703984382,47.2213771919046]}},{"type":"Feature","properties":{"title":"La Maison Départementale des Personnes Handicapées","Catégorie":"Handicap","Type":"Accueil","Statut (privé/public)":null,"Commune":"ORVAULT","Site Internet":"www.loire-atlantique.fr","Code postal":44700,"Téléphone":"02 28 09 40 50","Adresse":"300 Route de Vannes","icon":"equipub-actionsociale"},"geometry":{"type":"Point","coordinates":[-1.61950101375305,47.2515235060315]}},{"type":"Feature","properties":{"title":"Point Accueil Services Bottière","Catégorie":"Insertion","Type":"Accueil insertion","Statut (privé/public)":null,"Commune":"NANTES","Site Internet":null,"Code postal":44300,"Téléphone":"02 40 41 67 62","Adresse":"69 Rue de la Bottière","icon":"equipub-actionsociale"},"geometry":{"type":"Point","coordinates":[-1.51906707801112,47.2398455607965]}},{"type":"Feature","properties":{"title":"Point Accueil Services Bellevue","Catégorie":"Insertion","Type":"Accueil insertion","Statut (privé/public)":null,"Commune":"NANTES","Site Internet":null,"Code postal":44100,"Téléphone":"02 40 46 45 54","Adresse":"9 Rue du Gers","icon":"equipub-actionsociale"},"geometry":{"type":"Point","coordinates":[-1.60524836348333,47.2051670959999]}},{"type":"Feature","properties":{"title":"Point Accueil Services Malakoff","Catégorie":"Insertion","Type":"Accueil insertion","Statut (privé/public)":null,"Commune":"NANTES","Site Internet":null,"Code postal":44000,"Téléphone":"02 51 82 48 87","Adresse":"10B Rue d'Angleterre","icon":"equipub-actionsociale"},"geometry":{"type":"Point","coordinates":[-1.52729244251515,47.2149840243616]}},{"type":"Feature","properties":{"title":"Point Accueil Services Nantes Nord","Catégorie":"Insertion","Type":"Accueil insertion","Statut (privé/public)":null,"Commune":"NANTES","Site Internet":null,"Code postal":44300,"Téléphone":"02 40 76 55 72","Adresse":"26 Rue Santos Dumont","icon":"equipub-actionsociale"},"geometry":{"type":"Point","coordinates":[-1.56678934805891,47.2609776960054]}},{"type":"Feature","properties":{"title":"Centre Médico-Social Jamet","Catégorie":"Santé","Type":"Centres Médico Sociaux","Statut (privé/public)":null,"Commune":"NANTES","Site Internet":"www.loire-atlantique.fr","Code postal":44100,"Téléphone":"02 40 43 72 27","Adresse":"14 Rue du Jamet","icon":"equipub-actionsociale"},"geometry":{"type":"Point","coordinates":[-1.60530041688561,47.2063316463051]}},{"type":"Feature","properties":{"title":"Centre Médico-Social Beaulieu","Catégorie":"Santé","Type":"Centres Médico Sociaux","Statut (privé/public)":null,"Commune":"NANTES","Site Internet":"www.loire-atlantique.fr","Code postal":44200,"Téléphone":"02 40 48 00 43","Adresse":"Rue Docteur Zamenhof","icon":"equipub-actionsociale"},"geometry":{"type":"Point","coordinates":[-1.53398558591631,47.2040074249209]}},{"type":"Feature","properties":{"title":"Centre Médico-Social Bellevue","Catégorie":"Santé","Type":"Centres Médico Sociaux","Statut (privé/public)":null,"Commune":"NANTES","Site Internet":"www.loire-atlantique.fr","Code postal":44100,"Téléphone":"02 51 80 44 70","Adresse":"15D Boulevard Jean Moulin","icon":"equipub-actionsociale"},"geometry":{"type":"Point","coordinates":[-1.60452757797706,47.2031592034915]}},{"type":"Feature","properties":{"title":"Centre Médico-Social la Bottière","Catégorie":"Santé","Type":"Centres Médico Sociaux","Statut (privé/public)":null,"Commune":"NANTES","Site Internet":"www.loire-atlantique.fr","Code postal":44300,"Téléphone":"02 40 50 71 01","Adresse":"69 Rue de la Bottière","icon":"equipub-actionsociale"},"geometry":{"type":"Point","coordinates":[-1.51922851935438,47.2398414238598]}},{"type":"Feature","properties":{"title":"Centre Médico-Social Bourderies","Catégorie":"Santé","Type":"Centres Médico Sociaux","Statut (privé/public)":null,"Commune":"NANTES","Site Internet":"www.loire-atlantique.fr","Code postal":44100,"Téléphone":"02 40 58 28 27","Adresse":"14 Rue de Saint Brévin","icon":"equipub-actionsociale"},"geometry":{"type":"Point","coordinates":[-1.59627040922112,47.2077941412378]}},{"type":"Feature","properties":{"title":"Centre Médico-Social Breil Malville","Catégorie":"Santé","Type":"Centres Médico Sociaux","Statut (privé/public)":null,"Commune":"NANTES","Site Internet":"www.loire-atlantique.fr","Code postal":44100,"Téléphone":"02 51 83 70 80","Adresse":"5 Rue Jules Noël","icon":"equipub-actionsociale"},"geometry":{"type":"Point","coordinates":[-1.58613461846472,47.2285990946024]}},{"type":"Feature","properties":{"title":"Centre Médico-Social Chaptal","Catégorie":"Santé","Type":"Centres Médico Sociaux","Statut (privé/public)":null,"Commune":"NANTES","Site Internet":"www.loire-atlantique.fr","Code postal":44100,"Téléphone":"02 40 73 62 02","Adresse":"9 Rue Chaptal","icon":"equipub-actionsociale"},"geometry":{"type":"Point","coordinates":[-1.57405236804053,47.2097227853708]}},{"type":"Feature","properties":{"title":"Centre Médico-Social Talensac","Catégorie":"Santé","Type":"Centres Médico Sociaux","Statut (privé/public)":null,"Commune":"NANTES","Site Internet":"www.loire-atlantique.fr","Code postal":44000,"Téléphone":"02 51 72 17 46","Adresse":"7 Rue Basse Porte","icon":"equipub-actionsociale"},"geometry":{"type":"Point","coordinates":[-1.55800690818259,47.2208438054512]}},{"type":"Feature","properties":{"title":"Centre Médico-Social Georges Bertin","Catégorie":"Santé","Type":"Centres Médico Sociaux","Statut (privé/public)":null,"Commune":"NANTES","Site Internet":"www.loire-atlantique.fr","Code postal":44100,"Téléphone":"02 40 73 53 73","Adresse":"127 Boulevard Saint Aignan","icon":"equipub-actionsociale"},"geometry":{"type":"Point","coordinates":[-1.58060661655106,47.2042795872577]}},{"type":"Feature","properties":{"title":"Centre Médico-Social Beaujoire","Catégorie":"Santé","Type":"Centres Médico Sociaux","Statut (privé/public)":null,"Commune":"NANTES","Site Internet":"www.loire-atlantique.fr","Code postal":44300,"Téléphone":"02 40 49 26 84","Adresse":"40 Boulevard de la Beaujoire","icon":"equipub-actionsociale"},"geometry":{"type":"Point","coordinates":[-1.52029946893149,47.2590089935343]}},{"type":"Feature","properties":{"title":"Centre Médico-Social Hauts Pavés","Catégorie":"Santé","Type":"Centres Médico Sociaux","Statut (privé/public)":null,"Commune":"NANTES","Site Internet":"www.loire-atlantique.fr","Code postal":44000,"Téléphone":"02 40 48 15 62","Adresse":"2 Square des Lavandières","icon":"equipub-actionsociale"},"geometry":{"type":"Point","coordinates":[-1.56489629719261,47.2240324581932]}},{"type":"Feature","properties":{"title":"Centre Médico-Social Malakoff","Catégorie":"Santé","Type":"Centres Médico Sociaux","Statut (privé/public)":null,"Commune":"NANTES","Site Internet":"www.loire-atlantique.fr","Code postal":44000,"Téléphone":"02 40 47 99 26","Adresse":"2 Rue du Luxembourg","icon":"equipub-actionsociale"},"geometry":{"type":"Point","coordinates":[-1.53262668247023,47.2141675977359]}},{"type":"Feature","properties":{"title":"Centre Médico-Social Michelet","Catégorie":"Santé","Type":"Centres Médico Sociaux","Statut (privé/public)":null,"Commune":"NANTES","Site Internet":"www.loire-atlantique.fr","Code postal":44000,"Téléphone":"02 40 48 92 80","Adresse":"95 Boulevard Eugène Orieux","icon":"equipub-actionsociale"},"geometry":{"type":"Point","coordinates":[-1.55542657563533,47.2330866907615]}},{"type":"Feature","properties":{"title":"Centre Médico-Social Dalby Millet","Catégorie":"Santé","Type":"Centres Médico Sociaux","Statut (privé/public)":null,"Commune":"NANTES","Site Internet":"www.loire-atlantique.fr","Code postal":44000,"Téléphone":"02 40 74 93 85","Adresse":"4 Avenue Millet","icon":"equipub-actionsociale"},"geometry":{"type":"Point","coordinates":[-1.52974150511117,47.2207059860071]}},{"type":"Feature","properties":{"title":"Centre Médico-Social Perray","Catégorie":"Santé","Type":"Centres Médico Sociaux","Statut (privé/public)":null,"Commune":"NANTES","Site Internet":"www.loire-atlantique.fr","Code postal":44300,"Téléphone":"02 40 93 06 24","Adresse":"83 Rue du Perray","icon":"equipub-actionsociale"},"geometry":{"type":"Point","coordinates":[-1.51223595999284,47.2469884148565]}},{"type":"Feature","properties":{"title":"Centre Médico-Social la Pilotière","Catégorie":"Santé","Type":"Centres Médico Sociaux","Statut (privé/public)":null,"Commune":"NANTES","Site Internet":"www.loire-atlantique.fr","Code postal":44300,"Téléphone":"02 28 23 66 70","Adresse":"31 Rue des Platanes","icon":"equipub-actionsociale"},"geometry":{"type":"Point","coordinates":[-1.5243219508451,47.2452524741819]}},{"type":"Feature","properties":{"title":"Centre Médico-Social Port Boyer","Catégorie":"Santé","Type":"Centres Médico Sociaux","Statut (privé/public)":null,"Commune":"NANTES","Site Internet":"www.loire-atlantique.fr","Code postal":44300,"Téléphone":"02 40 49 33 88","Adresse":"77B Rue du Port Boyer","icon":"equipub-actionsociale"},"geometry":{"type":"Point","coordinates":[-1.54091348904238,47.2413295979514]}},{"type":"Feature","properties":{"title":"Centre Médico-Social Saint Donatien","Catégorie":"Santé","Type":"Centres Médico Sociaux","Statut (privé/public)":null,"Commune":"NANTES","Site Internet":"www.loire-atlantique.fr","Code postal":44000,"Téléphone":"02 40 74 53 11","Adresse":"8 Rue Saint Charles","icon":"equipub-actionsociale"},"geometry":{"type":"Point","coordinates":[-1.54295068518901,47.2247894411982]}},{"type":"Feature","properties":{"title":"Centre Médico-Social Santos Dumont","Catégorie":"Santé","Type":"Centres Médico Sociaux","Statut (privé/public)":null,"Commune":"NANTES","Site Internet":"www.loire-atlantique.fr","Code postal":44300,"Téléphone":"02 40 76 91 87","Adresse":"7 Rue Santos Dumont","icon":"equipub-actionsociale"},"geometry":{"type":"Point","coordinates":[-1.56704543361844,47.2597300614407]}},{"type":"Feature","properties":{"title":"Centre Médico-Social Vieux Doulon","Catégorie":"Santé","Type":"Centres Médico Sociaux","Statut (privé/public)":null,"Commune":"NANTES","Site Internet":"www.loire-atlantique.fr","Code postal":44300,"Téléphone":"02 40 68 95 54","Adresse":"38 Boulevard Auguste Péneau","icon":"equipub-actionsociale"},"geometry":{"type":"Point","coordinates":[-1.50732604362709,47.2319436049709]}},{"type":"Feature","properties":{"title":"Clinique Brétéché","Catégorie":"Santé","Type":"Hôpital-Clinique","Statut (privé/public)":null,"Commune":"NANTES","Site Internet":null,"Code postal":44000,"Téléphone":"02 51 86 86 86","Adresse":"3 Rue de la Béraudière","icon":"equipub-actionsociale"},"geometry":{"type":"Point","coordinates":[-1.54642394331525,47.2260668437623]}},{"type":"Feature","properties":{"title":"Clinique Psychiatrique du Parc","Catégorie":"Santé","Type":"Hôpital-Clinique","Statut (privé/public)":null,"Commune":"NANTES","Site Internet":null,"Code postal":44000,"Téléphone":"02 51 86 07 00","Adresse":"125 Rue Paul Bellamy","icon":"equipub-actionsociale"},"geometry":{"type":"Point","coordinates":[-1.56163207118038,47.2276364468142]}},{"type":"Feature","properties":{"title":"Clinique Jeanne d'Arc","Catégorie":"Santé","Type":"Hôpital-Clinique","Statut (privé/public)":null,"Commune":"NANTES","Site Internet":null,"Code postal":44100,"Téléphone":"02 51 84 88 00","Adresse":"21 Rue des Martyrs","icon":"equipub-actionsociale"},"geometry":{"type":"Point","coordinates":[-1.57723143341346,47.2175720551846]}},{"type":"Feature","properties":{"title":"Clinique Saint Augustin","Catégorie":"Santé","Type":"Hôpital-Clinique","Statut (privé/public)":null,"Commune":"NANTES","Site Internet":"www.cliniquesaintaugustin.fr","Code postal":44000,"Téléphone":"02 40 12 30 00","Adresse":"78 Rue Paul Bellamy","icon":"equipub-actionsociale"},"geometry":{"type":"Point","coordinates":[-1.55918092038746,47.2254895728042]}},{"type":"Feature","properties":{"title":"Clinique Saint Henri Médecine Polyvalente","Catégorie":"Santé","Type":"Hôpital-Clinique","Statut (privé/public)":null,"Commune":"NANTES","Site Internet":"www.ncn.fr","Code postal":44100,"Téléphone":"02 28 20 40 00","Adresse":"1 Place Beaumanoir","icon":"equipub-actionsociale"},"geometry":{"type":"Point","coordinates":[-1.57195267493427,47.212600294842]}},{"type":"Feature","properties":{"title":"Clinique Sourdille","Catégorie":"Santé","Type":"Hôpital-Clinique","Statut (privé/public)":null,"Commune":"NANTES","Site Internet":null,"Code postal":44000,"Téléphone":"02 51 83 32 00","Adresse":"3 Place Anatole France","icon":"equipub-actionsociale"},"geometry":{"type":"Point","coordinates":[-1.57199112124125,47.2242586011105]}},{"type":"Feature","properties":{"title":"CHU Hôpital Urgences","Catégorie":"Santé","Type":"Hôpital-Clinique","Statut (privé/public)":null,"Commune":"NANTES","Site Internet":"www.chu-nantes.fr","Code postal":44000,"Téléphone":"02 40 08 38 95","Adresse":"1 Place Alexis Ricordeau","icon":"equipub-actionsociale"},"geometry":{"type":"Point","coordinates":[-1.55376125408078,47.2099249094964]}},{"type":"Feature","properties":{"title":"Institut Médico-Pédagogique  la Papotière","Catégorie":"Handicap","Type":"Formation","Statut (privé/public)":null,"Commune":"NANTES","Site Internet":null,"Code postal":44300,"Téléphone":"02 40 49 25 38","Adresse":"56 Rue de la Papotière","icon":"equipub-actionsociale"},"geometry":{"type":"Point","coordinates":[-1.49582944033916,47.239973307873]}},{"type":"Feature","properties":{"title":"Centre Nantais Hébergement des Réfugiés","Catégorie":"Insertion","Type":"Hébergement insertion","Statut (privé/public)":null,"Commune":"NANTES","Site Internet":null,"Code postal":44100,"Téléphone":"02 40 69 29 73","Adresse":"2 Rue Arago","icon":"equipub-actionsociale"},"geometry":{"type":"Point","coordinates":[-1.58349899173719,47.2062277167717]}},{"type":"Feature","properties":{"title":"Centre d'Hébergement Réinsertion Sociale CADA SAFRAM","Catégorie":"Insertion","Type":"Hébergement insertion","Statut (privé/public)":null,"Commune":"NANTES","Site Internet":null,"Code postal":44000,"Téléphone":"02 40 40 55 41","Adresse":"8 Rue de la Pelleterie","icon":"equipub-actionsociale"},"geometry":{"type":"Point","coordinates":[-1.56951281574933,47.2249456979649]}},{"type":"Feature","properties":{"title":"Centre d'Hébergement Réinsertion Sociale Olivettes","Catégorie":"Insertion","Type":"Hébergement insertion","Statut (privé/public)":null,"Commune":"NANTES","Site Internet":null,"Code postal":44000,"Téléphone":"02 40 47 14 48","Adresse":"24B Rue des Olivettes","icon":"equipub-actionsociale"},"geometry":{"type":"Point","coordinates":[-1.54934660196638,47.2105430005377]}},{"type":"Feature","properties":{"title":"Centre Médico Sportif Beaulieu","Catégorie":"Santé","Type":"Centres Médico Sociaux","Statut (privé/public)":null,"Commune":"NANTES","Site Internet":"www.loire-atlantique.fr","Code postal":44200,"Téléphone":"02 40 41 57 50","Adresse":"5 Rue André Tardieu","icon":"equipub-actionsociale"},"geometry":{"type":"Point","coordinates":[-1.53734459346585,47.2091554026254]}},{"type":"Feature","properties":{"title":"Restaurant Associatif Santos Dumont","Catégorie":"Insertion","Type":"Restauration","Statut (privé/public)":null,"Commune":"NANTES","Site Internet":null,"Code postal":44200,"Téléphone":"02 40 59 09 53","Adresse":"1 Rue Alexandre Fourny","icon":"equipub-actionsociale"},"geometry":{"type":"Point","coordinates":[-1.54849588275334,47.2039289813941]}},{"type":"Feature","properties":{"title":"Croix Rouge Française Délégation Régionale Nantes","Catégorie":"Insertion","Type":"Accueil insertion","Statut (privé/public)":null,"Commune":"NANTES","Site Internet":"www.croix-rouge.fr","Code postal":44300,"Téléphone":"02 51 89 47 62","Adresse":"51B Rue de la Moisdonnière","icon":"equipub-actionsociale"},"geometry":{"type":"Point","coordinates":[-1.53296968941813,47.2352963696472]}},{"type":"Feature","properties":{"title":"CHU Hôpital Saint Jacques","Catégorie":"Santé","Type":"Hôpital-Clinique","Statut (privé/public)":null,"Commune":"NANTES","Site Internet":"www.chu-nantes.fr","Code postal":44200,"Téléphone":"02 40 84 66 55","Adresse":"85 Rue Saint Jacques","icon":"equipub-actionsociale"},"geometry":{"type":"Point","coordinates":[-1.53845259055707,47.197861958091]}},{"type":"Feature","properties":{"title":"Centre Médico-Social Alcoologie","Catégorie":"Santé","Type":"Centres Médico Sociaux","Statut (privé/public)":null,"Commune":"NANTES","Site Internet":"www.loire-atlantique.fr","Code postal":44100,"Téléphone":"02 40 73 49 25","Adresse":"17 Rue Arsène Leloup","icon":"equipub-actionsociale"},"geometry":{"type":"Point","coordinates":[-1.56971624423739,47.2121078657509]}},{"type":"Feature","properties":{"title":"Foyer Saint Benoît","Catégorie":"Insertion","Type":"Hébergement insertion","Statut (privé/public)":null,"Commune":"NANTES","Site Internet":null,"Code postal":44100,"Téléphone":"02 40 46 52 15","Adresse":"10 Rue de la Tannerie","icon":"equipub-actionsociale"},"geometry":{"type":"Point","coordinates":[-1.58760321712319,47.1992208150819]}},{"type":"Feature","properties":{"title":"CHU Hôpital de Jour Psychiatrie - Ste Anne","Catégorie":"Santé","Type":"Hôpital-Clinique","Statut (privé/public)":null,"Commune":"NANTES","Site Internet":null,"Code postal":44100,"Téléphone":"02 40 73 33 10","Adresse":"81 Rue Joseph Blanchart","icon":"equipub-actionsociale"},"geometry":{"type":"Point","coordinates":[-1.57758218476014,47.2053195242833]}},{"type":"Feature","properties":{"title":"Foyer Saint Martin, Les Eaux Vives","Catégorie":"Insertion","Type":"Hébergement insertion","Statut (privé/public)":null,"Commune":"NANTES","Site Internet":null,"Code postal":44000,"Téléphone":"02 40 89 29 97","Adresse":"10 Quai de Versailles","icon":"equipub-actionsociale"},"geometry":{"type":"Point","coordinates":[-1.55364735944256,47.2217825237386]}},{"type":"Feature","properties":{"title":"Restaurant Brin de Causette","Catégorie":"Insertion","Type":"Restauration","Statut (privé/public)":null,"Commune":"NANTES","Site Internet":null,"Code postal":44000,"Téléphone":"02 40 20 31 79","Adresse":"1 Rue Sarrazin","icon":"equipub-actionsociale"},"geometry":{"type":"Point","coordinates":[-1.55956759850475,47.2200777274075]}},{"type":"Feature","properties":{"title":"Centre Régional de Transfusion Sanguine Nantes","Catégorie":"Santé","Type":"Hôpital-Clinique","Statut (privé/public)":null,"Commune":"NANTES","Site Internet":"www.afs.fr","Code postal":44000,"Téléphone":"02 40 12 33 00","Adresse":"34 Boulevard Jean Monnet","icon":"equipub-actionsociale"},"geometry":{"type":"Point","coordinates":[-1.55150355362678,47.2097523253027]}},{"type":"Feature","properties":{"title":"Economie Sociale et Familiale Chêne des Anglais","Catégorie":"Insertion","Type":"Economie Sociale et Familiale","Statut (privé/public)":null,"Commune":"NANTES","Site Internet":null,"Code postal":44300,"Téléphone":"02 40 59 66 15","Adresse":"7B Rue Jacques Cartier","icon":"equipub-actionsociale"},"geometry":{"type":"Point","coordinates":[-1.57340890840206,47.2593072125453]}},{"type":"Feature","properties":{"title":"Economie Sociale et Familiale Dervallières","Catégorie":"Insertion","Type":"Economie Sociale et Familiale","Statut (privé/public)":null,"Commune":"NANTES","Site Internet":null,"Code postal":44100,"Téléphone":"02 40 58 13 23","Adresse":"4 Place des Dervallières","icon":"equipub-actionsociale"},"geometry":{"type":"Point","coordinates":[-1.59810346904797,47.2232816981491]}},{"type":"Feature","properties":{"title":"Economie Sociale et Familiale Boissière","Catégorie":"Insertion","Type":"Economie Sociale et Familiale","Statut (privé/public)":null,"Commune":"NANTES","Site Internet":null,"Code postal":44300,"Téléphone":"02 40 76 33 31","Adresse":"9B Rue Jean De La Bruyère","icon":"equipub-actionsociale"},"geometry":{"type":"Point","coordinates":[-1.56724598220077,47.2542314893891]}},{"type":"Feature","properties":{"title":"Economie Sociale et Familiale Santos Dumont","Catégorie":"Insertion","Type":"Economie Sociale et Familiale","Statut (privé/public)":null,"Commune":"NANTES","Site Internet":null,"Code postal":44300,"Téléphone":"02 40 94 07 47","Adresse":"7 Rue Santos Dumont","icon":"equipub-actionsociale"},"geometry":{"type":"Point","coordinates":[-1.56713759039081,47.2598796974746]}},{"type":"Feature","properties":{"title":"Economie Sociale et Familiale Bellevue","Catégorie":"Insertion","Type":"Economie Sociale et Familiale","Statut (privé/public)":null,"Commune":"NANTES","Site Internet":null,"Code postal":44100,"Téléphone":"02 40 43 51 11","Adresse":"5 Rue du Gers","icon":"equipub-actionsociale"},"geometry":{"type":"Point","coordinates":[-1.60482719657702,47.2049578546709]}},{"type":"Feature","properties":{"title":"Economie Sociale et Familiale Port Boyer","Catégorie":"Insertion","Type":"Economie Sociale et Familiale","Statut (privé/public)":null,"Commune":"NANTES","Site Internet":null,"Code postal":44300,"Téléphone":"02 40 49 84 69","Adresse":"77B Rue du Port Boyer","icon":"equipub-actionsociale"},"geometry":{"type":"Point","coordinates":[-1.54096054437738,47.2414113274784]}},{"type":"Feature","properties":{"title":"Economie Sociale et Familiale Pilotière","Catégorie":"Insertion","Type":"Economie Sociale et Familiale","Statut (privé/public)":null,"Commune":"NANTES","Site Internet":null,"Code postal":44300,"Téléphone":"02 40 49 93 13","Adresse":"29 Rue des Platanes","icon":"equipub-actionsociale"},"geometry":{"type":"Point","coordinates":[-1.52419763000142,47.2449941845129]}},{"type":"Feature","properties":{"title":"Unité de Recherche CHR (CHU)","Catégorie":"Santé","Type":"Hôpital-Clinique","Statut (privé/public)":null,"Commune":"NANTES","Site Internet":null,"Code postal":44000,"Téléphone":"02 40 41 28 28","Adresse":"1 Rue Gaston Veil","icon":"equipub-actionsociale"},"geometry":{"type":"Point","coordinates":[-1.55412204738858,47.2107206430021]}},{"type":"Feature","properties":{"title":"SONACOTRA Résidence Robert Schuman","Catégorie":"Insertion","Type":"Hébergement insertion","Statut (privé/public)":null,"Commune":"NANTES","Site Internet":"www.sonacotra.fr","Code postal":44300,"Téléphone":"02 40 40 24 08","Adresse":"140 Boulevard Robert Schuman","icon":"equipub-actionsociale"},"geometry":{"type":"Point","coordinates":[-1.57221473951465,47.2406518827321]}},{"type":"Feature","properties":{"title":"Epicerie Communautaire Bellevue 2000","Catégorie":"Insertion","Type":"Restauration","Statut (privé/public)":null,"Commune":"NANTES","Site Internet":null,"Code postal":44100,"Téléphone":"02 40 43 30 16","Adresse":"3 Rue Romain Rolland","icon":"equipub-actionsociale"},"geometry":{"type":"Point","coordinates":[-1.6080206434307,47.2057951488146]}},{"type":"Feature","properties":{"title":"Régie de Quartier Bellevue Association d'Insertion","Catégorie":"Insertion","Type":"Accueil insertion","Statut (privé/public)":null,"Commune":"NANTES","Site Internet":"www.cnei.org","Code postal":44100,"Téléphone":"02 40 43 43 56","Adresse":"14 Rue du Doubs","icon":"equipub-actionsociale"},"geometry":{"type":"Point","coordinates":[-1.6059449771748,47.2046908387802]}},{"type":"Feature","properties":{"title":"Centre Médico-Psycho-Infantile Nantes","Catégorie":"Santé","Type":"Centres Médico Sociaux","Statut (privé/public)":null,"Commune":"NANTES","Site Internet":"www.loire-atlantique.fr","Code postal":44300,"Téléphone":null,"Adresse":"7B Rue Jacques Cartier","icon":"equipub-actionsociale"},"geometry":{"type":"Point","coordinates":[-1.57344885900796,47.2591768811476]}},{"type":"Feature","properties":{"title":"Médecins du Monde (soins) Nantes","Catégorie":"Insertion","Type":"Accueil insertion","Statut (privé/public)":null,"Commune":"NANTES","Site Internet":"www.medecinsdumonde.org","Code postal":44000,"Téléphone":"02 40 47 36 99","Adresse":"33 Rue Fouré","icon":"equipub-actionsociale"},"geometry":{"type":"Point","coordinates":[-1.54681099921785,47.2112221880743]}},{"type":"Feature","properties":{"title":"Centre Médico-Social Office Central d'Hygiène Sociale Nantes","Catégorie":"Santé","Type":"Centres Médico Sociaux","Statut (privé/public)":null,"Commune":"NANTES","Site Internet":"www.loire-atlantique.fr","Code postal":44100,"Téléphone":"02 40 73 12 18","Adresse":"17 Rue Arsène Leloup","icon":"equipub-actionsociale"},"geometry":{"type":"Point","coordinates":[-1.56970635045377,47.21203569549]}},{"type":"Feature","properties":{"title":"Le Triangle Nantes","Catégorie":"Insertion","Type":"Accueil insertion","Statut (privé/public)":null,"Commune":"NANTES","Site Internet":null,"Code postal":44000,"Téléphone":"02 40 48 48 58","Adresse":"Rue Kervégan","icon":"equipub-actionsociale"},"geometry":{"type":"Point","coordinates":[-1.55434897843378,47.2134586219705]}},{"type":"Feature","properties":{"title":"Centre Beau Rivage (Petits Frères des Pauvres)","Catégorie":"Insertion","Type":"Accueil insertion","Statut (privé/public)":null,"Commune":"NANTES","Site Internet":null,"Code postal":44300,"Téléphone":"02 40 50 17 18","Adresse":"8 Chemin des Bateliers","icon":"equipub-actionsociale"},"geometry":{"type":"Point","coordinates":[-1.51307661886731,47.2188040888489]}},{"type":"Feature","properties":{"title":"Foyer de La Fraternité","Catégorie":"Insertion","Type":"Hébergement insertion","Statut (privé/public)":null,"Commune":"NANTES","Site Internet":null,"Code postal":44100,"Téléphone":"02 40 69 37 63","Adresse":"3 Rue Amiral Du Chaffault","icon":"equipub-actionsociale"},"geometry":{"type":"Point","coordinates":[-1.58019776701335,47.2099866108376]}},{"type":"Feature","properties":{"title":"Maison d'Accueil du Gué Robert","Catégorie":"Insertion","Type":"Accueil insertion","Statut (privé/public)":null,"Commune":"NANTES","Site Internet":null,"Code postal":44000,"Téléphone":"02 40 29 01 18","Adresse":"17 Rue du Gué Robert","icon":"equipub-actionsociale"},"geometry":{"type":"Point","coordinates":[-1.53022255397771,47.221301944533]}},{"type":"Feature","properties":{"title":"Foyer Arc en Ciel","Catégorie":"Insertion","Type":"Hébergement insertion","Statut (privé/public)":null,"Commune":"NANTES","Site Internet":null,"Code postal":44100,"Téléphone":"02 40 73 67 15","Adresse":"8 Rue Mellier","icon":"equipub-actionsociale"},"geometry":{"type":"Point","coordinates":[-1.57789639325983,47.2110295312402]}},{"type":"Feature","properties":{"title":"Centre d'Accueil L'Etape","Catégorie":"Insertion","Type":"Accueil insertion","Statut (privé/public)":null,"Commune":"NANTES","Site Internet":null,"Code postal":44300,"Téléphone":"02 40 76 22 52","Adresse":"8 Rue Samuel De Champlain","icon":"equipub-actionsociale"},"geometry":{"type":"Point","coordinates":[-1.57324610417149,47.2610486991209]}},{"type":"Feature","properties":{"title":"Résidence Saint Vincent de Paul Nantes","Catégorie":"Insertion","Type":"Hébergement insertion","Statut (privé/public)":null,"Commune":"NANTES","Site Internet":"perso.wanadoo.fr/uof.stvincent","Code postal":44000,"Téléphone":"02 40 71 74 09","Adresse":"2B Rue Bertrand Geslin","icon":"equipub-actionsociale"},"geometry":{"type":"Point","coordinates":[-1.56651260229996,47.2153066575903]}},{"type":"Feature","properties":{"title":"L'Abri Nantes","Catégorie":"Insertion","Type":"Accueil insertion","Statut (privé/public)":null,"Commune":"NANTES","Site Internet":null,"Code postal":44000,"Téléphone":"02 40 08 06 87","Adresse":"35 Rue Fouré","icon":"equipub-actionsociale"},"geometry":{"type":"Point","coordinates":[-1.54685589852442,47.2110977326727]}},{"type":"Feature","properties":{"title":"Recherche et Rencontres (Espace Ecoute) Nantes","Catégorie":"Insertion","Type":"Accueil insertion","Statut (privé/public)":null,"Commune":"NANTES","Site Internet":null,"Code postal":44000,"Téléphone":"02 40 08 08 10","Adresse":"23 Rue Adolphe Moitié","icon":"equipub-actionsociale"},"geometry":{"type":"Point","coordinates":[-1.55412757670266,47.2232832413768]}},{"type":"Feature","properties":{"title":"Aides Atlantique (SIDA) Nantes","Catégorie":"Insertion","Type":"Accueil insertion","Statut (privé/public)":null,"Commune":"NANTES","Site Internet":null,"Code postal":44000,"Téléphone":"02 40 47 99 56","Adresse":"46 Rue de Strasbourg","icon":"equipub-actionsociale"},"geometry":{"type":"Point","coordinates":[-1.55402847897977,47.2194836467722]}},{"type":"Feature","properties":{"title":"Centre d'Hébergement Réinsertion Sociale Le Relais Saint Benoît","Catégorie":"Insertion","Type":"Hébergement insertion","Statut (privé/public)":null,"Commune":"NANTES","Site Internet":null,"Code postal":44000,"Téléphone":"02 51 82 28 66","Adresse":"14 Rue Fouré","icon":"equipub-actionsociale"},"geometry":{"type":"Point","coordinates":[-1.54682120549837,47.2133613150919]}},{"type":"Feature","properties":{"title":"Centre d'Accueil La Halte Canclaux","Catégorie":"Insertion","Type":"Accueil insertion","Statut (privé/public)":null,"Commune":"NANTES","Site Internet":null,"Code postal":44100,"Téléphone":"02 40 69 22 43","Adresse":"1 Rue Colonel Desgrées du Lou","icon":"equipub-actionsociale"},"geometry":{"type":"Point","coordinates":[-1.57512886775967,47.2149031592386]}},{"type":"Feature","properties":{"title":"SOS Femmes Nantes","Catégorie":"Insertion","Type":"Accueil insertion","Statut (privé/public)":null,"Commune":"NANTES","Site Internet":null,"Code postal":44100,"Téléphone":"02 40 73 57 32","Adresse":"15 Rue Bâtonnier Guinaudeau","icon":"equipub-actionsociale"},"geometry":{"type":"Point","coordinates":[-1.56697827655218,47.2092890580978]}},{"type":"Feature","properties":{"title":"CAP Logement Jeunes Nantes","Catégorie":"Insertion","Type":"Hébergement insertion","Statut (privé/public)":null,"Commune":"NANTES","Site Internet":null,"Code postal":44000,"Téléphone":"02 40 20 09 44","Adresse":"12 Rue Capitaine Corhumel","icon":"equipub-actionsociale"},"geometry":{"type":"Point","coordinates":[-1.56238782554217,47.2192222864159]}},{"type":"Feature","properties":{"title":"Maison d'Accueil Jour Francisco Ferrer","Catégorie":"Insertion","Type":"Accueil insertion","Statut (privé/public)":null,"Commune":"NANTES","Site Internet":null,"Code postal":44000,"Téléphone":"02 40 29 21 00","Adresse":"2 Rue Francisco Ferrer","icon":"equipub-actionsociale"},"geometry":{"type":"Point","coordinates":[-1.53290060089188,47.2201610945661]}},{"type":"Feature","properties":{"title":"Restaurant Claire Fontaine","Catégorie":"Insertion","Type":"Restauration","Statut (privé/public)":null,"Commune":"NANTES","Site Internet":null,"Code postal":44000,"Téléphone":"02 40 89 29 97","Adresse":"10 Quai de Versailles","icon":"equipub-actionsociale"},"geometry":{"type":"Point","coordinates":[-1.55373474250351,47.2218406409442]}},{"type":"Feature","properties":{"title":"Secours Populaire (Colis Alimentaires) Nantes","Catégorie":"Insertion","Type":"Restauration","Statut (privé/public)":null,"Commune":"NANTES","Site Internet":"www.secourspopulaire.asso.fr","Code postal":44000,"Téléphone":"02 40 74 48 41","Adresse":"163 Rue Paul Bellamy","icon":"equipub-actionsociale"},"geometry":{"type":"Point","coordinates":[-1.56327548624493,47.2298101474159]}},{"type":"Feature","properties":{"title":"Secours Catholique (accompagnement dans la durée des personnes en difficulté) Na","Catégorie":"Insertion","Type":"Restauration","Statut (privé/public)":null,"Commune":"NANTES","Site Internet":null,"Code postal":44000,"Téléphone":"02 40 29 04 26","Adresse":"1 Rue Lorette de la Refoulais","icon":"equipub-actionsociale"},"geometry":{"type":"Point","coordinates":[-1.54621545250455,47.2206920634374]}},{"type":"Feature","properties":{"title":"Croix Rouge Française - Délégation Locale Nantes","Catégorie":"Insertion","Type":"Accueil insertion","Statut (privé/public)":null,"Commune":"NANTES","Site Internet":"www.croix-rouge.fr","Code postal":44000,"Téléphone":"02 40 74 66 82","Adresse":"13 Place Sophie Trébuchet","icon":"equipub-actionsociale"},"geometry":{"type":"Point","coordinates":[-1.5453689521758,47.2202090786275]}},{"type":"Feature","properties":{"title":"Restaurant du Coeur Nantes","Catégorie":"Insertion","Type":"Restauration","Statut (privé/public)":null,"Commune":"NANTES","Site Internet":"www.terra.fr/restos","Code postal":44200,"Téléphone":"02 51 82 05 67","Adresse":"Rue des Marchandises","icon":"equipub-actionsociale"},"geometry":{"type":"Point","coordinates":[-1.55385865567089,47.2033218640729]}},{"type":"Feature","properties":{"title":"Saint Vincent de Paul (Habillement)","Catégorie":"Insertion","Type":"Accueil insertion","Statut (privé/public)":null,"Commune":"NANTES","Site Internet":"perso.wanadoo.fr/uof.stvincent","Code postal":44200,"Téléphone":"02 40 20 49 83","Adresse":"41 Rue la Tour d'Auvergne","icon":"equipub-actionsociale"},"geometry":{"type":"Point","coordinates":[-1.55998236277056,47.2058547729319]}},{"type":"Feature","properties":{"title":"Secours Populaire (Habillement) Nantes  Ouest","Catégorie":"Insertion","Type":"Accueil insertion","Statut (privé/public)":null,"Commune":"NANTES","Site Internet":"www.secourspopulaire.asso.fr","Code postal":44100,"Téléphone":"02 40 69 38 22","Adresse":"22 Quai Ernest Renaud","icon":"equipub-actionsociale"},"geometry":{"type":"Point","coordinates":[-1.57524269007164,47.204646877764]}},{"type":"Feature","properties":{"title":"Secours Populaire (Habillement) - Nantes Est","Catégorie":"Insertion","Type":"Accueil insertion","Statut (privé/public)":null,"Commune":"NANTES","Site Internet":"www.secourspopulaire.asso.fr","Code postal":44000,"Téléphone":"02 40 29 45 26","Adresse":"124 Boulevard Ernest Dalby","icon":"equipub-actionsociale"},"geometry":{"type":"Point","coordinates":[-1.53172419775429,47.2207872714305]}},{"type":"Feature","properties":{"title":"La Fraternité (Habillement)","Catégorie":"Insertion","Type":"Accueil insertion","Statut (privé/public)":null,"Commune":"NANTES","Site Internet":null,"Code postal":44100,"Téléphone":"02 40 69 37 63","Adresse":"3 Rue Amiral Du Chaffault","icon":"equipub-actionsociale"},"geometry":{"type":"Point","coordinates":[-1.5801586261226,47.2099249822944]}},{"type":"Feature","properties":{"title":"CHR Psychiatrie Infantile Nantes","Catégorie":"Santé","Type":"Hôpital-Clinique","Statut (privé/public)":null,"Commune":"NANTES","Site Internet":null,"Code postal":44000,"Téléphone":null,"Adresse":"7 Rue Haute Roche","icon":"equipub-actionsociale"},"geometry":{"type":"Point","coordinates":[-1.56225973475533,47.2258056617464]}},{"type":"Feature","properties":{"title":"l'Escale","Catégorie":"Insertion","Type":"Accueil insertion","Statut (privé/public)":null,"Commune":"NANTES","Site Internet":null,"Code postal":44300,"Téléphone":"02 40 76 08 85","Adresse":"12 Rue Paul Claudel","icon":"equipub-actionsociale"},"geometry":{"type":"Point","coordinates":[-1.56764676020397,47.2520707985583]}},{"type":"Feature","properties":{"title":"Centre Médico-Psychologique Malakoff","Catégorie":"Santé","Type":"Centres Médico Sociaux","Statut (privé/public)":null,"Commune":"NANTES","Site Internet":"www.loire-atlantique.fr","Code postal":44000,"Téléphone":"02 40 89 56 45","Adresse":"17 Rue d'Angleterre","icon":"equipub-actionsociale"},"geometry":{"type":"Point","coordinates":[-1.52827370735814,47.2142614860022]}},{"type":"Feature","properties":{"title":"Clinique de Médecine Esthétique et Laser Nantes","Catégorie":"Santé","Type":"Hôpital-Clinique","Statut (privé/public)":null,"Commune":"NANTES","Site Internet":null,"Code postal":44000,"Téléphone":"02 40 08 08 06","Adresse":"46 Quai Magellan","icon":"equipub-actionsociale"},"geometry":{"type":"Point","coordinates":[-1.54679468609473,47.2097621972387]}},{"type":"Feature","properties":{"title":"Clinique de Médecine Esthétique Capillaire","Catégorie":"Santé","Type":"Hôpital-Clinique","Statut (privé/public)":null,"Commune":"NANTES","Site Internet":null,"Code postal":44000,"Téléphone":"02 40 35 48 48","Adresse":"18 Boulevard Gabriel Guist'Hau","icon":"equipub-actionsociale"},"geometry":{"type":"Point","coordinates":[-1.56576148734713,47.2163889553744]}},{"type":"Feature","properties":{"title":"CHU Hôpital Mère et Enfant","Catégorie":"Santé","Type":"Hôpital-Clinique","Statut (privé/public)":null,"Commune":"NANTES","Site Internet":null,"Code postal":44000,"Téléphone":"02 40 08 49 69","Adresse":"38 Boulevard Jean Monnet","icon":"equipub-actionsociale"},"geometry":{"type":"Point","coordinates":[-1.55102116927409,47.2091872075487]}},{"type":"Feature","properties":{"title":"CHU Direction Générale Nantes","Catégorie":"Santé","Type":"Hôpital-Clinique","Statut (privé/public)":null,"Commune":"NANTES","Site Internet":"www.chu-nantes.fr","Code postal":44000,"Téléphone":"02 40 08 72 42","Adresse":"5 Allée de l'Ile Gloriette","icon":"equipub-actionsociale"},"geometry":{"type":"Point","coordinates":[-1.55713354604595,47.2106141720741]}},{"type":"Feature","properties":{"title":"CHU Hôpital de Jour Psychiatrie - Gaudinière","Catégorie":"Santé","Type":"Hôpital-Clinique","Statut (privé/public)":null,"Commune":"NANTES","Site Internet":null,"Code postal":44300,"Téléphone":"02 40 59 60 60","Adresse":"1 Avenue de Samothrace","icon":"equipub-actionsociale"},"geometry":{"type":"Point","coordinates":[-1.58078989298256,47.2409788634507]}},{"type":"Feature","properties":{"title":"CHU Hôpital de Jour Psychiatrie - Pt du Cens","Catégorie":"Santé","Type":"Hôpital-Clinique","Statut (privé/public)":null,"Commune":"NANTES","Site Internet":null,"Code postal":44300,"Téléphone":"02 40 76 46 28","Adresse":"240 Boulevard Robert Schuman","icon":"equipub-actionsociale"},"geometry":{"type":"Point","coordinates":[-1.57619667044743,47.2456820928712]}},{"type":"Feature","properties":{"title":"CHU Hôpital de Jour Psychiatrie - Mellinet","Catégorie":"Santé","Type":"Hôpital-Clinique","Statut (privé/public)":null,"Commune":"NANTES","Site Internet":null,"Code postal":44100,"Téléphone":"02 40 73 33 60","Adresse":"33 Boulevard Saint Aignan","icon":"equipub-actionsociale"},"geometry":{"type":"Point","coordinates":[-1.57769507124476,47.2088532635907]}},{"type":"Feature","properties":{"title":"CHU - Hôpital de Jour Marguerite (Psychiatrie)","Catégorie":"Santé","Type":"Hôpital-Clinique","Statut (privé/public)":null,"Commune":"NANTES","Site Internet":null,"Code postal":44000,"Téléphone":"02 40 37 56 55","Adresse":"19 Rue Général Margueritte","icon":"equipub-actionsociale"},"geometry":{"type":"Point","coordinates":[-1.54880677850476,47.2265515576346]}},{"type":"Feature","properties":{"title":"Economie Sociale et Familiale Malakoff","Catégorie":"Insertion","Type":"Economie Sociale et Familiale","Statut (privé/public)":null,"Commune":"NANTES","Site Internet":null,"Code postal":44000,"Téléphone":"02 40 35 50 77","Adresse":"13 Rue d'Angleterre","icon":"equipub-actionsociale"},"geometry":{"type":"Point","coordinates":[-1.52785385634862,47.2144166973857]}},{"type":"Feature","properties":{"title":"Economie Sociale et Familiale Clos Toreau","Catégorie":"Insertion","Type":"Economie Sociale et Familiale","Statut (privé/public)":null,"Commune":"NANTES","Site Internet":null,"Code postal":44200,"Téléphone":"02 40 33 10 77","Adresse":"10 Rue d'Hendaye","icon":"equipub-actionsociale"},"geometry":{"type":"Point","coordinates":[-1.52831282065694,47.1950883285473]}},{"type":"Feature","properties":{"title":"Economie Sociale et Familiale Bottière","Catégorie":"Insertion","Type":"Economie Sociale et Familiale","Statut (privé/public)":null,"Commune":"NANTES","Site Internet":null,"Code postal":44300,"Téléphone":"02 40 50 13 21","Adresse":"54 Rue de la Bottière","icon":"equipub-actionsociale"},"geometry":{"type":"Point","coordinates":[-1.52040896238267,47.2386216375776]}},{"type":"Feature","properties":{"title":"Economie Sociale et Familiale Breil Malville","Catégorie":"Insertion","Type":"Economie Sociale et Familiale","Statut (privé/public)":null,"Commune":"NANTES","Site Internet":null,"Code postal":44100,"Téléphone":"02 40 76 33 29","Adresse":"Rue Marie-Thérèse Eyquem","icon":"equipub-actionsociale"},"geometry":{"type":"Point","coordinates":[-1.58169401881195,47.2339518588234]}},{"type":"Feature","properties":{"title":"Economie Sociale et Familiale Bourderies","Catégorie":"Insertion","Type":"Economie Sociale et Familiale","Statut (privé/public)":null,"Commune":"NANTES","Site Internet":null,"Code postal":44100,"Téléphone":"02 40 58 13 21","Adresse":"Rue de Saint Brévin","icon":"equipub-actionsociale"},"geometry":{"type":"Point","coordinates":[-1.5962832764918,47.206679438957]}},{"type":"Feature","properties":{"title":"SONACOTRA Résidence Julienne David","Catégorie":"Insertion","Type":"Hébergement insertion","Statut (privé/public)":null,"Commune":"NANTES","Site Internet":"www.sonacotra.fr","Code postal":44300,"Téléphone":"02 40 93 28 30","Adresse":"85 Rue Félix Ménétrier","icon":"equipub-actionsociale"},"geometry":{"type":"Point","coordinates":[-1.51984618865998,47.2411686918212]}},{"type":"Feature","properties":{"title":"ADOMA Résidence Pont du Cens","Catégorie":"Insertion","Type":"Hébergement insertion","Statut (privé/public)":null,"Commune":"NANTES","Site Internet":"www.sonacotra.fr","Code postal":44300,"Téléphone":"02 40 76 22 51","Adresse":"Avenue José Maria de Hérédia","icon":"equipub-actionsociale"},"geometry":{"type":"Point","coordinates":[-1.57426427357367,47.2474462362332]}},{"type":"Feature","properties":{"title":"SONACOTRA Ile Beaulieu","Catégorie":"Insertion","Type":"Hébergement insertion","Statut (privé/public)":null,"Commune":"NANTES","Site Internet":"www.sonacotra.fr","Code postal":44200,"Téléphone":"02 40 47 84 12","Adresse":"9 Boulevard des Martyrs Nantais de la Résistance","icon":"equipub-actionsociale"},"geometry":{"type":"Point","coordinates":[-1.54655407209451,47.205172156038]}},{"type":"Feature","properties":{"title":"Coordination Accueil Orientation Nantes","Catégorie":"Insertion","Type":"Accueil insertion","Statut (privé/public)":null,"Commune":"NANTES","Site Internet":null,"Code postal":44000,"Téléphone":"02 51 72 99 60","Adresse":"4 Place Dumoustier","icon":"equipub-actionsociale"},"geometry":{"type":"Point","coordinates":[-1.55239561657516,47.2186934576076]}},{"type":"Feature","properties":{"title":"Centre d'Accueil Tréméac","Catégorie":"Insertion","Type":"Accueil insertion","Statut (privé/public)":null,"Commune":"NANTES","Site Internet":null,"Code postal":44100,"Téléphone":"02 40 69 83 71","Adresse":"10 Rue Evariste Luminais","icon":"equipub-actionsociale"},"geometry":{"type":"Point","coordinates":[-1.57057936375136,47.2127663777583]}},{"type":"Feature","properties":{"title":"Foyer La Source","Catégorie":"Insertion","Type":"Hébergement insertion","Statut (privé/public)":null,"Commune":"NANTES","Site Internet":null,"Code postal":44100,"Téléphone":"02 40 69 85 56","Adresse":"17 Rue Capitaine André David","icon":"equipub-actionsociale"},"geometry":{"type":"Point","coordinates":[-1.58225168000961,47.2052164993423]}},{"type":"Feature","properties":{"title":"Foyer Beaumanoir","Catégorie":"Insertion","Type":"Accueil insertion","Statut (privé/public)":null,"Commune":"NANTES","Site Internet":null,"Code postal":44100,"Téléphone":"02 40 73 79 94","Adresse":"8 Rue Evariste Luminais","icon":"equipub-actionsociale"},"geometry":{"type":"Point","coordinates":[-1.5703959499341,47.2127653895099]}},{"type":"Feature","properties":{"title":"Foyer Ty Ar Vugale","Catégorie":"Insertion","Type":"Hébergement insertion","Statut (privé/public)":null,"Commune":"NANTES","Site Internet":null,"Code postal":44300,"Téléphone":"02 40 49 78 42","Adresse":"Rue du Port Boyer","icon":"equipub-actionsociale"},"geometry":{"type":"Point","coordinates":[-1.53221620395453,47.2408700092928]}},{"type":"Feature","properties":{"title":"Centre Médico-Social Saint-Herblain Bourg","Catégorie":"Santé","Type":"Centres Médico Sociaux","Statut (privé/public)":"Public","Commune":"ST-HERBLAIN","Site Internet":"www.loire-atlantique.fr","Code postal":44800,"Téléphone":"02 40 86 00 80","Adresse":"128 Boulevard François Mitterrand","icon":"equipub-actionsociale"},"geometry":{"type":"Point","coordinates":[-1.64870512694279,47.2129166666754]}},{"type":"Feature","properties":{"title":"Polyclinique de l'Atlantique","Catégorie":"Santé","Type":"Hôpital-Clinique","Statut (privé/public)":"Privé","Commune":"ST-HERBLAIN","Site Internet":null,"Code postal":44800,"Téléphone":"02 40 95 93 93","Adresse":"Avenue Claude Bernard","icon":"equipub-actionsociale"},"geometry":{"type":"Point","coordinates":[-1.6105481956649,47.2268963032112]}},{"type":"Feature","properties":{"title":"Hôpital Nord Laënnec","Catégorie":"Santé","Type":"Hôpital-Clinique","Statut (privé/public)":"Public","Commune":"ST-HERBLAIN","Site Internet":"www.chu-nantes.fr","Code postal":44800,"Téléphone":"02 40 08 33 33","Adresse":"Boulevard Professeur Jacques Monod","icon":"equipub-actionsociale"},"geometry":{"type":"Point","coordinates":[-1.63927065364859,47.235599565781]}},{"type":"Feature","properties":{"title":"Foyer Thérapeutique de la Chicotière","Catégorie":"Santé","Type":"Hôpital-Clinique","Statut (privé/public)":null,"Commune":"ST-HERBLAIN","Site Internet":null,"Code postal":44800,"Téléphone":"02 40 46 48 10","Adresse":"Allée Georges Danton","icon":"equipub-actionsociale"},"geometry":{"type":"Point","coordinates":[-1.60532794255062,47.2294545765428]}},{"type":"Feature","properties":{"title":"Centre Régional de Lutte Contre le Cancer René Gauducheau Hôpital Nord","Catégorie":"Santé","Type":"Hôpital-Clinique","Statut (privé/public)":"Public","Commune":"ST-HERBLAIN","Site Internet":null,"Code postal":44800,"Téléphone":"02 40 67 99 00","Adresse":"Boulevard Professeur Jacques Monod","icon":"equipub-actionsociale"},"geometry":{"type":"Point","coordinates":[-1.63894767376392,47.2353748934434]}},{"type":"Feature","properties":{"title":"Soins Infirmiers à Domicile des Personnes Agées Orvault","Catégorie":"Santé","Type":"Autre","Statut (privé/public)":"Public","Commune":"ORVAULT","Site Internet":null,"Code postal":44700,"Téléphone":"02 40 94 93 21","Adresse":"5 Rue Robert Le Ricolais","icon":"equipub-actionsociale"},"geometry":{"type":"Point","coordinates":[-1.62370989152365,47.2714012998316]}},{"type":"Feature","properties":{"title":"Centre Médico-Social La Bugallière","Catégorie":"Santé","Type":"Centres Médico Sociaux","Statut (privé/public)":"Public","Commune":"ORVAULT","Site Internet":"www.loire-atlantique.fr","Code postal":44700,"Téléphone":"02 40 63 09 41","Adresse":"9 Rue du Pont Marchand","icon":"equipub-actionsociale"},"geometry":{"type":"Point","coordinates":[-1.63248791621334,47.2614031683143]}},{"type":"Feature","properties":{"title":"Centre Médico-Social Plaisance","Catégorie":"Santé","Type":"Centres Médico Sociaux","Statut (privé/public)":"Public","Commune":"ORVAULT","Site Internet":"www.loire-atlantique.fr","Code postal":44700,"Téléphone":"02 40 76 41 45","Adresse":"4 Avenue de l'Ille","icon":"equipub-actionsociale"},"geometry":{"type":"Point","coordinates":[-1.59007788475443,47.2403646646931]}},{"type":"Feature","properties":{"title":"Foyer Educatif de la Jaunaie (Association Action Educative de Loire-Atlantique)","Catégorie":"Insertion","Type":"Hébergement insertion","Statut (privé/public)":"Privé","Commune":"ST-SEBASTIEN","Site Internet":null,"Code postal":44230,"Téléphone":"02 51 79 16 16","Adresse":"113 Rue de la Jaunaie","icon":"equipub-actionsociale"},"geometry":{"type":"Point","coordinates":[-1.49733148133061,47.1940401831808]}},{"type":"Feature","properties":{"title":"Centre Médico-Social Saint Sébastien-sur-Loire","Catégorie":"Santé","Type":"Centres Médico Sociaux","Statut (privé/public)":"Public","Commune":"ST-SEBASTIEN","Site Internet":"www.loire-atlantique.fr","Code postal":44230,"Téléphone":"02 40 80 57 08","Adresse":"7 Rue Jean Macé","icon":"equipub-actionsociale"},"geometry":{"type":"Point","coordinates":[-1.50643544945175,47.2058567245991]}},{"type":"Feature","properties":{"title":"Restaurant du Coeur - Sud","Catégorie":"Insertion","Type":"Restauration","Statut (privé/public)":"Privé","Commune":"ST-SEBASTIEN","Site Internet":"www.terra.fr/restos","Code postal":44230,"Téléphone":"02 40 34 71 51","Adresse":"241 Route de Clisson","icon":"equipub-actionsociale"},"geometry":{"type":"Point","coordinates":[-1.50275677508274,47.1888325095434]}},{"type":"Feature","properties":{"title":"Jardins du Coeur","Catégorie":"Insertion","Type":"Restauration","Statut (privé/public)":"Privé","Commune":"ST-SEBASTIEN","Site Internet":"www.terra.fr/restos","Code postal":44230,"Téléphone":"02 40 34 17 71","Adresse":"39 Rue du Lieutenant Marty","icon":"equipub-actionsociale"},"geometry":{"type":"Point","coordinates":[-1.5207672933156,47.1956472162682]}},{"type":"Feature","properties":{"title":"Centre de Convalescence","Catégorie":"Santé","Type":"Autre","Statut (privé/public)":"Privé","Commune":"ST-SEBASTIEN","Site Internet":null,"Code postal":44230,"Téléphone":"02 51 79 55 55","Adresse":"Place des Lucines","icon":"equipub-actionsociale"},"geometry":{"type":"Point","coordinates":[-1.50191069245435,47.1916078915536]}},{"type":"Feature","properties":{"title":"Adapei - Foyer dAccueil médicalisé Les Lucines","Catégorie":"Handicap","Type":"Hébergement","Statut (privé/public)":"Privé","Commune":"ST-SEBASTIEN","Site Internet":"www.adapei44a.fr","Code postal":44230,"Téléphone":"02 28 00 29 40","Adresse":"50 Rue de l'Ouche Catin","icon":"equipub-actionsociale"},"geometry":{"type":"Point","coordinates":[-1.50132065428351,47.191621422181]}},{"type":"Feature","properties":{"title":"Centre Médico-Social Le Douet","Catégorie":"Santé","Type":"Centres Médico Sociaux","Statut (privé/public)":"Public","Commune":"ST-SEBASTIEN","Site Internet":"www.loire-atlantique.fr","Code postal":44230,"Téléphone":"02 40 33 47 57","Adresse":"Allée du Six Juin 1944","icon":"equipub-actionsociale"},"geometry":{"type":"Point","coordinates":[-1.5205974543261,47.1936405390281]}},{"type":"Feature","properties":{"title":"Foyer Départemental de l'Enfance","Catégorie":"Insertion","Type":"Hébergement insertion","Statut (privé/public)":"Public","Commune":"ST-SEBASTIEN","Site Internet":null,"Code postal":44230,"Téléphone":"02 40 80 26 00","Adresse":"Rue Robert Douineau","icon":"equipub-actionsociale"},"geometry":{"type":"Point","coordinates":[-1.52245526461647,47.1925444546539]}},{"type":"Feature","properties":{"title":"Centre d'Action Médico-Social Précoce Polyvalent Saint Sébastien","Catégorie":"Santé","Type":"Centres Médico Sociaux","Statut (privé/public)":"Public","Commune":"ST-SEBASTIEN","Site Internet":"www.loire-atlantique.fr","Code postal":44230,"Téléphone":"02 51 71 04 04","Adresse":"Rue Robert Douineau","icon":"equipub-actionsociale"},"geometry":{"type":"Point","coordinates":[-1.52179078045622,47.1927205420507]}},{"type":"Feature","properties":{"title":"Centre Médico-Social de Bouguenais","Catégorie":"Santé","Type":"Centres Médico Sociaux","Statut (privé/public)":"Public","Commune":"BOUGUENAIS","Site Internet":"www.loire-atlantique.fr","Code postal":44340,"Téléphone":"02 40 32 03 03","Adresse":"1 Rue Edmond Bertreux","icon":"equipub-actionsociale"},"geometry":{"type":"Point","coordinates":[-1.62277193212197,47.1795166881086]}},{"type":"Feature","properties":{"title":"Centre Thérapeutique en Alcoologie de la Baronnais","Catégorie":"Santé","Type":"Hôpital-Clinique","Statut (privé/public)":"Privé","Commune":"BOUGUENAIS","Site Internet":null,"Code postal":44340,"Téléphone":"02 40 26 94 00","Adresse":"5 Impasse du Petit Rocher","icon":"equipub-actionsociale"},"geometry":{"type":"Point","coordinates":[-1.5927413696234,47.1779530240237]}},{"type":"Feature","properties":{"title":"Adapei - Maison d'Accueil Spécialisée de l'Epeau","Catégorie":"Insertion","Type":"Accueil insertion","Statut (privé/public)":"Public","Commune":"BOUGUENAIS","Site Internet":"www.adapei44a.fr","Code postal":44340,"Téléphone":"02 40 32 03 45","Adresse":"Rue Urbain Le Verrier","icon":"equipub-actionsociale"},"geometry":{"type":"Point","coordinates":[-1.58911513137749,47.177462291516]}},{"type":"Feature","properties":{"title":"Clinique Urologique Nantes Atlantique","Catégorie":"Santé","Type":"Hôpital-Clinique","Statut (privé/public)":"Privé","Commune":"ST-HERBLAIN","Site Internet":null,"Code postal":44800,"Téléphone":"02 28 03 06 09","Adresse":"Rue Jacques Cartier","icon":"equipub-actionsociale"},"geometry":{"type":"Point","coordinates":[-1.6354687638856,47.2223981246018]}},{"type":"Feature","properties":{"title":"Centre de Réadaptation Fonctionnelle et Professionnelle La Tourmaline","Catégorie":"Santé","Type":"Autre","Statut (privé/public)":"Public","Commune":"ST-HERBLAIN","Site Internet":"www.ugecam-brpl.fr","Code postal":44800,"Téléphone":"02 40 38 59 59","Adresse":"31 Boulevard Salvador Allende","icon":"equipub-actionsociale"},"geometry":{"type":"Point","coordinates":[-1.63301859042231,47.2203095323903]}},{"type":"Feature","properties":{"title":"Centre Médico Sportif Saint Herblain","Catégorie":"Santé","Type":"Centres Médico Sociaux","Statut (privé/public)":"Public","Commune":"ST-HERBLAIN","Site Internet":"www.loire-atlantique.fr","Code postal":44800,"Téléphone":null,"Adresse":"128 Boulevard François Mitterrand","icon":"equipub-actionsociale"},"geometry":{"type":"Point","coordinates":[-1.6488497606266,47.2129523785886]}},{"type":"Feature","properties":{"title":"Institut d'Education Motrice  La Grillonnais","Catégorie":"Handicap","Type":"Formation","Statut (privé/public)":"Privé","Commune":"BASSE-GOULAINE","Site Internet":"www.iem-fp-la-grillonnais.com","Code postal":44115,"Téléphone":"02 40 03 56 66","Adresse":"50 Rue Busson Billault","icon":"equipub-actionsociale"},"geometry":{"type":"Point","coordinates":[-1.46674599381544,47.2136996714187]}},{"type":"Feature","properties":{"title":"Nouvelles Cliniques Nantaises","Catégorie":"Santé","Type":"Hôpital-Clinique","Statut (privé/public)":null,"Commune":"NANTES","Site Internet":"www.ncn.fr","Code postal":44200,"Téléphone":null,"Adresse":"4 Rue Eric Tabarly","icon":"equipub-actionsociale"},"geometry":{"type":"Point","coordinates":[-1.5475970874174,47.1956485997618]}},{"type":"Feature","properties":{"title":"Etablissements du CHU - La Seilleraye","Catégorie":"Santé","Type":"Hôpital-Clinique","Statut (privé/public)":null,"Commune":"CARQUEFOU","Site Internet":"www.chu-nantes.fr","Code postal":44470,"Téléphone":"02 40 18 90 02","Adresse":"VC 5","icon":"equipub-actionsociale"},"geometry":{"type":"Point","coordinates":[-1.42228921901466,47.3009718115226]}},{"type":"Feature","properties":{"title":"Clinique Jules Verne","Catégorie":"Santé","Type":"Hôpital-Clinique","Statut (privé/public)":"Privé","Commune":"NANTES","Site Internet":null,"Code postal":44300,"Téléphone":null,"Adresse":"Rue Jules Grandjouan","icon":"equipub-actionsociale"},"geometry":{"type":"Point","coordinates":[-1.52002555056028,47.248605527061]}},{"type":"Feature","properties":{"title":"Hôpital Intercommunal Sèvres et Loire","Catégorie":"Santé","Type":"Hôpital-Clinique","Statut (privé/public)":"Public","Commune":"VERTOU","Site Internet":null,"Code postal":44120,"Téléphone":"02 40 80 80 00","Adresse":"1 Allée Alphonse Fillion","icon":"equipub-actionsociale"},"geometry":{"type":"Point","coordinates":[-1.4941291896002,47.1782836996128]}},{"type":"Feature","properties":{"title":"Centre Médico-Social Bouaye","Catégorie":"Santé","Type":"Centres Médico Sociaux","Statut (privé/public)":null,"Commune":"BOUAYE","Site Internet":"www.loire-atlantique.fr","Code postal":44830,"Téléphone":"02 40 65 49 96","Adresse":"Boulevard du Bois Jacques","icon":"equipub-actionsociale"},"geometry":{"type":"Point","coordinates":[-1.69390995430076,47.143021798262]}},{"type":"Feature","properties":{"title":"Centre Médico-Social Carquefou","Catégorie":"Santé","Type":"Centres Médico Sociaux","Statut (privé/public)":null,"Commune":"CARQUEFOU","Site Internet":"www.loire-atlantique.fr","Code postal":44470,"Téléphone":"02 40 93 73 04","Adresse":"Rue Arthur Ecomard","icon":"equipub-actionsociale"},"geometry":{"type":"Point","coordinates":[-1.4940669935562,47.2961025950111]}},{"type":"Feature","properties":{"title":"Centre médico-social la Chapelle-Sur-Erdre","Catégorie":"Santé","Type":"Centres Médico Sociaux","Statut (privé/public)":null,"Commune":"LA-CHAPELLE-SUR-ERDRE","Site Internet":"www.loire-atlantique.fr","Code postal":44240,"Téléphone":"02 40 29 75 57","Adresse":"2 Rue Martin Luther King","icon":"equipub-actionsociale"},"geometry":{"type":"Point","coordinates":[-1.55067164970774,47.2988271357355]}},{"type":"Feature","properties":{"title":"Centre médico-social Couëron","Catégorie":"Santé","Type":"Centres Médico Sociaux","Statut (privé/public)":null,"Commune":"COUERON","Site Internet":"www.loire-atlantique.fr","Code postal":44220,"Téléphone":"02 40 86 10 77","Adresse":"76 Boulevard de l'Europe","icon":"equipub-actionsociale"},"geometry":{"type":"Point","coordinates":[-1.71389516092216,47.2146656167506]}},{"type":"Feature","properties":{"title":"Régie Associative Quartiers Saint Herblain","Catégorie":"Insertion","Type":"Accueil insertion","Statut (privé/public)":null,"Commune":"ST-HERBLAIN","Site Internet":null,"Code postal":44800,"Téléphone":"02 40 94 81 62","Adresse":"Avenue des Thébaudières","icon":"equipub-actionsociale"},"geometry":{"type":"Point","coordinates":[-1.60812403031295,47.244430063559]}},{"type":"Feature","properties":{"title":"Regie Associative Quartiers Saint Herblain","Catégorie":"Insertion","Type":"Accueil insertion","Statut (privé/public)":null,"Commune":"ST-HERBLAIN","Site Internet":null,"Code postal":44800,"Téléphone":"02 28 03 19 67","Adresse":"12 Impasse du Bourrelier","icon":"equipub-actionsociale"},"geometry":{"type":"Point","coordinates":[-1.643616950195,47.2210229597053]}},{"type":"Feature","properties":{"title":"Croix Rouge Française Délégation Locale Sud Agglomération Bouguenais","Catégorie":"Santé","Type":"Autre","Statut (privé/public)":null,"Commune":"BOUGUENAIS","Site Internet":null,"Code postal":44340,"Téléphone":"02 40 26 94 54","Adresse":"13 Rue Eugène Pottier","icon":"equipub-actionsociale"},"geometry":{"type":"Point","coordinates":[-1.62655793646088,47.1775363892074]}},{"type":"Feature","properties":{"title":"Conseil Départemental de la Croix Rouge Nantes","Catégorie":"Santé","Type":"Autre","Statut (privé/public)":null,"Commune":"NANTES","Site Internet":null,"Code postal":44100,"Téléphone":"02 51 84 60 60","Adresse":"7 Rue Guichen","icon":"equipub-actionsociale"},"geometry":{"type":"Point","coordinates":[-1.57277856068356,47.2127268445023]}},{"type":"Feature","properties":{"title":"Centre Formation Recherche Educative Sociale Saint Herblain","Catégorie":"Insertion","Type":"Restauration","Statut (privé/public)":null,"Commune":"NANTES","Site Internet":"http://www.cefres.fr/","Code postal":44300,"Téléphone":"02 40 37 04 25","Adresse":"6 Rue François Hennebique","icon":"equipub-actionsociale"},"geometry":{"type":"Point","coordinates":[-1.51999026455052,47.2572109132809]}},{"type":"Feature","properties":{"title":"Maison d'Accueil Spécialisée La Sèvre","Catégorie":"Handicap","Type":"Accueil","Statut (privé/public)":null,"Commune":"REZE","Site Internet":"www.apajh44.org","Code postal":44400,"Téléphone":"02 40 13 18 12","Adresse":"5 Boulevard Mendès France","icon":"equipub-actionsociale"},"geometry":{"type":"Point","coordinates":[-1.52837535888324,47.1775421748305]}},{"type":"Feature","properties":{"title":"Centre Médico-Sportif Rezé","Catégorie":"Santé","Type":"Centres Médico Sociaux","Statut (privé/public)":null,"Commune":"REZE","Site Internet":"www.loire-atlantique.fr","Code postal":44400,"Téléphone":null,"Adresse":"12 Rue des Déportés","icon":"equipub-actionsociale"},"geometry":{"type":"Point","coordinates":[-1.54689192432703,47.1785273062926]}},{"type":"Feature","properties":{"title":"Centre Médico-Social André Coutant","Catégorie":"Santé","Type":"Centres Médico Sociaux","Statut (privé/public)":null,"Commune":"REZE","Site Internet":"www.loire-atlantique.fr","Code postal":44400,"Téléphone":null,"Adresse":"12 Rue des Déportés","icon":"equipub-actionsociale"},"geometry":{"type":"Point","coordinates":[-1.54697811858537,47.1786411293385]}},{"type":"Feature","properties":{"title":"Hôpital de Jour Chalonnières","Catégorie":"Santé","Type":"Hôpital-Clinique","Statut (privé/public)":null,"Commune":"REZE","Site Internet":null,"Code postal":44400,"Téléphone":null,"Adresse":"Rue des Chalonnières","icon":"equipub-actionsociale"},"geometry":{"type":"Point","coordinates":[-1.56017884288498,47.1770812560166]}},{"type":"Feature","properties":{"title":"Mission Locale Emploi Jeunes Rezé","Catégorie":"Insertion","Type":"Accueil insertion","Statut (privé/public)":null,"Commune":"REZE","Site Internet":null,"Code postal":44400,"Téléphone":null,"Adresse":"Place Jean Baptiste Daviais","icon":"equipub-actionsociale"},"geometry":{"type":"Point","coordinates":[-1.56934136620933,47.1914140969631]}},{"type":"Feature","properties":{"title":"Point d'Information Jeunesse Rezé Centre","Catégorie":"Insertion","Type":"Accueil insertion","Statut (privé/public)":null,"Commune":"REZE","Site Internet":null,"Code postal":44400,"Téléphone":null,"Adresse":"Place Jean Baptiste Daviais","icon":"equipub-actionsociale"},"geometry":{"type":"Point","coordinates":[-1.56956223924004,47.1914133642721]}},{"type":"Feature","properties":{"title":"Etablissements et Services d'Aide par le Travail","Catégorie":"Insertion","Type":"Accueil insertion","Statut (privé/public)":null,"Commune":"VERTOU","Site Internet":null,"Code postal":44120,"Téléphone":"02 51 71 09 69","Adresse":"Rue du Bois de la Maladrie","icon":"equipub-actionsociale"},"geometry":{"type":"Point","coordinates":[-1.48325005919409,47.1838635184052]}},{"type":"Feature","properties":{"title":"Adapei - Foyer de Vie Beautour","Catégorie":"Handicap","Type":"Hébergement","Statut (privé/public)":null,"Commune":"VERTOU","Site Internet":"www.adapei44a.fr","Code postal":44120,"Téléphone":"02 51 71 23 70","Adresse":"24 Rue du Bois Hardy","icon":"equipub-actionsociale"},"geometry":{"type":"Point","coordinates":[-1.50888331666813,47.1844779307381]}},{"type":"Feature","properties":{"title":"Centre Médico-psychologique pour Adultes \"Noé de l'Epinette\"","Catégorie":"Santé","Type":"Hôpital-Clinique","Statut (privé/public)":null,"Commune":"VERTOU","Site Internet":null,"Code postal":44120,"Téléphone":"02 51 71 04 35","Adresse":"53 Rue Henri Sauvage","icon":"equipub-actionsociale"},"geometry":{"type":"Point","coordinates":[-1.51451079573778,47.1861447872047]}},{"type":"Feature","properties":{"title":"Centre Médico-Pédagogique CENRO","Catégorie":"Handicap","Type":"Formation","Statut (privé/public)":null,"Commune":"VERTOU","Site Internet":null,"Code postal":44120,"Téléphone":"02 40 03 03 01","Adresse":"40 Rue des Fraîches","icon":"equipub-actionsociale"},"geometry":{"type":"Point","coordinates":[-1.48806172039653,47.1786494081209]}},{"type":"Feature","properties":{"title":"Centre Médico-Social Basse-Goulaine","Catégorie":"Santé","Type":"Centres Médico Sociaux","Statut (privé/public)":null,"Commune":"BASSE-GOULAINE","Site Internet":"www.loire-atlantique.fr","Code postal":44115,"Téléphone":null,"Adresse":"36 Rue de la Champagnère","icon":"equipub-actionsociale"},"geometry":{"type":"Point","coordinates":[-1.46405979148834,47.209989035079]}},{"type":"Feature","properties":{"title":"Centre d'Aide par le Travail Saint Sébastien","Catégorie":"Insertion","Type":"Accueil insertion","Statut (privé/public)":null,"Commune":"ST-SEBASTIEN","Site Internet":null,"Code postal":44230,"Téléphone":null,"Adresse":"20 Avenue Jean Jaurès","icon":"equipub-actionsociale"},"geometry":{"type":"Point","coordinates":[-1.48803197710191,47.2075264520972]}},{"type":"Feature","properties":{"title":"Foyer d'Accueil Médicalisé pour Adultes Handicapés Le Chardon Bleu","Catégorie":"Handicap","Type":"Hébergement","Statut (privé/public)":null,"Commune":"LA-CHAPELLE-SUR-ERDRE","Site Internet":"www.foyer-chardonbleu.fr","Code postal":44240,"Téléphone":"02 40 72 58 58","Adresse":"30 Allée de la Coutancière","icon":"equipub-actionsociale"},"geometry":{"type":"Point","coordinates":[-1.56490018863905,47.3131257093121]}},{"type":"Feature","properties":{"title":"Institut d'Education Motrice de la Buissonnière","Catégorie":"Handicap","Type":"Accueil","Statut (privé/public)":null,"Commune":"LA-CHAPELLE-SUR-ERDRE","Site Internet":"http://apf.buissonniere.pagesperso-orange.fr","Code postal":44240,"Téléphone":"02 40 72 92 80","Adresse":"28 Rue Charles De Gaulle","icon":"equipub-actionsociale"},"geometry":{"type":"Point","coordinates":[-1.56013011134345,47.3050081230591]}},{"type":"Feature","properties":{"title":"Centre Médico-Social","Catégorie":"Santé","Type":"Centres Médico Sociaux","Statut (privé/public)":null,"Commune":"INDRE","Site Internet":"www.loire-atlantique.fr","Code postal":44610,"Téléphone":null,"Adresse":"12B Quai Langlois","icon":"equipub-actionsociale"},"geometry":{"type":"Point","coordinates":[-1.6793561995523,47.2016531582025]}},{"type":"Feature","properties":{"title":"Foyer La Montagne","Catégorie":"Insertion","Type":"Hébergement insertion","Statut (privé/public)":null,"Commune":"LA-MONTAGNE","Site Internet":null,"Code postal":44620,"Téléphone":null,"Adresse":"2 Allée du Huit Mai 1945","icon":"equipub-actionsociale"},"geometry":{"type":"Point","coordinates":[-1.67747222809986,47.1802035469387]}},{"type":"Feature","properties":{"title":"Centre Médico-Social Saint Jean de Boiseau","Catégorie":"Santé","Type":"Centres Médico Sociaux","Statut (privé/public)":null,"Commune":"SAINT-JEAN-DE-BOISEAU","Site Internet":"www.loire-atlantique.fr","Code postal":44640,"Téléphone":"02 40 65 64 29","Adresse":"Rue Pierre Mendès France","icon":"equipub-actionsociale"},"geometry":{"type":"Point","coordinates":[-1.72587371902574,47.1927473938025]}},{"type":"Feature","properties":{"title":"Centre Médico-Social Sainte Luce-sur-Loire","Catégorie":"Santé","Type":"Centres Médico Sociaux","Statut (privé/public)":null,"Commune":"SAINTE-LUCE-SUR-LOIRE","Site Internet":"www.loire-atlantique.fr","Code postal":44980,"Téléphone":null,"Adresse":"2 Rue Jules Verne","icon":"equipub-actionsociale"},"geometry":{"type":"Point","coordinates":[-1.48259890900022,47.2507695248725]}},{"type":"Feature","properties":{"title":"L'Arche Le Sénévé - Foyer La Margelle","Catégorie":"Insertion","Type":"Accueil insertion","Statut (privé/public)":null,"Commune":"VERTOU","Site Internet":"www.larcheseneve.org","Code postal":44120,"Téléphone":"02 40 03 28 69","Adresse":"Rue de l'Ile de France","icon":"equipub-actionsociale"},"geometry":{"type":"Point","coordinates":[-1.47087151127098,47.1692418510199]}},{"type":"Feature","properties":{"title":"Centre de Vie (foyer d'accueil et occupationnel) , Bonheur Eiffel","Catégorie":"Handicap","Type":"Accueil","Statut (privé/public)":null,"Commune":"VERTOU","Site Internet":null,"Code postal":44120,"Téléphone":"02 40 03 32 33","Adresse":"5 Allée Alphonse Fillion","icon":"equipub-actionsociale"},"geometry":{"type":"Point","coordinates":[-1.49208544111397,47.1771918684067]}},{"type":"Feature","properties":{"title":"Institut Médico-Educatif , Le Val de Sèvre","Catégorie":"Handicap","Type":"Formation","Statut (privé/public)":null,"Commune":"VERTOU","Site Internet":null,"Code postal":44120,"Téléphone":null,"Adresse":"Voie Non Dénommée 2151818","icon":"equipub-actionsociale"},"geometry":{"type":"Point","coordinates":[-1.45109341437488,47.1551326568603]}},{"type":"Feature","properties":{"title":"Institut pour Handicapés Visuels ,Les Hauts Thébaudières","Catégorie":"Handicap","Type":"Accueil","Statut (privé/public)":null,"Commune":"VERTOU","Site Internet":"www.thebaudieres.org","Code postal":44120,"Téléphone":"02 51 79 50 00","Adresse":"Route de Saint-Fiacre","icon":"equipub-actionsociale"},"geometry":{"type":"Point","coordinates":[-1.4473706203127,47.1565962857382]}},{"type":"Feature","properties":{"title":"Centre de Vie Saint Yves","Catégorie":"Insertion","Type":"Accueil insertion","Statut (privé/public)":null,"Commune":"VERTOU","Site Internet":null,"Code postal":44120,"Téléphone":null,"Adresse":"Rue de la Chêneraie","icon":"equipub-actionsociale"},"geometry":{"type":"Point","coordinates":[-1.45334848758765,47.1836677969271]}},{"type":"Feature","properties":{"title":"CHU Le Tourville","Catégorie":"Santé","Type":"Hôpital-Clinique","Statut (privé/public)":null,"Commune":"NANTES","Site Internet":null,"Code postal":44000,"Téléphone":"02 40 08 33 33","Adresse":"5 Rue Professeur Yves Boquien","icon":"equipub-actionsociale"},"geometry":{"type":"Point","coordinates":[-1.55827776236794,47.2100157359817]}},{"type":"Feature","properties":{"title":"Adapei - Foyer de Vie pour personnes vieillissantes Les Machaons","Catégorie":"Handicap","Type":"Accueil","Statut (privé/public)":null,"Commune":"BOUAYE","Site Internet":"www.adapei44a.fr","Code postal":44830,"Téléphone":"02 51 11 05 97","Adresse":"11 Rue Colette Besson","icon":"equipub-actionsociale"},"geometry":{"type":"Point","coordinates":[-1.68375125020565,47.1537976120241]}},{"type":"Feature","properties":{"title":"Centre d'Hébergement et de Réinsertion Social  ARCHIPEL","Catégorie":"Insertion","Type":"Hébergement insertion","Statut (privé/public)":null,"Commune":"NANTES","Site Internet":null,"Code postal":44200,"Téléphone":"02 40 20 62 62","Adresse":"16 Rue Anatole de Monzie","icon":"equipub-actionsociale"},"geometry":{"type":"Point","coordinates":[-1.54309353065632,47.2028955111232]}},{"type":"Feature","properties":{"title":"Prévention de la Tuberculose et Tabatologie","Catégorie":"Santé","Type":"Centres Médico Sociaux","Statut (privé/public)":null,"Commune":"NANTES","Site Internet":"www.loire-atlantique.fr","Code postal":44000,"Téléphone":"02 40 73 18 62","Adresse":"6 Rue Hippolyte Durand Gasselin","icon":"equipub-actionsociale"},"geometry":{"type":"Point","coordinates":[-1.56573964394121,47.2127481249889]}},{"type":"Feature","properties":{"title":"Entreprise d'Insertion Hepdale Nantes Services (magasin)","Catégorie":"Insertion","Type":"Insertion professionnelle","Statut (privé/public)":null,"Commune":"NANTES","Site Internet":null,"Code postal":44000,"Téléphone":"02 51 83 89 45","Adresse":"37 Chaussée de la Madeleine","icon":"equipub-actionsociale"},"geometry":{"type":"Point","coordinates":[-1.55053207283575,47.2099636984881]}},{"type":"Feature","properties":{"title":"Centre Educatif Ajorrant pour mères adolescentes mineures et leurs enfants","Catégorie":"Insertion","Type":"Hébergement insertion","Statut (privé/public)":null,"Commune":"NANTES","Site Internet":null,"Code postal":44000,"Téléphone":"02 40 14 51 30","Adresse":"80 Rue Général Buat","icon":"equipub-actionsociale"},"geometry":{"type":"Point","coordinates":[-1.53968004975567,47.230446052275]}},{"type":"Feature","properties":{"title":"Centre Médico-Social Vertou","Catégorie":"Santé","Type":"Centres Médico Sociaux","Statut (privé/public)":null,"Commune":"VERTOU","Site Internet":"www.loire-atlantique.fr","Code postal":44120,"Téléphone":"02 40 34 20 38","Adresse":"1 Rue de la Garenne","icon":"equipub-actionsociale"},"geometry":{"type":"Point","coordinates":[-1.4740364632095,47.1644757745204]}},{"type":"Feature","properties":{"title":"Maison de la Santé","Catégorie":"Santé","Type":"Autre","Statut (privé/public)":null,"Commune":"BOUAYE","Site Internet":null,"Code postal":44830,"Téléphone":null,"Adresse":"Rue Madeleine Joret","icon":"equipub-actionsociale"},"geometry":{"type":"Point","coordinates":[-1.68927762231238,47.1417372637926]}},{"type":"Feature","properties":{"title":"Entreprise d'Insertion ADC Propreté","Catégorie":"Insertion","Type":"Insertion professionnelle","Statut (privé/public)":"Privé","Commune":"NANTES","Site Internet":"www.adcproprete.com","Code postal":44100,"Téléphone":"02 51 80 64 00","Adresse":"1 Chemin Montplaisir","icon":"equipub-actionsociale"},"geometry":{"type":"Point","coordinates":[-1.61197933672724,47.1988185547058]}},{"type":"Feature","properties":{"title":"Entreprise d'Insertion Chantier Vert Environnement","Catégorie":"Insertion","Type":"Insertion professionnelle","Statut (privé/public)":"Privé","Commune":"NANTES","Site Internet":"http://www.chantiervert.fr/","Code postal":44200,"Téléphone":"02 40 48 06 36","Adresse":"5 Rue Pierre Landais","icon":"equipub-actionsociale"},"geometry":{"type":"Point","coordinates":[-1.55759777507123,47.2054748514358]}},{"type":"Feature","properties":{"title":"Entreprise d'Insertion ENVIE 44","Catégorie":"Insertion","Type":"Insertion professionnelle","Statut (privé/public)":"Privé","Commune":"ST-HERBLAIN","Site Internet":"www.envie.org","Code postal":44800,"Téléphone":"02 40 43 82 37","Adresse":"18 Rue Bobby Sands","icon":"equipub-actionsociale"},"geometry":{"type":"Point","coordinates":[-1.65118170285619,47.2321986250956]}},{"type":"Feature","properties":{"title":"Entreprise d'Insertion Hepdale Nantes Services (atelier service)","Catégorie":"Insertion","Type":"Insertion professionnelle","Statut (privé/public)":"Privé","Commune":"NANTES","Site Internet":null,"Code postal":44000,"Téléphone":"02 40 49 80 61","Adresse":"8 Rue du Coudray","icon":"equipub-actionsociale"},"geometry":{"type":"Point","coordinates":[-1.54181018116111,47.2340224929903]}},{"type":"Feature","properties":{"title":"Entreprise d'Insertion INSERIM","Catégorie":"Insertion","Type":"Insertion professionnelle","Statut (privé/public)":"Privé","Commune":"NANTES","Site Internet":"www.inserim.fr","Code postal":44200,"Téléphone":"02 40 35 10 35","Adresse":"7 Rue la Tour d'Auvergne","icon":"equipub-actionsociale"},"geometry":{"type":"Point","coordinates":[-1.5531714996979,47.2065949957474]}},{"type":"Feature","properties":{"title":"Entreprise d'Insertion Le Relais Atlantique","Catégorie":"Insertion","Type":"Insertion professionnelle","Statut (privé/public)":"Privé","Commune":"ST-HERBLAIN","Site Internet":"www.lerelais.org","Code postal":44800,"Téléphone":"02 28 03 18 57","Adresse":"3 Impasse du Bourrelier","icon":"equipub-actionsociale"},"geometry":{"type":"Point","coordinates":[-1.64170456840915,47.2217280412559]}},{"type":"Feature","properties":{"title":"Entreprise d'Insertion Ménage Service","Catégorie":"Insertion","Type":"Insertion professionnelle","Statut (privé/public)":"Privé","Commune":"NANTES","Site Internet":"www.menageservice44.com","Code postal":44100,"Téléphone":"02 40 49 42 77","Adresse":"14 Boulevard Winston Churchill","icon":"equipub-actionsociale"},"geometry":{"type":"Point","coordinates":[-1.61235578893675,47.2070034274015]}},{"type":"Feature","properties":{"title":"Entreprise d'Insertion Presta Entreprise","Catégorie":"Insertion","Type":"Insertion professionnelle","Statut (privé/public)":"Privé","Commune":"ST-HERBLAIN","Site Internet":"www.presta-entreprise.com/","Code postal":44800,"Téléphone":"02 40 92 01 41","Adresse":"17 Rue du Tisserand","icon":"equipub-actionsociale"},"geometry":{"type":"Point","coordinates":[-1.64623973646822,47.2199530955315]}},{"type":"Feature","properties":{"title":"Entreprise d'Insertion Rebatir","Catégorie":"Insertion","Type":"Insertion professionnelle","Statut (privé/public)":"Privé","Commune":"SAINTE-LUCE-SUR-LOIRE","Site Internet":null,"Code postal":44980,"Téléphone":"02 28 01 07 02","Adresse":"Allée des Liards","icon":"equipub-actionsociale"},"geometry":{"type":"Point","coordinates":[-1.4912133257182,47.2630643358632]}},{"type":"Feature","properties":{"title":"Entreprise d'Insertion Tris Actif Ouest","Catégorie":"Insertion","Type":"Insertion professionnelle","Statut (privé/public)":"Privé","Commune":"ST-HERBLAIN","Site Internet":"www.actifouest.fr","Code postal":44800,"Téléphone":"02 51 80 05 38","Adresse":"8 Rue du Charron","icon":"equipub-actionsociale"},"geometry":{"type":"Point","coordinates":[-1.64231299893751,47.2233655498008]}},{"type":"Feature","properties":{"title":"Entreprise d'Insertion Merelcom","Catégorie":"Insertion","Type":"Insertion professionnelle","Statut (privé/public)":"Privé","Commune":"NANTES","Site Internet":"www.merelcom.net","Code postal":44100,"Téléphone":"02 40 85 71 90","Adresse":"8 Rue du Doubs","icon":"equipub-actionsociale"},"geometry":{"type":"Point","coordinates":[-1.60583579607752,47.2043604999789]}},{"type":"Feature","properties":{"title":"Soc Emplois et Services","Catégorie":"Insertion","Type":"Insertion professionnelle","Statut (privé/public)":"Privé","Commune":"ORVAULT","Site Internet":"soc-emplois-services.fr","Code postal":44700,"Téléphone":"02 40 16 08 78","Adresse":"9 Rue Jules Verne","icon":"equipub-actionsociale"},"geometry":{"type":"Point","coordinates":[-1.61557324882683,47.2529345499861]}},{"type":"Feature","properties":{"title":"Association Intermédiaire CAAP Ouest","Catégorie":"Insertion","Type":"Insertion professionnelle","Statut (privé/public)":"Privé","Commune":"ST-HERBLAIN","Site Internet":"http://capouest.fr","Code postal":44800,"Téléphone":"02 40 58 61 16","Adresse":"15 Rue Gustave Eiffel","icon":"equipub-actionsociale"},"geometry":{"type":"Point","coordinates":[-1.64061199447619,47.2250462749129]}},{"type":"Feature","properties":{"title":"Association Intermédiaire OSER-Forêt Vivante (Siège)","Catégorie":"Insertion","Type":"Insertion professionnelle","Statut (privé/public)":null,"Commune":"REZE","Site Internet":null,"Code postal":44400,"Téléphone":"02 40 05 45 16","Adresse":"12 Rue Jean Baptiste Vigier","icon":"equipub-actionsociale"},"geometry":{"type":"Point","coordinates":[-1.54584008676911,47.1908310708141]}},{"type":"Feature","properties":{"title":"Association Intermédiaire OSER Forêt Vivante (Emplois Familiaux)","Catégorie":"Insertion","Type":"Insertion professionnelle","Statut (privé/public)":"Privé","Commune":"VERTOU","Site Internet":null,"Code postal":44120,"Téléphone":"02 40 34 20 23","Adresse":"28 Rue de la Maladrie","icon":"equipub-actionsociale"},"geometry":{"type":"Point","coordinates":[-1.49081099052744,47.1850269646637]}},{"type":"Feature","properties":{"title":"Association Intermédiaire Partage 44","Catégorie":"Insertion","Type":"Insertion professionnelle","Statut (privé/public)":"Privé","Commune":"NANTES","Site Internet":"http://www.partage44.org/","Code postal":44000,"Téléphone":"02 40 74 43 40","Adresse":"41 Rue Général Buat","icon":"equipub-actionsociale"},"geometry":{"type":"Point","coordinates":[-1.53808156179507,47.2314630460965]}},{"type":"Feature","properties":{"title":"Association Intermédiaire Partage 44 (Antenne Centre Ville)","Catégorie":"Insertion","Type":"Insertion professionnelle","Statut (privé/public)":"Privé","Commune":"NANTES","Site Internet":"http://www.partage44.org/","Code postal":44000,"Téléphone":"02 40 74 42 00","Adresse":"3 Place de la Monnaie","icon":"equipub-actionsociale"},"geometry":{"type":"Point","coordinates":[-1.5654937381714,47.2132461541693]}},{"type":"Feature","properties":{"title":"Atelier Chantier d'Insertion A.R.B.R.E.S","Catégorie":"Insertion","Type":"Insertion professionnelle","Statut (privé/public)":"Privé","Commune":"NANTES","Site Internet":"www.arbres44.org","Code postal":44300,"Téléphone":"02 40 40 35 55","Adresse":"105 Rue des Renards","icon":"equipub-actionsociale"},"geometry":{"type":"Point","coordinates":[-1.57066063719947,47.260757653169]}},{"type":"Feature","properties":{"title":"Atelier Chantier Insertion Recherche Emplois Familiaux","Catégorie":"Insertion","Type":"Insertion professionnelle","Statut (privé/public)":"Privé","Commune":"NANTES","Site Internet":null,"Code postal":44100,"Téléphone":"02 40 95 06 66","Adresse":"11 Rue du Prinquiau","icon":"equipub-actionsociale"},"geometry":{"type":"Point","coordinates":[-1.58766433979525,47.2121480349247]}},{"type":"Feature","properties":{"title":"Atelier Chantier d'Insertion ATAO (Siège)","Catégorie":"Insertion","Type":"Insertion professionnelle","Statut (privé/public)":"Privé","Commune":"NANTES","Site Internet":"http://www.atao-insertion.fr","Code postal":44300,"Téléphone":"02 40 59 93 68","Adresse":"7B Rue Jacques Cartier","icon":"equipub-actionsociale"},"geometry":{"type":"Point","coordinates":[-1.57345145670703,47.2591020367178]}},{"type":"Feature","properties":{"title":"Atelier Chantier d'Insertion des 2 Rives","Catégorie":"Insertion","Type":"Insertion professionnelle","Statut (privé/public)":"Privé","Commune":"NANTES","Site Internet":null,"Code postal":44300,"Téléphone":"02 40 76 33 56","Adresse":"23 Rue du Paraguay","icon":"equipub-actionsociale"},"geometry":{"type":"Point","coordinates":[-1.56648261078431,47.2615841411866]}},{"type":"Feature","properties":{"title":"Atelier des Deux Rives - Environnement Espaces Verts","Catégorie":"Insertion","Type":"Insertion professionnelle","Statut (privé/public)":"Privé","Commune":"LA-CHAPELLE-SUR-ERDRE","Site Internet":"www.reseau-insertion44.fr","Code postal":44240,"Téléphone":"02 40 76 33 56","Adresse":"10 Rue Ampère","icon":"equipub-actionsociale"},"geometry":{"type":"Point","coordinates":[-1.55211344559715,47.2587164857697]}},{"type":"Feature","properties":{"title":"Atelier Chantier d'Insertion  EPLEFPA Jules Rieffel","Catégorie":"Insertion","Type":"Insertion professionnelle","Statut (privé/public)":null,"Commune":"ST-HERBLAIN","Site Internet":"http://www.julesrieffel.educagri.fr","Code postal":44800,"Téléphone":"02 40 94 86 08","Adresse":"Rue de la Syonnière","icon":"equipub-actionsociale"},"geometry":{"type":"Point","coordinates":[-1.64263362955983,47.2522658777224]}},{"type":"Feature","properties":{"title":"Atelier Chantier d'Insertion Banque Alimentaire de Loire-Atlantique","Catégorie":"Insertion","Type":"Insertion professionnelle","Statut (privé/public)":"Privé","Commune":"NANTES","Site Internet":"http://www.banquealimentaire.org/","Code postal":44300,"Téléphone":"02 40 52 03 61","Adresse":"23 Chemin des Bateliers","icon":"equipub-actionsociale"},"geometry":{"type":"Point","coordinates":[-1.51171914540739,47.2201172697129]}},{"type":"Feature","properties":{"title":"Atelier Chantier d'Insertion L'Homme Debout","Catégorie":"Insertion","Type":"Insertion professionnelle","Statut (privé/public)":"Privé","Commune":"ST-HERBLAIN","Site Internet":"http://www.lhommedebout.com","Code postal":44800,"Téléphone":"02 40 92 26 91","Adresse":"9 Rue des Compagnons","icon":"equipub-actionsociale"},"geometry":{"type":"Point","coordinates":[-1.64161213202332,47.223945576687]}},{"type":"Feature","properties":{"title":"Atelier Chantier d'Insertion Les Restos du Coeur","Catégorie":"Insertion","Type":"Insertion professionnelle","Statut (privé/public)":"Privé","Commune":"NANTES","Site Internet":"http://www.restosducoeur.org/","Code postal":44300,"Téléphone":"02 28 23 51 51","Adresse":"5 Rue de la Garde","icon":"equipub-actionsociale"},"geometry":{"type":"Point","coordinates":[-1.50115268350512,47.2497347220595]}},{"type":"Feature","properties":{"title":"Atelier Chantier d'Insertion Nantes Ecologie","Catégorie":"Insertion","Type":"Insertion professionnelle","Statut (privé/public)":"Privé","Commune":"NANTES","Site Internet":null,"Code postal":44000,"Téléphone":"02 51 82 05 41","Adresse":"3B Rue Prémion","icon":"equipub-actionsociale"},"geometry":{"type":"Point","coordinates":[-1.55008755226042,47.2170788363868]}},{"type":"Feature","properties":{"title":"Atelier Chantier d'Insertion OCEAN","Catégorie":"Insertion","Type":"Insertion professionnelle","Statut (privé/public)":"Privé","Commune":"ST-HERBLAIN","Site Internet":null,"Code postal":44800,"Téléphone":"02 40 58 05 56","Adresse":"15 Rue Gustave Eiffel","icon":"equipub-actionsociale"},"geometry":{"type":"Point","coordinates":[-1.64081677838952,47.2248288903425]}},{"type":"Feature","properties":{"title":"Atelier Chantier d'Insertion OSER Forêt Vivante","Catégorie":"Insertion","Type":"Insertion professionnelle","Statut (privé/public)":"Privé","Commune":"REZE","Site Internet":null,"Code postal":44400,"Téléphone":"02 40 05 30 70","Adresse":"12 Rue Jean Baptiste Vigier","icon":"equipub-actionsociale"},"geometry":{"type":"Point","coordinates":[-1.54598356762737,47.1907999359915]}},{"type":"Feature","properties":{"title":"Atelier Chantier d'Insertion Les Jardins de Cocagne Nantais - Partage 44","Catégorie":"Insertion","Type":"Insertion professionnelle","Statut (privé/public)":"Privé","Commune":"CARQUEFOU","Site Internet":"http://www.partage44.org/jardin_cocagne/jardin_cocagne.htm","Code postal":44470,"Téléphone":"02 40 68 91 67","Adresse":"Rue des Ruettes","icon":"equipub-actionsociale"},"geometry":{"type":"Point","coordinates":[-1.4710233483071,47.2898540044512]}},{"type":"Feature","properties":{"title":"Atelier Chantier d'Insertion Réagir Ensemble","Catégorie":"Insertion","Type":"Insertion professionnelle","Statut (privé/public)":"Privé","Commune":"SAINT-JEAN-DE-BOISEAU","Site Internet":null,"Code postal":44640,"Téléphone":"02 40 32 95 32","Adresse":"34 Rue de l'Hommeau","icon":"equipub-actionsociale"},"geometry":{"type":"Point","coordinates":[-1.69624750550651,47.187694801923]}},{"type":"Feature","properties":{"title":"Atelier Chantier d'Insertion Saint-Benoit Labre","Catégorie":"Insertion","Type":"Insertion professionnelle","Statut (privé/public)":"Privé","Commune":"VERTOU","Site Internet":null,"Code postal":44120,"Téléphone":"02 40 80 02 02","Adresse":"3 Allée du Cap Horn","icon":"equipub-actionsociale"},"geometry":{"type":"Point","coordinates":[-1.45334989399728,47.183829504764]}},{"type":"Feature","properties":{"title":"Maison de la Solidarité - Solidarité Emploi","Catégorie":"Insertion","Type":"Insertion professionnelle","Statut (privé/public)":"Privé","Commune":"LA-CHAPELLE-SUR-ERDRE","Site Internet":"solidarite-emploi44.fr","Code postal":44240,"Téléphone":"02 40 72 56 92","Adresse":"3 Rue Martin Luther King","icon":"equipub-actionsociale"},"geometry":{"type":"Point","coordinates":[-1.5503498928559,47.2987083657599]}},{"type":"Feature","properties":{"title":"Atelier Chantier d'Insertion TRAJET Pain Contre la Faim","Catégorie":"Insertion","Type":"Insertion professionnelle","Statut (privé/public)":"Privé","Commune":"SAUTRON","Site Internet":null,"Code postal":44880,"Téléphone":"02 51 78 64 62","Adresse":"9 Route de Brimberne","icon":"equipub-actionsociale"},"geometry":{"type":"Point","coordinates":[-1.65425474307305,47.2577713021607]}},{"type":"Feature","properties":{"title":"Atelier Chantier d'Insertion UFCV","Catégorie":"Insertion","Type":"Insertion professionnelle","Statut (privé/public)":"Privé","Commune":"NANTES","Site Internet":"www.ufcv.fr","Code postal":44100,"Téléphone":"02 40 73 29 14","Adresse":"19 Rue Arsène Leloup","icon":"equipub-actionsociale"},"geometry":{"type":"Point","coordinates":[-1.56981940312355,47.2122227202395]}},{"type":"Feature","properties":{"title":"Atelier Chantier d'Insertion ATAO (Métallerie)","Catégorie":"Insertion","Type":"Insertion professionnelle","Statut (privé/public)":"Privé","Commune":"NANTES","Site Internet":"http://www.atao-insertion.fr","Code postal":44200,"Téléphone":"06 61 04 93 61","Adresse":"Boulevard de la Prairie au Duc","icon":"equipub-actionsociale"},"geometry":{"type":"Point","coordinates":[-1.56800890366828,47.20523823719]}},{"type":"Feature","properties":{"title":"Atelier Chantier d'Insertion ATAO (Rénovation de sièges)","Catégorie":"Insertion","Type":"Insertion professionnelle","Statut (privé/public)":"Privé","Commune":"NANTES","Site Internet":"http://www.atao-insertion.fr","Code postal":44000,"Téléphone":"02 51 83 03 26","Adresse":"22 Rue de la Distillerie","icon":"equipub-actionsociale"},"geometry":{"type":"Point","coordinates":[-1.55529688038036,47.2239054117006]}},{"type":"Feature","properties":{"title":"Atelier Chantier d'Insertion ATAO Cycles","Catégorie":"Insertion","Type":"Insertion professionnelle","Statut (privé/public)":"Privé","Commune":"NANTES","Site Internet":"http://www.atao-insertion.fr","Code postal":44100,"Téléphone":"02 40 92 87 05","Adresse":"3 Rue François Coppée","icon":"equipub-actionsociale"},"geometry":{"type":"Point","coordinates":[-1.59786084232115,47.1987939386025]}},{"type":"Feature","properties":{"title":"Atelier Chantier d'Insertion ATAO Loc'Auto","Catégorie":"Insertion","Type":"Insertion professionnelle","Statut (privé/public)":"Privé","Commune":"ST-HERBLAIN","Site Internet":"http://www.atao-insertion.fr","Code postal":44800,"Téléphone":"02 40 92 28 91","Adresse":"4 Rue des Compagnons","icon":"equipub-actionsociale"},"geometry":{"type":"Point","coordinates":[-1.64027222072443,47.2239721725916]}},{"type":"Feature","properties":{"title":"Maison des Associations de Santé","Catégorie":"Santé","Type":"Autre","Statut (privé/public)":null,"Commune":"NANTES","Site Internet":null,"Code postal":44100,"Téléphone":"02 40 43 60 92","Adresse":"1B Rue de la Contrie","icon":"equipub-actionsociale"},"geometry":{"type":"Point","coordinates":[-1.59269616097716,47.2211530412125]}},{"type":"Feature","properties":{"title":"Centre Médico-Social Chantenay","Catégorie":"Santé","Type":"Centres Médico Sociaux","Statut (privé/public)":null,"Commune":"NANTES","Site Internet":"www.loire-atlantique.fr","Code postal":44100,"Téléphone":"02 40 99 22 50","Adresse":"Place de la Liberté","icon":"equipub-actionsociale"},"geometry":{"type":"Point","coordinates":[-1.58835780347874,47.2067586762896]}},{"type":"Feature","properties":{"title":"Pôle Médico-Social René Cassin","Catégorie":"Santé","Type":"Centres Médico Sociaux","Statut (privé/public)":null,"Commune":"NANTES","Site Internet":"http","Code postal":44300,"Téléphone":"02 76 64 25 70","Adresse":"6 Boulevard René Cassin","icon":"equipub-actionsociale"},"geometry":{"type":"Point","coordinates":[-1.57584382582533,47.2646260318869]}},{"type":"Feature","properties":{"title":"Unité d'Emploi Nord","Catégorie":"Insertion","Type":"Insertion professionnelle","Statut (privé/public)":null,"Commune":"NANTES","Site Internet":"insertion.loire-atlantique.fr","Code postal":44300,"Téléphone":"02 28 01 82 80","Adresse":"6 Boulevard René Cassin","icon":"equipub-actionsociale"},"geometry":{"type":"Point","coordinates":[-1.57564516061193,47.2645365765166]}},{"type":"Feature","properties":{"title":"Centre Médico-Social Clémence Royer","Catégorie":"Santé","Type":"Centres Médico Sociaux","Statut (privé/public)":null,"Commune":"NANTES","Site Internet":"www.loire-atlantique.fr","Code postal":44200,"Téléphone":"02 40 75 62 94","Adresse":"31 Boulevard Emile Gabory","icon":"equipub-actionsociale"},"geometry":{"type":"Point","coordinates":[-1.5283925760541,47.1940883390749]}},{"type":"Feature","properties":{"title":"Centre Médico-Social des Dervallières","Catégorie":"Santé","Type":"Centres Médico Sociaux","Statut (privé/public)":null,"Commune":"NANTES","Site Internet":"www.loire-atlantique.fr","Code postal":44100,"Téléphone":"02 51 80 31 00","Adresse":"Rue Charles Roger","icon":"equipub-actionsociale"},"geometry":{"type":"Point","coordinates":[-1.59553774850686,47.2224057603955]}},{"type":"Feature","properties":{"title":"Centre Hospitalier Spécialisé Georges Daumézon","Catégorie":"Santé","Type":"Hôpital-Clinique","Statut (privé/public)":null,"Commune":"BOUGUENAIS","Site Internet":"www.ville-bouguenais.fr","Code postal":44340,"Téléphone":"02 51 82 93 00","Adresse":"55 Rue Georges Clémenceau","icon":"equipub-actionsociale"},"geometry":{"type":"Point","coordinates":[-1.57869307468304,47.1795988723256]}},{"type":"Feature","properties":{"title":"Institut Pour Enfants et Adolescents Polyhandicapés Le Parc de la Blordière","Catégorie":"Handicap","Type":"Formation","Statut (privé/public)":null,"Commune":"REZE","Site Internet":"http://www.apajh44.org","Code postal":44400,"Téléphone":"02 40 75 03 04","Adresse":"1 Boulevard Mendès France","icon":"equipub-actionsociale"},"geometry":{"type":"Point","coordinates":[-1.5291478985465,47.1778867900096]}},{"type":"Feature","properties":{"title":"Service d'Accompagnement Médico-Social Pour Adultes Handicapés La Sèvre","Catégorie":"Handicap","Type":"Formation","Statut (privé/public)":null,"Commune":"REZE","Site Internet":"http://www.apajh44.org","Code postal":44400,"Téléphone":"02 40 08 51 42","Adresse":"5 Boulevard Mendès France","icon":"equipub-actionsociale"},"geometry":{"type":"Point","coordinates":[-1.52827320027592,47.1768112807425]}},{"type":"Feature","properties":{"title":"Centre médico-social Pitre Athénas","Catégorie":"Santé","Type":"Centres Médico Sociaux","Statut (privé/public)":null,"Commune":"REZE","Site Internet":"www.loire-atlantique.fr","Code postal":44400,"Téléphone":"02 40 75 49 50","Adresse":"47 Rue Pitre Athénas","icon":"equipub-actionsociale"},"geometry":{"type":"Point","coordinates":[-1.52904364464861,47.1807847028697]}},{"type":"Feature","properties":{"title":"Centre médico-social Les Mahaudières","Catégorie":"Santé","Type":"Centres Médico Sociaux","Statut (privé/public)":null,"Commune":"REZE","Site Internet":"www.loire-atlantique.fr","Code postal":44400,"Téléphone":"02 40 75 52 00","Adresse":"1 Place Marcel Pagnol","icon":"equipub-actionsociale"},"geometry":{"type":"Point","coordinates":[-1.55772573405181,47.1878398384351]}},{"type":"Feature","properties":{"title":"Secours Populaire Français","Catégorie":"Insertion","Type":"Restauration","Statut (privé/public)":null,"Commune":"REZE","Site Internet":"www.spf44.org","Code postal":44400,"Téléphone":"02 51 70 03 81","Adresse":"66 Rue Emile Zola","icon":"equipub-actionsociale"},"geometry":{"type":"Point","coordinates":[-1.56303911039074,47.1911068833082]}},{"type":"Feature","properties":{"title":"La Croix Rouge Française","Catégorie":"Insertion","Type":"Restauration","Statut (privé/public)":null,"Commune":"REZE","Site Internet":"www.croix-rouge.fr/","Code postal":44400,"Téléphone":null,"Adresse":"64B Rue Emile Zola","icon":"equipub-actionsociale"},"geometry":{"type":"Point","coordinates":[-1.56302639051297,47.1913585167185]}},{"type":"Feature","properties":{"title":"Pôle Social Santé du Sillon","Catégorie":"Santé","Type":"Centres Médico Sociaux","Statut (privé/public)":null,"Commune":"ST-HERBLAIN","Site Internet":"www.saint-herblain.fr","Code postal":44800,"Téléphone":null,"Adresse":"9B Avenue de l'Angevinière","icon":"equipub-actionsociale"},"geometry":{"type":"Point","coordinates":[-1.60934272689171,47.2446594819782]}},{"type":"Feature","properties":{"title":"ACLADI La Maison Bleue","Catégorie":"Handicap","Type":"Hébergement","Statut (privé/public)":null,"Commune":"LES-SORINIERES","Site Internet":null,"Code postal":44840,"Téléphone":"02 40 58 79 32","Adresse":"12 Rue de l'Elan","icon":"equipub-actionsociale"},"geometry":{"type":"Point","coordinates":[-1.52827841388252,47.1499312928396]}},{"type":"Feature","properties":{"title":"Instituts Médico-Educatifs (IME)","Catégorie":"Handicap","Type":"Formation","Statut (privé/public)":null,"Commune":"LES-SORINIERES","Site Internet":null,"Code postal":44840,"Téléphone":"02 40 31 21 11","Adresse":"33 Rue des Papillons","icon":"equipub-actionsociale"},"geometry":{"type":"Point","coordinates":[-1.52049954330201,47.1482390292689]}},{"type":"Feature","properties":{"title":"Secours Populaire Français","Catégorie":"Insertion","Type":"Accueil insertion","Statut (privé/public)":null,"Commune":"ST-SEBASTIEN","Site Internet":null,"Code postal":44230,"Téléphone":"02 40 34 83 76","Adresse":"10 Rue Edouard Hervé","icon":"equipub-actionsociale"},"geometry":{"type":"Point","coordinates":[-1.51995267848767,47.1918308827536]}},{"type":"Feature","properties":{"title":"Le Point Clé (Centre Social du Douet)","Catégorie":"Insertion","Type":"Insertion professionnelle","Statut (privé/public)":null,"Commune":"ST-SEBASTIEN","Site Internet":"http://lepointcle.fr/","Code postal":44230,"Téléphone":"02 51 71 02 83","Adresse":"3 Allée du Six Juin 1944","icon":"equipub-actionsociale"},"geometry":{"type":"Point","coordinates":[-1.52046959960043,47.1937256088805]}},{"type":"Feature","properties":{"title":"Les Briords - Centre de postcure psychiatrique de la Mainguais","Catégorie":"Handicap","Type":"Hébergement","Statut (privé/public)":null,"Commune":"CARQUEFOU","Site Internet":"www.briords.asso.fr","Code postal":44470,"Téléphone":"02 40 50 90 75","Adresse":"2 Mail de la Mainguais","icon":"equipub-actionsociale"},"geometry":{"type":"Point","coordinates":[-1.48889786105082,47.2826821184292]}},{"type":"Feature","properties":{"title":"Foyer d'Accueil Médicalisé pour Adultes Handicapés Le Chardon Blanc","Catégorie":"Handicap","Type":"Hébergement","Statut (privé/public)":null,"Commune":"LA-CHAPELLE-SUR-ERDRE","Site Internet":"www.foyer-chardonbleu.fr","Code postal":44240,"Téléphone":"02 40 72 58 58","Adresse":"30 Allée de la Coutancière","icon":"equipub-actionsociale"},"geometry":{"type":"Point","coordinates":[-1.56385623201213,47.3137988242521]}},{"type":"Feature","properties":{"title":"Emmaüs Nantes","Catégorie":"Insertion","Type":"Insertion professionnelle","Statut (privé/public)":null,"Commune":"BOUGUENAIS","Site Internet":"www.emmaus44.fr","Code postal":44340,"Téléphone":"02 40 75 63 36","Adresse":"Rue d'Emmaus","icon":"equipub-actionsociale"},"geometry":{"type":"Point","coordinates":[-1.55944774563161,47.1601782226134]}},{"type":"Feature","properties":{"title":"Foyer de Vie Le Chêne Vert","Catégorie":"Handicap","Type":"Hébergement","Statut (privé/public)":null,"Commune":"LE-PELLERIN","Site Internet":"loire-atlantique.aide-handicap.info","Code postal":44640,"Téléphone":"02 40 64 38 00","Adresse":"3 Avenue François Mitterrand","icon":"equipub-actionsociale"},"geometry":{"type":"Point","coordinates":[-1.76041572664722,47.202226196997]}},