{"type":"FeatureCollection","features":[{"type":"Feature","properties":{"geo":{"name":"Halle de Tennis de la Marrière"},"_l":[47.2368185757269,-1.52784818256959],"LIBTHEME":"SPORTS","CODE_POSTAL":44300,"WEB":null,"STATUT":"Ville de Nantes","TELEPHONE":null,"THEME":6,"COMMUNE":"NANTES","LIBCATEGORIE":"Tennis","ADRESSE":"95 Rue de la Marrière","LIBTYPE":null,"_IDOBJ":3938,"TYPE":null,"CATEGORIE":607},"geometry":{"type":"Point","coordinates":[-1.52784818256959,47.2368185757269]}},{"type":"Feature","properties":{"geo":{"name":"Tennis"},"_l":[47.1345345540375,-1.73271134771113],"LIBTHEME":"SPORTS","CODE_POSTAL":44710,"WEB":null,"STATUT":null,"TELEPHONE":null,"THEME":6,"COMMUNE":"SAINT-LEGER-LES-VIGNES","LIBCATEGORIE":"Tennis","ADRESSE":"Rue de la Rive","LIBTYPE":null,"_IDOBJ":4161,"TYPE":null,"CATEGORIE":607},"geometry":{"type":"Point","coordinates":[-1.73271134771113,47.1345345540375]}},{"type":"Feature","properties":{"geo":{"name":"Court de Tennis"},"_l":[47.2009617615033,-1.66875796124264],"LIBTHEME":"SPORTS","CODE_POSTAL":44610,"WEB":null,"STATUT":null,"TELEPHONE":null,"THEME":6,"COMMUNE":"INDRE","LIBCATEGORIE":"Tennis","ADRESSE":"Rue de la Gare","LIBTYPE":null,"_IDOBJ":4166,"TYPE":null,"CATEGORIE":607},"geometry":{"type":"Point","coordinates":[-1.66875796124264,47.2009617615033]}},{"type":"Feature","properties":{"geo":{"name":"Court de Tennis"},"_l":[47.1506353405133,-1.69262060484085],"LIBTHEME":"SPORTS","CODE_POSTAL":44830,"WEB":null,"STATUT":null,"TELEPHONE":null,"THEME":6,"COMMUNE":"BOUAYE","LIBCATEGORIE":"Tennis","ADRESSE":"Chemin de la Piogerie","LIBTYPE":null,"_IDOBJ":4194,"TYPE":null,"CATEGORIE":607},"geometry":{"type":"Point","coordinates":[-1.69262060484085,47.1506353405133]}},{"type":"Feature","properties":{"geo":{"name":"Salle de Tennis du Guette Loup"},"_l":[47.2625548892178,-1.45519991438981],"LIBTHEME":"SPORTS","CODE_POSTAL":44470,"WEB":null,"STATUT":null,"TELEPHONE":null,"THEME":6,"COMMUNE":"THOUARE-SUR-LOIRE","LIBCATEGORIE":"Tennis","ADRESSE":"Route de la Barre","LIBTYPE":null,"_IDOBJ":4216,"TYPE":null,"CATEGORIE":607},"geometry":{"type":"Point","coordinates":[-1.45519991438981,47.2625548892178]}},{"type":"Feature","properties":{"geo":{"name":"Court de Tennis"},"_l":[47.2185329342019,-1.46781574720677],"LIBTHEME":"SPORTS","CODE_POSTAL":44115,"WEB":null,"STATUT":null,"TELEPHONE":null,"THEME":6,"COMMUNE":"BASSE-GOULAINE","LIBCATEGORIE":"Tennis","ADRESSE":"Rue de la Poste","LIBTYPE":null,"_IDOBJ":4221,"TYPE":null,"CATEGORIE":607},"geometry":{"type":"Point","coordinates":[-1.46781574720677,47.2185329342019]}},{"type":"Feature","properties":{"geo":{"name":"Terrain de Tennis"},"_l":[47.1639364142099,-1.46673883456256],"LIBTHEME":"SPORTS","CODE_POSTAL":44120,"WEB":null,"STATUT":null,"TELEPHONE":null,"THEME":6,"COMMUNE":"VERTOU","LIBCATEGORIE":"Tennis","ADRESSE":"Allée de la Vigne de Pâques","LIBTYPE":null,"_IDOBJ":4245,"TYPE":null,"CATEGORIE":607},"geometry":{"type":"Point","coordinates":[-1.46673883456256,47.1639364142099]}},{"type":"Feature","properties":{"geo":{"name":"Terrain de Tennis"},"_l":[47.1832575358085,-1.49828335754745],"LIBTHEME":"SPORTS","CODE_POSTAL":44120,"WEB":null,"STATUT":null,"TELEPHONE":null,"THEME":6,"COMMUNE":"VERTOU","LIBCATEGORIE":"Tennis","ADRESSE":"Impasse du Stade Raymond Durand","LIBTYPE":null,"_IDOBJ":4246,"TYPE":null,"CATEGORIE":607},"geometry":{"type":"Point","coordinates":[-1.49828335754745,47.1832575358085]}},{"type":"Feature","properties":{"geo":{"name":"Entente Tennis Vertou"},"_l":[47.1785373270275,-1.46318253916213],"LIBTHEME":"SPORTS","CODE_POSTAL":44120,"WEB":"http://www.club.fft.fr/","STATUT":null,"TELEPHONE":"02 51 79 17 10","THEME":6,"COMMUNE":"VERTOU","LIBCATEGORIE":"Tennis","ADRESSE":"Impasse de la Foresterie","LIBTYPE":null,"_IDOBJ":4247,"TYPE":null,"CATEGORIE":607},"geometry":{"type":"Point","coordinates":[-1.46318253916213,47.1785373270275]}},{"type":"Feature","properties":{"geo":{"name":"Salle de Tennis Centaure"},"_l":[47.2669270963193,-1.67886425849015],"LIBTHEME":"SPORTS","CODE_POSTAL":44880,"WEB":null,"STATUT":null,"TELEPHONE":null,"THEME":6,"COMMUNE":"SAUTRON","LIBCATEGORIE":"Tennis","ADRESSE":"Rue de la Forêt","LIBTYPE":null,"_IDOBJ":4258,"TYPE":null,"CATEGORIE":607},"geometry":{"type":"Point","coordinates":[-1.67886425849015,47.2669270963193]}},{"type":"Feature","properties":{"geo":{"name":"Salle de Tennis Cassiopée"},"_l":[47.2666474812869,-1.67923508048179],"LIBTHEME":"SPORTS","CODE_POSTAL":44880,"WEB":null,"STATUT":null,"TELEPHONE":null,"THEME":6,"COMMUNE":"SAUTRON","LIBCATEGORIE":"Tennis","ADRESSE":"Rue de la Forêt","LIBTYPE":null,"_IDOBJ":4260,"TYPE":null,"CATEGORIE":607},"geometry":{"type":"Point","coordinates":[-1.67923508048179,47.2666474812869]}},{"type":"Feature","properties":{"geo":{"name":"Terrains de tennis"},"_l":[47.2665123104871,-1.67841905846459],"LIBTHEME":"SPORTS","CODE_POSTAL":44880,"WEB":null,"STATUT":null,"TELEPHONE":null,"THEME":6,"COMMUNE":"SAUTRON","LIBCATEGORIE":"Tennis","ADRESSE":"Rue de la Forêt","LIBTYPE":null,"_IDOBJ":4263,"TYPE":null,"CATEGORIE":607},"geometry":{"type":"Point","coordinates":[-1.67841905846459,47.2665123104871]}},{"type":"Feature","properties":{"geo":{"name":"Tennis Country Club"},"_l":[47.2445883438036,-1.70438066734281],"LIBTHEME":"SPORTS","CODE_POSTAL":44220,"WEB":"cours-tennis-club.countryclubnantais.fr","STATUT":null,"TELEPHONE":"02 40 86 40 90","THEME":6,"COMMUNE":"COUERON","LIBCATEGORIE":"Tennis","ADRESSE":"Voie Non Dénommée 0471861","LIBTYPE":null,"_IDOBJ":4281,"TYPE":null,"CATEGORIE":607},"geometry":{"type":"Point","coordinates":[-1.70438066734281,47.2445883438036]}},{"type":"Feature","properties":{"geo":{"name":"Tennis"},"_l":[47.2117152639444,-1.73813547120881],"LIBTHEME":"SPORTS","CODE_POSTAL":44220,"WEB":null,"STATUT":null,"TELEPHONE":null,"THEME":6,"COMMUNE":"COUERON","LIBCATEGORIE":"Tennis","ADRESSE":"Rue Marcel de la Provoté","LIBTYPE":null,"_IDOBJ":4286,"TYPE":null,"CATEGORIE":607},"geometry":{"type":"Point","coordinates":[-1.73813547120881,47.2117152639444]}},{"type":"Feature","properties":{"geo":{"name":"Tennis"},"_l":[47.2844351822684,-1.48341346932704],"LIBTHEME":"SPORTS","CODE_POSTAL":44470,"WEB":"www.carquefou.fr","STATUT":null,"TELEPHONE":null,"THEME":6,"COMMUNE":"CARQUEFOU","LIBCATEGORIE":"Tennis","ADRESSE":"Rue du Moulin Boisseau","LIBTYPE":null,"_IDOBJ":4294,"TYPE":null,"CATEGORIE":607},"geometry":{"type":"Point","coordinates":[-1.48341346932704,47.2844351822684]}},{"type":"Feature","properties":{"geo":{"name":"Tennis Frébaudière"},"_l":[47.2744022434315,-1.62560460051723],"LIBTHEME":"SPORTS","CODE_POSTAL":44700,"WEB":null,"STATUT":null,"TELEPHONE":null,"THEME":6,"COMMUNE":"ORVAULT","LIBCATEGORIE":"Tennis","ADRESSE":"Chemin des Garettes","LIBTYPE":null,"_IDOBJ":4335,"TYPE":null,"CATEGORIE":607},"geometry":{"type":"Point","coordinates":[-1.62560460051723,47.2744022434315]}},{"type":"Feature","properties":{"geo":{"name":"Courts de Tennis du Gesvres"},"_l":[47.2672520042777,-1.55164077434728],"LIBTHEME":"SPORTS","CODE_POSTAL":44240,"WEB":"www.lachapellesurerdre.fr","STATUT":null,"TELEPHONE":null,"THEME":6,"COMMUNE":"LA-CHAPELLE-SUR-ERDRE","LIBCATEGORIE":"Tennis","ADRESSE":"Boulevard du Gesvres","LIBTYPE":null,"_IDOBJ":4359,"TYPE":null,"CATEGORIE":607},"geometry":{"type":"Point","coordinates":[-1.55164077434728,47.2672520042777]}},{"type":"Feature","properties":{"geo":{"name":"Courts de Tennis"},"_l":[47.2934626531311,-1.39092544393487],"LIBTHEME":"SPORTS","CODE_POSTAL":44470,"WEB":null,"STATUT":null,"TELEPHONE":null,"THEME":6,"COMMUNE":"MAUVES-SUR-LOIRE","LIBCATEGORIE":"Tennis","ADRESSE":"Rue des Saulzais","LIBTYPE":null,"_IDOBJ":4472,"TYPE":null,"CATEGORIE":607},"geometry":{"type":"Point","coordinates":[-1.39092544393487,47.2934626531311]}},{"type":"Feature","properties":{"geo":{"name":"Courts de Tennis Robinière"},"_l":[47.1627492950353,-1.52966462186016],"LIBTHEME":"SPORTS","CODE_POSTAL":44400,"WEB":null,"STATUT":null,"TELEPHONE":null,"THEME":6,"COMMUNE":"REZE","LIBCATEGORIE":"Tennis","ADRESSE":"Rue des Poyaux","LIBTYPE":null,"_IDOBJ":3239,"TYPE":null,"CATEGORIE":607},"geometry":{"type":"Point","coordinates":[-1.52966462186016,47.1627492950353]}},{"type":"Feature","properties":{"geo":{"name":"Rezé Tennis Club - Halles de la Trocardière"},"_l":[47.1811938949034,-1.5679119813604],"LIBTHEME":"SPORTS","CODE_POSTAL":44400,"WEB":null,"STATUT":null,"TELEPHONE":null,"THEME":6,"COMMUNE":"REZE","LIBCATEGORIE":"Tennis","ADRESSE":"Rue des Champs Garnier","LIBTYPE":null,"_IDOBJ":3262,"TYPE":null,"CATEGORIE":607},"geometry":{"type":"Point","coordinates":[-1.5679119813604,47.1811938949034]}},{"type":"Feature","properties":{"geo":{"name":"Terrains de Tennis de la Gagnerie"},"_l":[47.1700686549648,-1.61889568219984],"LIBTHEME":"SPORTS","CODE_POSTAL":44340,"WEB":null,"STATUT":null,"TELEPHONE":null,"THEME":6,"COMMUNE":"BOUGUENAIS","LIBCATEGORIE":"Tennis","ADRESSE":"Rue de la Gagnerie","LIBTYPE":null,"_IDOBJ":3307,"TYPE":null,"CATEGORIE":607},"geometry":{"type":"Point","coordinates":[-1.61889568219984,47.1700686549648]}},{"type":"Feature","properties":{"geo":{"name":"Centre de tennis Arthur Ashe"},"_l":[47.1766393374081,-1.59180917746448],"LIBTHEME":"SPORTS","CODE_POSTAL":44340,"WEB":"www.ville-bouguenais.fr","STATUT":null,"TELEPHONE":"02 40 65 18 41","THEME":6,"COMMUNE":"BOUGUENAIS","LIBCATEGORIE":"Tennis","ADRESSE":"Chemin de la Neustrie","LIBTYPE":null,"_IDOBJ":3309,"TYPE":null,"CATEGORIE":607},"geometry":{"type":"Point","coordinates":[-1.59180917746448,47.1766393374081]}},{"type":"Feature","properties":{"geo":{"name":"Salle des Mousquetaires"},"_l":[47.1757333241693,-1.5927673773589],"LIBTHEME":"SPORTS","CODE_POSTAL":44340,"WEB":null,"STATUT":null,"TELEPHONE":null,"THEME":6,"COMMUNE":"BOUGUENAIS","LIBCATEGORIE":"Tennis","ADRESSE":"Chemin de la Neustrie","LIBTYPE":null,"_IDOBJ":3312,"TYPE":null,"CATEGORIE":607},"geometry":{"type":"Point","coordinates":[-1.5927673773589,47.1757333241693]}},{"type":"Feature","properties":{"geo":{"name":"Salle de Tennis de Table Vertou"},"_l":[47.1652856313396,-1.47325814337337],"LIBTHEME":"SPORTS","CODE_POSTAL":44120,"WEB":null,"STATUT":null,"TELEPHONE":null,"THEME":6,"COMMUNE":"VERTOU","LIBCATEGORIE":"Tennis","ADRESSE":"Boulevard des Sports","LIBTYPE":null,"_IDOBJ":3330,"TYPE":null,"CATEGORIE":607},"geometry":{"type":"Point","coordinates":[-1.47325814337337,47.1652856313396]}},{"type":"Feature","properties":{"geo":{"name":"Tennis de l'Ouche Catin"},"_l":[47.1925737586485,-1.50199448455118],"LIBTHEME":"SPORTS","CODE_POSTAL":44230,"WEB":null,"STATUT":null,"TELEPHONE":null,"THEME":6,"COMMUNE":"ST-SEBASTIEN","LIBCATEGORIE":"Tennis","ADRESSE":"Rue de l'Ouche Catin","LIBTYPE":null,"_IDOBJ":3362,"TYPE":null,"CATEGORIE":607},"geometry":{"type":"Point","coordinates":[-1.50199448455118,47.1925737586485]}},{"type":"Feature","properties":{"geo":{"name":"Salle de Tennis"},"_l":[47.2174956015047,-1.46414834529638],"LIBTHEME":"SPORTS","CODE_POSTAL":44115,"WEB":null,"STATUT":null,"TELEPHONE":null,"THEME":6,"COMMUNE":"BASSE-GOULAINE","LIBCATEGORIE":"Tennis","ADRESSE":"Rue du Général Leclerc","LIBTYPE":null,"_IDOBJ":3379,"TYPE":null,"CATEGORIE":607},"geometry":{"type":"Point","coordinates":[-1.46414834529638,47.2174956015047]}},{"type":"Feature","properties":{"geo":{"name":"Tennis Orvault"},"_l":[47.2571645470284,-1.58156438456381],"LIBTHEME":"SPORTS","CODE_POSTAL":44700,"WEB":null,"STATUT":null,"TELEPHONE":null,"THEME":6,"COMMUNE":"ORVAULT","LIBCATEGORIE":"Tennis","ADRESSE":"40 Rue de la Mulonnière","LIBTYPE":null,"_IDOBJ":3441,"TYPE":null,"CATEGORIE":607},"geometry":{"type":"Point","coordinates":[-1.58156438456381,47.2571645470284]}},{"type":"Feature","properties":{"geo":{"name":"Tennis Roger Picaud"},"_l":[47.2529330508998,-1.61156164440896],"LIBTHEME":"SPORTS","CODE_POSTAL":44700,"WEB":null,"STATUT":null,"TELEPHONE":null,"THEME":6,"COMMUNE":"ORVAULT","LIBCATEGORIE":"Tennis","ADRESSE":"112 Avenue Claude Antoine Peccot","LIBTYPE":null,"_IDOBJ":3443,"TYPE":null,"CATEGORIE":607},"geometry":{"type":"Point","coordinates":[-1.61156164440896,47.2529330508998]}},{"type":"Feature","properties":{"geo":{"name":"Courts de Tennis"},"_l":[47.1961900301957,-1.76158045857492],"LIBTHEME":"SPORTS","CODE_POSTAL":44640,"WEB":"www.ville-lepellerin.fr","STATUT":null,"TELEPHONE":null,"THEME":6,"COMMUNE":"LE-PELLERIN","LIBCATEGORIE":"Tennis","ADRESSE":"Rue de la Jouardais","LIBTYPE":null,"_IDOBJ":3458,"TYPE":null,"CATEGORIE":607},"geometry":{"type":"Point","coordinates":[-1.76158045857492,47.1961900301957]}},{"type":"Feature","properties":{"geo":{"name":"Tennis Saint Aignan de Grand Lieu"},"_l":[47.1207193963842,-1.63772247513102],"LIBTHEME":"SPORTS","CODE_POSTAL":44860,"WEB":null,"STATUT":null,"TELEPHONE":null,"THEME":6,"COMMUNE":"SAINT-AIGNAN-GRANDLIEU","LIBCATEGORIE":"Tennis","ADRESSE":"Place Saint Amani","LIBTYPE":null,"_IDOBJ":3461,"TYPE":null,"CATEGORIE":607},"geometry":{"type":"Point","coordinates":[-1.63772247513102,47.1207193963842]}}]}