{"type":"FeatureCollection","features":[{"type":"Feature","properties":{"geo":{"name":"Gymnase de la Baronnais"},"_l":[47.1762295671634,-1.59302228346367],"LIBTHEME":"SPORTS","CODE_POSTAL":44340,"WEB":"www.ville-bouguenais.fr","STATUT":null,"TELEPHONE":"02 40 26 95 36","THEME":6,"COMMUNE":"BOUGUENAIS","LIBCATEGORIE":"Gymnase","ADRESSE":"Chemin de la Neustrie","LIBTYPE":null,"_IDOBJ":3310,"TYPE":null,"CATEGORIE":603},"geometry":{"type":"Point","coordinates":[-1.59302228346367,47.1762295671634]}},{"type":"Feature","properties":{"geo":{"name":"Gymnase de la Neustrie"},"_l":[47.175882322274,-1.59219906767451],"LIBTHEME":"SPORTS","CODE_POSTAL":44340,"WEB":"www.ville-bouguenais.fr","STATUT":null,"TELEPHONE":"02 40 65 19 70","THEME":6,"COMMUNE":"BOUGUENAIS","LIBCATEGORIE":"Gymnase","ADRESSE":"Chemin de la Neustrie","LIBTYPE":null,"_IDOBJ":3311,"TYPE":null,"CATEGORIE":603},"geometry":{"type":"Point","coordinates":[-1.59219906767451,47.175882322274]}},{"type":"Feature","properties":{"geo":{"name":"Salle des Mousquetaires"},"_l":[47.1757333241693,-1.5927673773589],"LIBTHEME":"SPORTS","CODE_POSTAL":44340,"WEB":null,"STATUT":null,"TELEPHONE":null,"THEME":6,"COMMUNE":"BOUGUENAIS","LIBCATEGORIE":"Tennis","ADRESSE":"Chemin de la Neustrie","LIBTYPE":null,"_IDOBJ":3312,"TYPE":null,"CATEGORIE":607},"geometry":{"type":"Point","coordinates":[-1.5927673773589,47.1757333241693]}},{"type":"Feature","properties":{"geo":{"name":"Plateau d'évolution de la Neustrie"},"_l":[47.1753910180697,-1.59112844820114],"LIBTHEME":"SPORTS","CODE_POSTAL":44340,"WEB":null,"STATUT":null,"TELEPHONE":null,"THEME":6,"COMMUNE":"BOUGUENAIS","LIBCATEGORIE":"Autre équipement","ADRESSE":"Chemin de la Neustrie","LIBTYPE":null,"_IDOBJ":3313,"TYPE":null,"CATEGORIE":608},"geometry":{"type":"Point","coordinates":[-1.59112844820114,47.1753910180697]}},{"type":"Feature","properties":{"geo":{"name":"Stade Pierre de Coubertin"},"_l":[47.1749884728192,-1.59181038072302],"LIBTHEME":"SPORTS","CODE_POSTAL":44340,"WEB":null,"STATUT":null,"TELEPHONE":null,"THEME":6,"COMMUNE":"BOUGUENAIS","LIBCATEGORIE":"Stade","ADRESSE":"Chemin de la Neustrie","LIBTYPE":null,"_IDOBJ":3314,"TYPE":null,"CATEGORIE":606},"geometry":{"type":"Point","coordinates":[-1.59181038072302,47.1749884728192]}},{"type":"Feature","properties":{"geo":{"name":"Salle de Tennis de Table Vertou"},"_l":[47.1652856313396,-1.47325814337337],"LIBTHEME":"SPORTS","CODE_POSTAL":44120,"WEB":null,"STATUT":null,"TELEPHONE":null,"THEME":6,"COMMUNE":"VERTOU","LIBCATEGORIE":"Tennis","ADRESSE":"Boulevard des Sports","LIBTYPE":null,"_IDOBJ":3330,"TYPE":null,"CATEGORIE":607},"geometry":{"type":"Point","coordinates":[-1.47325814337337,47.1652856313396]}},{"type":"Feature","properties":{"geo":{"name":"Terrain de Pétanque du Parc de la Sèvre"},"_l":[47.1658302013054,-1.47981291545655],"LIBTHEME":"SPORTS","CODE_POSTAL":44120,"WEB":null,"STATUT":null,"TELEPHONE":"02 40 34 76 09","THEME":6,"COMMUNE":"VERTOU","LIBCATEGORIE":"Autre équipement","ADRESSE":"Boulevard Guichet Sérex","LIBTYPE":null,"_IDOBJ":3331,"TYPE":null,"CATEGORIE":608},"geometry":{"type":"Point","coordinates":[-1.47981291545655,47.1658302013054]}},{"type":"Feature","properties":{"geo":{"name":"Terrain de Tir à l'Arc Vertou"},"_l":[47.1833399515573,-1.49907317912865],"LIBTHEME":"SPORTS","CODE_POSTAL":44120,"WEB":null,"STATUT":null,"TELEPHONE":null,"THEME":6,"COMMUNE":"VERTOU","LIBCATEGORIE":"Autre équipement","ADRESSE":"Impasse du Stade Raymond Durand","LIBTYPE":null,"_IDOBJ":3336,"TYPE":null,"CATEGORIE":608},"geometry":{"type":"Point","coordinates":[-1.49907317912865,47.1833399515573]}},{"type":"Feature","properties":{"geo":{"name":"Piste de Bi-cross Ile Forget"},"_l":[47.2093886560433,-1.51694761919064],"LIBTHEME":"SPORTS","CODE_POSTAL":44230,"WEB":null,"STATUT":null,"TELEPHONE":null,"THEME":6,"COMMUNE":"ST-SEBASTIEN","LIBCATEGORIE":"Autre équipement","ADRESSE":"Boulevard des Pas Enchantés","LIBTYPE":null,"_IDOBJ":3361,"TYPE":null,"CATEGORIE":608},"geometry":{"type":"Point","coordinates":[-1.51694761919064,47.2093886560433]}},{"type":"Feature","properties":{"geo":{"name":"Tennis de l'Ouche Catin"},"_l":[47.1925737586485,-1.50199448455118],"LIBTHEME":"SPORTS","CODE_POSTAL":44230,"WEB":null,"STATUT":null,"TELEPHONE":null,"THEME":6,"COMMUNE":"ST-SEBASTIEN","LIBCATEGORIE":"Tennis","ADRESSE":"Rue de l'Ouche Catin","LIBTYPE":null,"_IDOBJ":3362,"TYPE":null,"CATEGORIE":607},"geometry":{"type":"Point","coordinates":[-1.50199448455118,47.1925737586485]}},{"type":"Feature","properties":{"geo":{"name":"Complexe Sportif Saint Sébastien"},"_l":[47.2092508654119,-1.49877503770681],"LIBTHEME":"SPORTS","CODE_POSTAL":44230,"WEB":null,"STATUT":null,"TELEPHONE":null,"THEME":6,"COMMUNE":"ST-SEBASTIEN","LIBCATEGORIE":"Gymnase","ADRESSE":"Rue de Chantepie","LIBTYPE":null,"_IDOBJ":3363,"TYPE":null,"CATEGORIE":603},"geometry":{"type":"Point","coordinates":[-1.49877503770681,47.2092508654119]}},{"type":"Feature","properties":{"geo":{"name":"Skatepark de la Jouandière"},"_l":[47.2921609724699,-1.49016586168623],"LIBTHEME":"SPORTS","CODE_POSTAL":44470,"WEB":"www.carquefou.fr","STATUT":null,"TELEPHONE":null,"THEME":6,"COMMUNE":"CARQUEFOU","LIBCATEGORIE":"Autre équipement","ADRESSE":"Avenue de la Vendée","LIBTYPE":null,"_IDOBJ":3371,"TYPE":null,"CATEGORIE":608},"geometry":{"type":"Point","coordinates":[-1.49016586168623,47.2921609724699]}},{"type":"Feature","properties":{"geo":{"name":"Gymnase Alella"},"_l":[47.2834760541553,-1.48272657049156],"LIBTHEME":"SPORTS","CODE_POSTAL":44470,"WEB":"www.carquefou.fr","STATUT":null,"TELEPHONE":null,"THEME":6,"COMMUNE":"CARQUEFOU","LIBCATEGORIE":"Gymnase","ADRESSE":"Rue Victor Hugo","LIBTYPE":null,"_IDOBJ":3373,"TYPE":null,"CATEGORIE":603},"geometry":{"type":"Point","coordinates":[-1.48272657049156,47.2834760541553]}},{"type":"Feature","properties":{"geo":{"name":"Salle du Tremplin"},"_l":[47.2816599536798,-1.4819778113677],"LIBTHEME":"SPORTS","CODE_POSTAL":44470,"WEB":"www.carquefou.fr","STATUT":null,"TELEPHONE":null,"THEME":6,"COMMUNE":"CARQUEFOU","LIBCATEGORIE":"Gymnase","ADRESSE":"Rue Victor Hugo","LIBTYPE":null,"_IDOBJ":3374,"TYPE":null,"CATEGORIE":603},"geometry":{"type":"Point","coordinates":[-1.4819778113677,47.2816599536798]}},{"type":"Feature","properties":{"geo":{"name":"Salle de Tennis"},"_l":[47.2174956015047,-1.46414834529638],"LIBTHEME":"SPORTS","CODE_POSTAL":44115,"WEB":null,"STATUT":null,"TELEPHONE":null,"THEME":6,"COMMUNE":"BASSE-GOULAINE","LIBCATEGORIE":"Tennis","ADRESSE":"Rue du Général Leclerc","LIBTYPE":null,"_IDOBJ":3379,"TYPE":null,"CATEGORIE":607},"geometry":{"type":"Point","coordinates":[-1.46414834529638,47.2174956015047]}},{"type":"Feature","properties":{"geo":{"name":"Gymnase La Herdrie"},"_l":[47.1981369987963,-1.45211641003807],"LIBTHEME":"SPORTS","CODE_POSTAL":44115,"WEB":null,"STATUT":null,"TELEPHONE":null,"THEME":6,"COMMUNE":"BASSE-GOULAINE","LIBCATEGORIE":"Gymnase","ADRESSE":"81 Rue de la Basse Lande","LIBTYPE":null,"_IDOBJ":3381,"TYPE":null,"CATEGORIE":603},"geometry":{"type":"Point","coordinates":[-1.45211641003807,47.1981369987963]}},{"type":"Feature","properties":{"geo":{"name":"Stade La Herdrie"},"_l":[47.1970606984537,-1.4518438765204],"LIBTHEME":"SPORTS","CODE_POSTAL":44115,"WEB":null,"STATUT":null,"TELEPHONE":null,"THEME":6,"COMMUNE":"BASSE-GOULAINE","LIBCATEGORIE":"Stade","ADRESSE":"81 Rue de la Basse Lande","LIBTYPE":null,"_IDOBJ":3382,"TYPE":null,"CATEGORIE":606},"geometry":{"type":"Point","coordinates":[-1.4518438765204,47.1970606984537]}},{"type":"Feature","properties":{"geo":{"name":"Gymnase de Mazaire"},"_l":[47.2969808407456,-1.55836528167593],"LIBTHEME":"SPORTS","CODE_POSTAL":44240,"WEB":"www.lachapellesurerdre.fr","STATUT":null,"TELEPHONE":"02 51 81 87 22","THEME":6,"COMMUNE":"LA-CHAPELLE-SUR-ERDRE","LIBCATEGORIE":"Gymnase","ADRESSE":"Rue de la Hautière","LIBTYPE":null,"_IDOBJ":3387,"TYPE":null,"CATEGORIE":603},"geometry":{"type":"Point","coordinates":[-1.55836528167593,47.2969808407456]}},{"type":"Feature","properties":{"geo":{"name":"Complexe sportif de lL Coutancière"},"_l":[47.3062805421427,-1.55849488739076],"LIBTHEME":"SPORTS","CODE_POSTAL":44240,"WEB":"www.lachapellesurerdre.fr","STATUT":null,"TELEPHONE":"02 40 72 05 70","THEME":6,"COMMUNE":"LA-CHAPELLE-SUR-ERDRE","LIBCATEGORIE":"Centre sportif","ADRESSE":"Rue de l'Aven","LIBTYPE":null,"_IDOBJ":3391,"TYPE":null,"CATEGORIE":601},"geometry":{"type":"Point","coordinates":[-1.55849488739076,47.3062805421427]}},{"type":"Feature","properties":{"geo":{"name":"Complexe sportif Buisson de la Grolle"},"_l":[47.2892751983587,-1.53819311146626],"LIBTHEME":"SPORTS","CODE_POSTAL":44240,"WEB":"www.lachapellesurerdre.fr","STATUT":null,"TELEPHONE":"02 40 72 65 43","THEME":6,"COMMUNE":"LA-CHAPELLE-SUR-ERDRE","LIBCATEGORIE":"Centre sportif","ADRESSE":"Chemin de Kerbihan","LIBTYPE":null,"_IDOBJ":3392,"TYPE":null,"CATEGORIE":601},"geometry":{"type":"Point","coordinates":[-1.53819311146626,47.2892751983587]}},{"type":"Feature","properties":{"geo":{"name":"Piste d'athlétisme"},"_l":[47.1543009732966,-1.68227255927785],"LIBTHEME":"SPORTS","CODE_POSTAL":44830,"WEB":null,"STATUT":null,"TELEPHONE":null,"THEME":6,"COMMUNE":"BOUAYE","LIBCATEGORIE":"Stade","ADRESSE":"Esplanade de l'Edit de Nantes","LIBTYPE":null,"_IDOBJ":3406,"TYPE":null,"CATEGORIE":606},"geometry":{"type":"Point","coordinates":[-1.68227255927785,47.1543009732966]}},{"type":"Feature","properties":{"geo":{"name":"Salle Léo Lagrange"},"_l":[47.2195633834591,-1.68346552493436],"LIBTHEME":"SPORTS","CODE_POSTAL":44220,"WEB":"www.ville-coueron.fr","STATUT":null,"TELEPHONE":null,"THEME":6,"COMMUNE":"COUERON","LIBCATEGORIE":"Gymnase","ADRESSE":"Rue de la Noë Allais","LIBTYPE":null,"_IDOBJ":3412,"TYPE":null,"CATEGORIE":603},"geometry":{"type":"Point","coordinates":[-1.68346552493436,47.2195633834591]}},{"type":"Feature","properties":{"geo":{"name":"Gymnase Paul Langevin"},"_l":[47.2140301476733,-1.72127239006127],"LIBTHEME":"SPORTS","CODE_POSTAL":44220,"WEB":null,"STATUT":null,"TELEPHONE":"02 40 85 46 60","THEME":6,"COMMUNE":"COUERON","LIBCATEGORIE":"Gymnase","ADRESSE":"Boulevard Paul Langevin","LIBTYPE":null,"_IDOBJ":3414,"TYPE":null,"CATEGORIE":603},"geometry":{"type":"Point","coordinates":[-1.72127239006127,47.2140301476733]}},{"type":"Feature","properties":{"geo":{"name":"Piste Bi-cross Couëron"},"_l":[47.2123101868461,-1.70294117334378],"LIBTHEME":"SPORTS","CODE_POSTAL":44220,"WEB":null,"STATUT":null,"TELEPHONE":null,"THEME":6,"COMMUNE":"COUERON","LIBCATEGORIE":"Autre équipement","ADRESSE":"Rue du Pont de Retz","LIBTYPE":null,"_IDOBJ":3417,"TYPE":null,"CATEGORIE":608},"geometry":{"type":"Point","coordinates":[-1.70294117334378,47.2123101868461]}},{"type":"Feature","properties":{"geo":{"name":"Boulodrome Indre"},"_l":[47.1973163153296,-1.67199390697825],"LIBTHEME":"SPORTS","CODE_POSTAL":44610,"WEB":null,"STATUT":null,"TELEPHONE":null,"THEME":6,"COMMUNE":"INDRE","LIBCATEGORIE":"Autre équipement","ADRESSE":"Quai Victor Boquien","LIBTYPE":null,"_IDOBJ":3423,"TYPE":null,"CATEGORIE":608},"geometry":{"type":"Point","coordinates":[-1.67199390697825,47.1973163153296]}},{"type":"Feature","properties":{"geo":{"name":"Salle de sport"},"_l":[47.2935906250654,-1.39044844263005],"LIBTHEME":"SPORTS","CODE_POSTAL":44470,"WEB":null,"STATUT":null,"TELEPHONE":null,"THEME":6,"COMMUNE":"MAUVES-SUR-LOIRE","LIBCATEGORIE":"Gymnase","ADRESSE":"11 Rue des Saulzais","LIBTYPE":null,"_IDOBJ":3427,"TYPE":null,"CATEGORIE":603},"geometry":{"type":"Point","coordinates":[-1.39044844263005,47.2935906250654]}},{"type":"Feature","properties":{"geo":{"name":"Centre Stévin"},"_l":[47.2594508036441,-1.63451043548246],"LIBTHEME":"SPORTS","CODE_POSTAL":44700,"WEB":"www.orvault.fr","STATUT":null,"TELEPHONE":null,"THEME":6,"COMMUNE":"ORVAULT","LIBCATEGORIE":"Centre sportif","ADRESSE":"10 Rue Stevin","LIBTYPE":null,"_IDOBJ":3435,"TYPE":null,"CATEGORIE":601},"geometry":{"type":"Point","coordinates":[-1.63451043548246,47.2594508036441]}},{"type":"Feature","properties":{"geo":{"name":"Tennis Orvault"},"_l":[47.2571645470284,-1.58156438456381],"LIBTHEME":"SPORTS","CODE_POSTAL":44700,"WEB":null,"STATUT":null,"TELEPHONE":null,"THEME":6,"COMMUNE":"ORVAULT","LIBCATEGORIE":"Tennis","ADRESSE":"40 Rue de la Mulonnière","LIBTYPE":null,"_IDOBJ":3441,"TYPE":null,"CATEGORIE":607},"geometry":{"type":"Point","coordinates":[-1.58156438456381,47.2571645470284]}},{"type":"Feature","properties":{"geo":{"name":"Plateau Multisports"},"_l":[47.2632318683259,-1.59694048733103],"LIBTHEME":"SPORTS","CODE_POSTAL":44700,"WEB":"www.orvault.fr","STATUT":null,"TELEPHONE":null,"THEME":6,"COMMUNE":"ORVAULT","LIBCATEGORIE":"Stade","ADRESSE":"22 Avenue du Petit Moulin","LIBTYPE":null,"_IDOBJ":3442,"TYPE":null,"CATEGORIE":606},"geometry":{"type":"Point","coordinates":[-1.59694048733103,47.2632318683259]}},{"type":"Feature","properties":{"geo":{"name":"Tennis Roger Picaud"},"_l":[47.2529330508998,-1.61156164440896],"LIBTHEME":"SPORTS","CODE_POSTAL":44700,"WEB":null,"STATUT":null,"TELEPHONE":null,"THEME":6,"COMMUNE":"ORVAULT","LIBCATEGORIE":"Tennis","ADRESSE":"112 Avenue Claude Antoine Peccot","LIBTYPE":null,"_IDOBJ":3443,"TYPE":null,"CATEGORIE":607},"geometry":{"type":"Point","coordinates":[-1.61156164440896,47.2529330508998]}},{"type":"Feature","properties":{"geo":{"name":"Piscine Roger Picaud"},"_l":[47.251124918662,-1.61012134345654],"LIBTHEME":"SPORTS","CODE_POSTAL":44700,"WEB":"www.orvault.fr","STATUT":null,"TELEPHONE":"02 40 63 30 40","THEME":6,"COMMUNE":"ORVAULT","LIBCATEGORIE":"Piscine","ADRESSE":"108B Avenue Claude Antoine Peccot","LIBTYPE":null,"_IDOBJ":3444,"TYPE":null,"CATEGORIE":604},"geometry":{"type":"Point","coordinates":[-1.61012134345654,47.251124918662]}},{"type":"Feature","properties":{"geo":{"name":"Stade de football stabilisé"},"_l":[47.1828093776348,-1.67502533343084],"LIBTHEME":"SPORTS","CODE_POSTAL":44620,"WEB":null,"STATUT":null,"TELEPHONE":null,"THEME":6,"COMMUNE":"LA-MONTAGNE","LIBCATEGORIE":"Stade","ADRESSE":"Allée du Château d'Aux","LIBTYPE":null,"_IDOBJ":3445,"TYPE":null,"CATEGORIE":606},"geometry":{"type":"Point","coordinates":[-1.67502533343084,47.1828093776348]}},{"type":"Feature","properties":{"geo":{"name":"Complexe Sports Loisirs Francis Lespinet"},"_l":[47.1827492524075,-1.67655751897517],"LIBTHEME":"SPORTS","CODE_POSTAL":44620,"WEB":"www.ville-lamontagne.fr","STATUT":null,"TELEPHONE":"02 40 65 80 91","THEME":6,"COMMUNE":"LA-MONTAGNE","LIBCATEGORIE":"Gymnase","ADRESSE":"Allée du Château d'Aux","LIBTYPE":null,"_IDOBJ":3449,"TYPE":null,"CATEGORIE":603},"geometry":{"type":"Point","coordinates":[-1.67655751897517,47.1827492524075]}},{"type":"Feature","properties":{"geo":{"name":"Courts de Tennis"},"_l":[47.1961900301957,-1.76158045857492],"LIBTHEME":"SPORTS","CODE_POSTAL":44640,"WEB":"www.ville-lepellerin.fr","STATUT":null,"TELEPHONE":null,"THEME":6,"COMMUNE":"LE-PELLERIN","LIBCATEGORIE":"Tennis","ADRESSE":"Rue de la Jouardais","LIBTYPE":null,"_IDOBJ":3458,"TYPE":null,"CATEGORIE":607},"geometry":{"type":"Point","coordinates":[-1.76158045857492,47.1961900301957]}},{"type":"Feature","properties":{"geo":{"name":"Terrain de pétanque"},"_l":[47.1960744912035,-1.75932744212281],"LIBTHEME":"SPORTS","CODE_POSTAL":44640,"WEB":"www.ville-lepellerin.fr","STATUT":null,"TELEPHONE":null,"THEME":6,"COMMUNE":"LE-PELLERIN","LIBCATEGORIE":"Autre équipement","ADRESSE":"Rue de la Jouardais","LIBTYPE":null,"_IDOBJ":3459,"TYPE":null,"CATEGORIE":608},"geometry":{"type":"Point","coordinates":[-1.75932744212281,47.1960744912035]}},{"type":"Feature","properties":{"geo":{"name":"Tennis Saint Aignan de Grand Lieu"},"_l":[47.1207193963842,-1.63772247513102],"LIBTHEME":"SPORTS","CODE_POSTAL":44860,"WEB":null,"STATUT":null,"TELEPHONE":null,"THEME":6,"COMMUNE":"SAINT-AIGNAN-GRANDLIEU","LIBCATEGORIE":"Tennis","ADRESSE":"Place Saint Amani","LIBTYPE":null,"_IDOBJ":3461,"TYPE":null,"CATEGORIE":607},"geometry":{"type":"Point","coordinates":[-1.63772247513102,47.1207193963842]}},{"type":"Feature","properties":{"geo":{"name":"Centre Sportif Jean Bertin"},"_l":[47.1247334436166,-1.63256472549327],"LIBTHEME":"SPORTS","CODE_POSTAL":44860,"WEB":null,"STATUT":null,"TELEPHONE":"02 40 26 44 44","THEME":6,"COMMUNE":"SAINT-AIGNAN-GRANDLIEU","LIBCATEGORIE":"Centre sportif","ADRESSE":"4 Rue des Frères Rousseau","LIBTYPE":null,"_IDOBJ":3465,"TYPE":null,"CATEGORIE":601},"geometry":{"type":"Point","coordinates":[-1.63256472549327,47.1247334436166]}},{"type":"Feature","properties":{"geo":{"name":"Plaine de Jeux de la Rive"},"_l":[47.1334304977231,-1.73297467088365],"LIBTHEME":"SPORTS","CODE_POSTAL":44710,"WEB":null,"STATUT":null,"TELEPHONE":null,"THEME":6,"COMMUNE":"SAINT-LEGER-LES-VIGNES","LIBCATEGORIE":"Plaine de jeux","ADRESSE":"Rue de la Rive","LIBTYPE":null,"_IDOBJ":3482,"TYPE":null,"CATEGORIE":605},"geometry":{"type":"Point","coordinates":[-1.73297467088365,47.1334304977231]}},{"type":"Feature","properties":{"geo":{"name":"Gymnase Marcel Le Bonniec"},"_l":[47.2582512018069,-1.49018590950255],"LIBTHEME":"SPORTS","CODE_POSTAL":44980,"WEB":null,"STATUT":null,"TELEPHONE":null,"THEME":6,"COMMUNE":"SAINTE-LUCE-SUR-LOIRE","LIBCATEGORIE":"Gymnase","ADRESSE":"53 Boulevard Louis Pasteur","LIBTYPE":null,"_IDOBJ":3489,"TYPE":null,"CATEGORIE":603},"geometry":{"type":"Point","coordinates":[-1.49018590950255,47.2582512018069]}},{"type":"Feature","properties":{"geo":{"name":"Gymnase Jules Léauté"},"_l":[47.1475885964023,-1.52505259448483],"LIBTHEME":"SPORTS","CODE_POSTAL":44840,"WEB":null,"STATUT":null,"TELEPHONE":"02 40 04 46 72","THEME":6,"COMMUNE":"LES-SORINIERES","LIBCATEGORIE":"Gymnase","ADRESSE":"Rue Hippolyte Derouet","LIBTYPE":null,"_IDOBJ":3495,"TYPE":null,"CATEGORIE":603},"geometry":{"type":"Point","coordinates":[-1.52505259448483,47.1475885964023]}},{"type":"Feature","properties":{"geo":{"name":"Salle de Judo Les Sorinières"},"_l":[47.1482185616221,-1.52296741885726],"LIBTHEME":"SPORTS","CODE_POSTAL":44840,"WEB":null,"STATUT":null,"TELEPHONE":null,"THEME":6,"COMMUNE":"LES-SORINIERES","LIBCATEGORIE":"Autre équipement","ADRESSE":"Rue des Papillons","LIBTYPE":null,"_IDOBJ":3497,"TYPE":null,"CATEGORIE":608},"geometry":{"type":"Point","coordinates":[-1.52296741885726,47.1482185616221]}},{"type":"Feature","properties":{"geo":{"name":"Complexe de loisirs Louis Barta"},"_l":[47.1500101560296,-1.51904656373622],"LIBTHEME":"SPORTS","CODE_POSTAL":44840,"WEB":null,"STATUT":null,"TELEPHONE":null,"THEME":6,"COMMUNE":"LES-SORINIERES","LIBCATEGORIE":"Plaine de jeux","ADRESSE":"Voie Non Dénommée 1981461","LIBTYPE":null,"_IDOBJ":3501,"TYPE":null,"CATEGORIE":605},"geometry":{"type":"Point","coordinates":[-1.51904656373622,47.1500101560296]}},{"type":"Feature","properties":{"geo":{"name":"Motocross Christian Bageot"},"_l":[47.1980987641279,-1.64003404395561],"LIBTHEME":"SPORTS","CODE_POSTAL":44800,"WEB":null,"STATUT":null,"TELEPHONE":null,"THEME":6,"COMMUNE":"ST-HERBLAIN","LIBCATEGORIE":"Autre équipement","ADRESSE":"Route Plessis Bouchet","LIBTYPE":null,"_IDOBJ":3529,"TYPE":null,"CATEGORIE":608},"geometry":{"type":"Point","coordinates":[-1.64003404395561,47.1980987641279]}},{"type":"Feature","properties":{"geo":{"name":"Tir à l'Arc Saint Herblain"},"_l":[47.2157731371012,-1.62048942265318],"LIBTHEME":"SPORTS","CODE_POSTAL":44800,"WEB":null,"STATUT":null,"TELEPHONE":null,"THEME":6,"COMMUNE":"ST-HERBLAIN","LIBCATEGORIE":"Autre équipement","ADRESSE":"Boulevard Salvador Allende","LIBTYPE":null,"_IDOBJ":3531,"TYPE":null,"CATEGORIE":608},"geometry":{"type":"Point","coordinates":[-1.62048942265318,47.2157731371012]}},{"type":"Feature","properties":{"geo":{"name":"Salle de Tennis de Table du Haut Vigneau"},"_l":[47.1596886310787,-1.52154017923406],"LIBTHEME":"SPORTS","CODE_POSTAL":44840,"WEB":"www.sorinieres-tt.eu","STATUT":null,"TELEPHONE":"02 28 00 98 86","THEME":6,"COMMUNE":"LES-SORINIERES","LIBCATEGORIE":"Autre équipement","ADRESSE":"61 Rue de la Maillardière","LIBTYPE":null,"_IDOBJ":3578,"TYPE":null,"CATEGORIE":608},"geometry":{"type":"Point","coordinates":[-1.52154017923406,47.1596886310787]}},{"type":"Feature","properties":{"geo":{"name":"Stade Georges Tougeron"},"_l":[47.1498081053604,-1.69313170407814],"LIBTHEME":"SPORTS","CODE_POSTAL":44830,"WEB":null,"STATUT":null,"TELEPHONE":null,"THEME":6,"COMMUNE":"BOUAYE","LIBCATEGORIE":"Stade","ADRESSE":"Rue du Stade","LIBTYPE":null,"_IDOBJ":3593,"TYPE":null,"CATEGORIE":606},"geometry":{"type":"Point","coordinates":[-1.69313170407814,47.1498081053604]}},{"type":"Feature","properties":{"geo":{"name":"Espace Multisport Sillon"},"_l":[47.24640950136,-1.60939669944129],"LIBTHEME":"SPORTS","CODE_POSTAL":44800,"WEB":"www.saint-herblain.fr","STATUT":null,"TELEPHONE":null,"THEME":6,"COMMUNE":"ST-HERBLAIN","LIBCATEGORIE":"Plaine de jeux","ADRESSE":"Avenue de l'Angevinière","LIBTYPE":null,"_IDOBJ":3607,"TYPE":null,"CATEGORIE":605},"geometry":{"type":"Point","coordinates":[-1.60939669944129,47.24640950136]}},{"type":"Feature","properties":{"geo":{"name":"Piscine Petite Amazonie"},"_l":[47.2163926638424,-1.5317100587433],"LIBTHEME":"SPORTS","CODE_POSTAL":44000,"WEB":null,"STATUT":"Ville de Nantes","TELEPHONE":null,"THEME":6,"COMMUNE":"NANTES","LIBCATEGORIE":"Piscine","ADRESSE":"15 Rue du Pont de l'Arche de Mauves","LIBTYPE":null,"_IDOBJ":3634,"TYPE":null,"CATEGORIE":604},"geometry":{"type":"Point","coordinates":[-1.5317100587433,47.2163926638424]}},{"type":"Feature","properties":{"geo":{"name":"Skate Park Ricordeau"},"_l":[47.2123074407887,-1.55351435609301],"LIBTHEME":"SPORTS","CODE_POSTAL":44000,"WEB":null,"STATUT":"municipal","TELEPHONE":null,"THEME":6,"COMMUNE":"NANTES","LIBCATEGORIE":"Autre équipement","ADRESSE":"Place Alexis Ricordeau","LIBTYPE":null,"_IDOBJ":3660,"TYPE":null,"CATEGORIE":608},"geometry":{"type":"Point","coordinates":[-1.55351435609301,47.2123074407887]}},{"type":"Feature","properties":{"geo":{"name":"Terrain Multisport Monteil"},"_l":[47.213201100097,-1.54869427347157],"LIBTHEME":"SPORTS","CODE_POSTAL":44000,"WEB":null,"STATUT":"Ville de Nantes","TELEPHONE":null,"THEME":6,"COMMUNE":"NANTES","LIBCATEGORIE":"Espace Sportif de Proximité","ADRESSE":"10 Rue Monteil","LIBTYPE":null,"_IDOBJ":3662,"TYPE":null,"CATEGORIE":609},"geometry":{"type":"Point","coordinates":[-1.54869427347157,47.213201100097]}},{"type":"Feature","properties":{"geo":{"name":"Boulodrome Noë Lambert"},"_l":[47.2309716832261,-1.52528828389541],"LIBTHEME":"SPORTS","CODE_POSTAL":44300,"WEB":null,"STATUT":"Ville de Nantes","TELEPHONE":null,"THEME":6,"COMMUNE":"NANTES","LIBCATEGORIE":"Autre équipement","ADRESSE":"20 Rue de la Haute Mitrie","LIBTYPE":null,"_IDOBJ":3683,"TYPE":null,"CATEGORIE":608},"geometry":{"type":"Point","coordinates":[-1.52528828389541,47.2309716832261]}},{"type":"Feature","properties":{"geo":{"name":"Terrain de Football"},"_l":[47.1762811485736,-1.46628233029004],"LIBTHEME":"SPORTS","CODE_POSTAL":44120,"WEB":null,"STATUT":null,"TELEPHONE":null,"THEME":6,"COMMUNE":"VERTOU","LIBCATEGORIE":"Stade","ADRESSE":"Rue du Bignonnet","LIBTYPE":null,"_IDOBJ":3788,"TYPE":null,"CATEGORIE":606},"geometry":{"type":"Point","coordinates":[-1.46628233029004,47.1762811485736]}},{"type":"Feature","properties":{"geo":{"name":"Plateau EPS"},"_l":[47.1759243946878,-1.46967483894057],"LIBTHEME":"SPORTS","CODE_POSTAL":44120,"WEB":null,"STATUT":null,"TELEPHONE":null,"THEME":6,"COMMUNE":"VERTOU","LIBCATEGORIE":"Autre équipement","ADRESSE":"Voie Non Dénommée 2151794","LIBTYPE":null,"_IDOBJ":3789,"TYPE":null,"CATEGORIE":608},"geometry":{"type":"Point","coordinates":[-1.46967483894057,47.1759243946878]}},{"type":"Feature","properties":{"geo":{"name":"Gymnase des Echalonnières"},"_l":[47.1767514191249,-1.47063261253475],"LIBTHEME":"SPORTS","CODE_POSTAL":44120,"WEB":null,"STATUT":null,"TELEPHONE":null,"THEME":6,"COMMUNE":"VERTOU","LIBCATEGORIE":"Gymnase","ADRESSE":"20 Boulevard Luc Dejoie","LIBTYPE":null,"_IDOBJ":3790,"TYPE":null,"CATEGORIE":603},"geometry":{"type":"Point","coordinates":[-1.47063261253475,47.1767514191249]}},{"type":"Feature","properties":{"geo":{"name":"Centre Equestre La Gourmette"},"_l":[47.2775056951158,-1.71206542059429],"LIBTHEME":"SPORTS","CODE_POSTAL":44880,"WEB":null,"STATUT":null,"TELEPHONE":"02 40 63 16 10","THEME":6,"COMMUNE":"SAUTRON","LIBCATEGORIE":"Autre équipement","ADRESSE":"RD 81","LIBTYPE":null,"_IDOBJ":3798,"TYPE":null,"CATEGORIE":608},"geometry":{"type":"Point","coordinates":[-1.71206542059429,47.2775056951158]}},{"type":"Feature","properties":{"geo":{"name":"Stade du Lycée Saint-Joseph du Loquidy"},"_l":[47.2380395352092,-1.55770409787929],"LIBTHEME":"SPORTS","CODE_POSTAL":44300,"WEB":null,"STATUT":"Privé","TELEPHONE":null,"THEME":6,"COMMUNE":"NANTES","LIBCATEGORIE":"Stade","ADRESSE":"75 Boulevard Michelet","LIBTYPE":null,"_IDOBJ":3801,"TYPE":null,"CATEGORIE":606},"geometry":{"type":"Point","coordinates":[-1.55770409787929,47.2380395352092]}},{"type":"Feature","properties":{"geo":{"name":"Stade Extérieur de l'Ecole Saint-Donatien"},"_l":[47.2282049176816,-1.54264710177785],"LIBTHEME":"SPORTS","CODE_POSTAL":44000,"WEB":null,"STATUT":"Et. scolaire privé","TELEPHONE":null,"THEME":6,"COMMUNE":"NANTES","LIBCATEGORIE":"Stade","ADRESSE":"15 Rue Saint Donatien","LIBTYPE":null,"_IDOBJ":3802,"TYPE":null,"CATEGORIE":606},"geometry":{"type":"Point","coordinates":[-1.54264710177785,47.2282049176816]}},{"type":"Feature","properties":{"geo":{"name":"Complexe Sportif Ecole Audencia"},"_l":[47.2461531019128,-1.55264320252789],"LIBTHEME":"SPORTS","CODE_POSTAL":44300,"WEB":null,"STATUT":"Privé","TELEPHONE":null,"THEME":6,"COMMUNE":"NANTES","LIBCATEGORIE":"Gymnase","ADRESSE":"8 Route de la Jonelière","LIBTYPE":null,"_IDOBJ":3803,"TYPE":null,"CATEGORIE":603},"geometry":{"type":"Point","coordinates":[-1.55264320252789,47.2461531019128]}},{"type":"Feature","properties":{"geo":{"name":"Gymnase du Collège François d'Amboise"},"_l":[47.2170338306072,-1.57052936495679],"LIBTHEME":"SPORTS","CODE_POSTAL":44000,"WEB":null,"STATUT":"Et. scolaire privé","TELEPHONE":null,"THEME":6,"COMMUNE":"NANTES","LIBCATEGORIE":"Gymnase","ADRESSE":"11 Rue Mondésir","LIBTYPE":null,"_IDOBJ":3804,"TYPE":null,"CATEGORIE":603},"geometry":{"type":"Point","coordinates":[-1.57052936495679,47.2170338306072]}},{"type":"Feature","properties":{"geo":{"name":"Stade Extérieur du Lycée François d'Amboise Chavagne"},"_l":[47.2171003160327,-1.57147215296726],"LIBTHEME":"SPORTS","CODE_POSTAL":44000,"WEB":null,"STATUT":"Et. scolaire privé","TELEPHONE":null,"THEME":6,"COMMUNE":"NANTES","LIBCATEGORIE":"Stade","ADRESSE":"11 Rue Mondésir","LIBTYPE":null,"_IDOBJ":3805,"TYPE":null,"CATEGORIE":606},"geometry":{"type":"Point","coordinates":[-1.57147215296726,47.2171003160327]}},{"type":"Feature","properties":{"geo":{"name":"Stade Extérieur du Collège Saint Jacques de Compostelle"},"_l":[47.1957367208518,-1.53933630810773],"LIBTHEME":"SPORTS","CODE_POSTAL":44200,"WEB":null,"STATUT":"Et. scolaire privé","TELEPHONE":null,"THEME":6,"COMMUNE":"NANTES","LIBCATEGORIE":"Stade","ADRESSE":"11 Rue Gabriel Goudy","LIBTYPE":null,"_IDOBJ":3806,"TYPE":null,"CATEGORIE":606},"geometry":{"type":"Point","coordinates":[-1.53933630810773,47.1957367208518]}},{"type":"Feature","properties":{"geo":{"name":"Stade Extérieur de l'Ecole Jean XXIII"},"_l":[47.2273651293697,-1.56543508178863],"LIBTHEME":"SPORTS","CODE_POSTAL":44000,"WEB":null,"STATUT":"Et. scolaire privé","TELEPHONE":null,"THEME":6,"COMMUNE":"NANTES","LIBCATEGORIE":"Stade","ADRESSE":"25 Rue Alphonse Daudet","LIBTYPE":null,"_IDOBJ":3808,"TYPE":null,"CATEGORIE":606},"geometry":{"type":"Point","coordinates":[-1.56543508178863,47.2273651293697]}},{"type":"Feature","properties":{"geo":{"name":"Stade Extérieur du Lycée la Perverie"},"_l":[47.242986031633,-1.56255058890073],"LIBTHEME":"SPORTS","CODE_POSTAL":44300,"WEB":null,"STATUT":"Et. scolaire privé","TELEPHONE":null,"THEME":6,"COMMUNE":"NANTES","LIBCATEGORIE":"Stade","ADRESSE":"63 Rue de la Perverie","LIBTYPE":null,"_IDOBJ":3812,"TYPE":null,"CATEGORIE":606},"geometry":{"type":"Point","coordinates":[-1.56255058890073,47.242986031633]}},{"type":"Feature","properties":{"geo":{"name":"Gymnase du Lycée du Sacré Coeur"},"_l":[47.207381111221,-1.60826308428151],"LIBTHEME":"SPORTS","CODE_POSTAL":44100,"WEB":null,"STATUT":"Et. scolaire privé","TELEPHONE":null,"THEME":6,"COMMUNE":"NANTES","LIBCATEGORIE":"Gymnase","ADRESSE":"3 Rue Francis Portais","LIBTYPE":null,"_IDOBJ":3813,"TYPE":null,"CATEGORIE":603},"geometry":{"type":"Point","coordinates":[-1.60826308428151,47.207381111221]}},{"type":"Feature","properties":{"geo":{"name":"Stade Extérieur du Lycée Saint Jean Baptiste de la Salle"},"_l":[47.2321665099077,-1.56041184291151],"LIBTHEME":"SPORTS","CODE_POSTAL":44000,"WEB":null,"STATUT":"Et. scolaire privé","TELEPHONE":null,"THEME":6,"COMMUNE":"NANTES","LIBCATEGORIE":"Stade","ADRESSE":"14 Rue du Ballet","LIBTYPE":null,"_IDOBJ":3814,"TYPE":null,"CATEGORIE":606},"geometry":{"type":"Point","coordinates":[-1.56041184291151,47.2321665099077]}},{"type":"Feature","properties":{"geo":{"name":"Stade Extérieur de l'Ecole Sainte Claire"},"_l":[47.2538918249718,-1.55701410351339],"LIBTHEME":"SPORTS","CODE_POSTAL":44300,"WEB":null,"STATUT":"Et. scolaire privé","TELEPHONE":null,"THEME":6,"COMMUNE":"NANTES","LIBCATEGORIE":"Stade","ADRESSE":"70 Rue de la Bourgeonnière","LIBTYPE":null,"_IDOBJ":3816,"TYPE":null,"CATEGORIE":606},"geometry":{"type":"Point","coordinates":[-1.55701410351339,47.2538918249718]}},{"type":"Feature","properties":{"geo":{"name":"Nantes Footindoor"},"_l":[47.2500011335154,-1.50709493942948],"LIBTHEME":"SPORTS","CODE_POSTAL":44300,"WEB":null,"STATUT":"Privé","TELEPHONE":null,"THEME":6,"COMMUNE":"NANTES","LIBCATEGORIE":"Autre équipement","ADRESSE":"17 Rue d'Athènes","LIBTYPE":null,"_IDOBJ":3817,"TYPE":null,"CATEGORIE":608},"geometry":{"type":"Point","coordinates":[-1.50709493942948,47.2500011335154]}},{"type":"Feature","properties":{"geo":{"name":"Gymnase CEPA"},"_l":[47.2122960037366,-1.55134942285908],"LIBTHEME":"SPORTS","CODE_POSTAL":44000,"WEB":null,"STATUT":"Privé","TELEPHONE":null,"THEME":6,"COMMUNE":"NANTES","LIBCATEGORIE":"Gymnase","ADRESSE":"9 Rue Pélisson","LIBTYPE":null,"_IDOBJ":3818,"TYPE":null,"CATEGORIE":603},"geometry":{"type":"Point","coordinates":[-1.55134942285908,47.2122960037366]}},{"type":"Feature","properties":{"geo":{"name":"Espace Sportif du Drac"},"_l":[47.204258764882,-1.60436243624183],"LIBTHEME":"SPORTS","CODE_POSTAL":44100,"WEB":null,"STATUT":"Ville de Nantes","TELEPHONE":null,"THEME":6,"COMMUNE":"NANTES","LIBCATEGORIE":"Espace Sportif de Proximité","ADRESSE":"Rue du Drac","LIBTYPE":null,"_IDOBJ":3896,"TYPE":null,"CATEGORIE":609},"geometry":{"type":"Point","coordinates":[-1.60436243624183,47.204258764882]}},{"type":"Feature","properties":{"geo":{"name":"Espace Spotif des Courtils"},"_l":[47.2006448286548,-1.59266498071941],"LIBTHEME":"SPORTS","CODE_POSTAL":44100,"WEB":null,"STATUT":"Ville de Nantes","TELEPHONE":null,"THEME":6,"COMMUNE":"NANTES","LIBCATEGORIE":"Espace Sportif de Proximité","ADRESSE":"Rue des Courtils","LIBTYPE":null,"_IDOBJ":3897,"TYPE":null,"CATEGORIE":609},"geometry":{"type":"Point","coordinates":[-1.59266498071941,47.2006448286548]}},{"type":"Feature","properties":{"geo":{"name":"Espace Sportif des Martyrs Irlandais"},"_l":[47.2077181434763,-1.61048376514402],"LIBTHEME":"SPORTS","CODE_POSTAL":44100,"WEB":null,"STATUT":"Ville de Nantes","TELEPHONE":null,"THEME":6,"COMMUNE":"NANTES","LIBCATEGORIE":"Espace Sportif de Proximité","ADRESSE":"Rue de l'Adour","LIBTYPE":null,"_IDOBJ":3898,"TYPE":null,"CATEGORIE":609},"geometry":{"type":"Point","coordinates":[-1.61048376514402,47.2077181434763]}},{"type":"Feature","properties":{"geo":{"name":"Espace Square Le Gigan"},"_l":[47.2044844489952,-1.59351011672659],"LIBTHEME":"SPORTS","CODE_POSTAL":44100,"WEB":null,"STATUT":"Ville de Nantes","TELEPHONE":null,"THEME":6,"COMMUNE":"NANTES","LIBCATEGORIE":"Espace Sportif de Proximité","ADRESSE":"29 Rue du Fonteny","LIBTYPE":null,"_IDOBJ":3899,"TYPE":null,"CATEGORIE":609},"geometry":{"type":"Point","coordinates":[-1.59351011672659,47.2044844489952]}},{"type":"Feature","properties":{"geo":{"name":"Espace Square Menier"},"_l":[47.2010874544765,-1.61160617685146],"LIBTHEME":"SPORTS","CODE_POSTAL":44100,"WEB":null,"STATUT":"Ville de Nantes","TELEPHONE":null,"THEME":6,"COMMUNE":"NANTES","LIBCATEGORIE":"Espace Sportif de Proximité","ADRESSE":"18 Rue du Parc Menier","LIBTYPE":null,"_IDOBJ":3900,"TYPE":null,"CATEGORIE":609},"geometry":{"type":"Point","coordinates":[-1.61160617685146,47.2010874544765]}},{"type":"Feature","properties":{"geo":{"name":"Espace Sportif Terrain A. Fournier"},"_l":[47.2046109159618,-1.60070048031775],"LIBTHEME":"SPORTS","CODE_POSTAL":44100,"WEB":null,"STATUT":"Ville de Nantes","TELEPHONE":null,"THEME":6,"COMMUNE":"NANTES","LIBCATEGORIE":"Espace Sportif de Proximité","ADRESSE":"87 Rue du Bois Hardy","LIBTYPE":null,"_IDOBJ":3901,"TYPE":null,"CATEGORIE":609},"geometry":{"type":"Point","coordinates":[-1.60070048031775,47.2046109159618]}},{"type":"Feature","properties":{"geo":{"name":"Espace Sportif Terrain du Petit Verger"},"_l":[47.2073848506105,-1.60361198834223],"LIBTHEME":"SPORTS","CODE_POSTAL":44100,"WEB":null,"STATUT":"Ville de Nantes","TELEPHONE":null,"THEME":6,"COMMUNE":"NANTES","LIBCATEGORIE":"Espace Sportif de Proximité","ADRESSE":"Avenue du Fruitier","LIBTYPE":null,"_IDOBJ":3902,"TYPE":null,"CATEGORIE":609},"geometry":{"type":"Point","coordinates":[-1.60361198834223,47.2073848506105]}},{"type":"Feature","properties":{"geo":{"name":"Espace Sportif ZAC Montplaisir"},"_l":[47.1998915071053,-1.60892584696039],"LIBTHEME":"SPORTS","CODE_POSTAL":44100,"WEB":null,"STATUT":"Ville de Nantes","TELEPHONE":null,"THEME":6,"COMMUNE":"NANTES","LIBCATEGORIE":"Espace Sportif de Proximité","ADRESSE":"Allée des Alizés","LIBTYPE":null,"_IDOBJ":3904,"TYPE":null,"CATEGORIE":609},"geometry":{"type":"Point","coordinates":[-1.60892584696039,47.1998915071053]}},{"type":"Feature","properties":{"geo":{"name":"Centre des Hebertistes"},"_l":[47.2213069311405,-1.58227742124368],"LIBTHEME":"SPORTS","CODE_POSTAL":44100,"WEB":null,"STATUT":"Privé","TELEPHONE":null,"THEME":6,"COMMUNE":"NANTES","LIBCATEGORIE":"Autre équipement","ADRESSE":"Rue des Bosquets","LIBTYPE":null,"_IDOBJ":3905,"TYPE":null,"CATEGORIE":608},"geometry":{"type":"Point","coordinates":[-1.58227742124368,47.2213069311405]}},{"type":"Feature","properties":{"geo":{"name":"Espace Sportif Meissonier"},"_l":[47.2247463435712,-1.59247267037624],"LIBTHEME":"SPORTS","CODE_POSTAL":44100,"WEB":null,"STATUT":"Ville de Nantes","TELEPHONE":null,"THEME":6,"COMMUNE":"NANTES","LIBCATEGORIE":"Espace Sportif de Proximité","ADRESSE":"Rue Ernest Meissonnier","LIBTYPE":null,"_IDOBJ":3906,"TYPE":null,"CATEGORIE":609},"geometry":{"type":"Point","coordinates":[-1.59247267037624,47.2247463435712]}},{"type":"Feature","properties":{"geo":{"name":"Salle de Musculation du Jamet - Bellevue"},"_l":[47.2103400239408,-1.60302864200755],"LIBTHEME":"SPORTS","CODE_POSTAL":44100,"WEB":null,"STATUT":"Ville de Nantes","TELEPHONE":"02 40 95 03 55","THEME":6,"COMMUNE":"NANTES","LIBCATEGORIE":"Autre équipement","ADRESSE":"61 Route de Saint Herblain","LIBTYPE":null,"_IDOBJ":3907,"TYPE":null,"CATEGORIE":608},"geometry":{"type":"Point","coordinates":[-1.60302864200755,47.2103400239408]}},{"type":"Feature","properties":{"geo":{"name":"Parc des Capucins"},"_l":[47.2318677534785,-1.56087286086086],"LIBTHEME":"SPORTS","CODE_POSTAL":44000,"WEB":null,"STATUT":"Ville de Nantes","TELEPHONE":null,"THEME":6,"COMMUNE":"NANTES","LIBCATEGORIE":"Espace Sportif de Proximité","ADRESSE":"14 Rue du Ballet","LIBTYPE":null,"_IDOBJ":3908,"TYPE":null,"CATEGORIE":609},"geometry":{"type":"Point","coordinates":[-1.56087286086086,47.2318677534785]}},{"type":"Feature","properties":{"geo":{"name":"Gymnase Lycée Michelet"},"_l":[47.235080589508,-1.55849994541011],"LIBTHEME":"SPORTS","CODE_POSTAL":44300,"WEB":null,"STATUT":"Région","TELEPHONE":null,"THEME":6,"COMMUNE":"NANTES","LIBCATEGORIE":"Gymnase","ADRESSE":"41 Boulevard Michelet","LIBTYPE":null,"_IDOBJ":3909,"TYPE":null,"CATEGORIE":603},"geometry":{"type":"Point","coordinates":[-1.55849994541011,47.235080589508]}},{"type":"Feature","properties":{"geo":{"name":"Espace Sportif Malakoff"},"_l":[47.2162064931775,-1.52077937985436],"LIBTHEME":"SPORTS","CODE_POSTAL":44000,"WEB":null,"STATUT":"Ville de Nantes","TELEPHONE":null,"THEME":6,"COMMUNE":"NANTES","LIBCATEGORIE":"Espace Sportif de Proximité","ADRESSE":"Rue de Corse","LIBTYPE":null,"_IDOBJ":3910,"TYPE":null,"CATEGORIE":609},"geometry":{"type":"Point","coordinates":[-1.52077937985436,47.2162064931775]}},{"type":"Feature","properties":{"geo":{"name":"Espace Sportif Noe Mitrie"},"_l":[47.2279541332966,-1.52634402218328],"LIBTHEME":"SPORTS","CODE_POSTAL":44000,"WEB":null,"STATUT":"Ville de Nantes","TELEPHONE":null,"THEME":6,"COMMUNE":"NANTES","LIBCATEGORIE":"Espace Sportif de Proximité","ADRESSE":"5 Boulevard Ernest Dalby","LIBTYPE":null,"_IDOBJ":3911,"TYPE":null,"CATEGORIE":609},"geometry":{"type":"Point","coordinates":[-1.52634402218328,47.2279541332966]}},{"type":"Feature","properties":{"geo":{"name":"Espace Sportif Moutonnerie"},"_l":[47.2209116115039,-1.53364946392769],"LIBTHEME":"SPORTS","CODE_POSTAL":44000,"WEB":null,"STATUT":"Ville de Nantes","TELEPHONE":null,"THEME":6,"COMMUNE":"NANTES","LIBCATEGORIE":"Espace Sportif de Proximité","ADRESSE":"Rue Francisco Ferrer","LIBTYPE":null,"_IDOBJ":3912,"TYPE":null,"CATEGORIE":609},"geometry":{"type":"Point","coordinates":[-1.53364946392769,47.2209116115039]}},{"type":"Feature","properties":{"geo":{"name":"Gymnase Caserne Gouzet"},"_l":[47.2211726221364,-1.54784219590003],"LIBTHEME":"SPORTS","CODE_POSTAL":44000,"WEB":null,"STATUT":"Département","TELEPHONE":null,"THEME":6,"COMMUNE":"NANTES","LIBCATEGORIE":"Gymnase","ADRESSE":"47 Rue Maréchal Joffre","LIBTYPE":null,"_IDOBJ":3913,"TYPE":null,"CATEGORIE":603},"geometry":{"type":"Point","coordinates":[-1.54784219590003,47.2211726221364]}},{"type":"Feature","properties":{"geo":{"name":"Gymnase Lycée Livet"},"_l":[47.2252434277332,-1.54480366255878],"LIBTHEME":"SPORTS","CODE_POSTAL":44000,"WEB":null,"STATUT":"Région","TELEPHONE":null,"THEME":6,"COMMUNE":"NANTES","LIBCATEGORIE":"Gymnase","ADRESSE":"16 Rue Dufour","LIBTYPE":null,"_IDOBJ":3914,"TYPE":null,"CATEGORIE":603},"geometry":{"type":"Point","coordinates":[-1.54480366255878,47.2252434277332]}},{"type":"Feature","properties":{"geo":{"name":"Terrain multisports Sébilleau"},"_l":[47.2052549515569,-1.53163551400006],"LIBTHEME":"SPORTS","CODE_POSTAL":44200,"WEB":"www.iledenantes.com","STATUT":"Ville de Nantes","TELEPHONE":null,"THEME":6,"COMMUNE":"NANTES","LIBCATEGORIE":"Espace Sportif de Proximité","ADRESSE":"Rue Docteur Jules Sébilleau","LIBTYPE":null,"_IDOBJ":3917,"TYPE":null,"CATEGORIE":609},"geometry":{"type":"Point","coordinates":[-1.53163551400006,47.2052549515569]}},{"type":"Feature","properties":{"geo":{"name":"Boulodrome du Breil"},"_l":[47.2314200917769,-1.58148771094116],"LIBTHEME":"SPORTS","CODE_POSTAL":44100,"WEB":null,"STATUT":"Ville de Nantes","TELEPHONE":null,"THEME":6,"COMMUNE":"NANTES","LIBCATEGORIE":"Autre équipement","ADRESSE":"Rue de Malville","LIBTYPE":null,"_IDOBJ":3918,"TYPE":null,"CATEGORIE":608},"geometry":{"type":"Point","coordinates":[-1.58148771094116,47.2314200917769]}},{"type":"Feature","properties":{"geo":{"name":"Skate Schuman"},"_l":[47.2416435521858,-1.5727031517998],"LIBTHEME":"SPORTS","CODE_POSTAL":44300,"WEB":null,"STATUT":"Ville de Nantes","TELEPHONE":null,"THEME":6,"COMMUNE":"NANTES","LIBCATEGORIE":"Autre équipement","ADRESSE":"Boulevard Robert Schuman","LIBTYPE":null,"_IDOBJ":3920,"TYPE":null,"CATEGORIE":608},"geometry":{"type":"Point","coordinates":[-1.5727031517998,47.2416435521858]}},{"type":"Feature","properties":{"geo":{"name":"Base Nautique de l'UNA"},"_l":[47.2367088534381,-1.55129617973765],"LIBTHEME":"SPORTS","CODE_POSTAL":44300,"WEB":null,"STATUT":"Etat","TELEPHONE":null,"THEME":6,"COMMUNE":"NANTES","LIBCATEGORIE":"Autre équipement","ADRESSE":"Chemin de la Houssinière","LIBTYPE":null,"_IDOBJ":3921,"TYPE":null,"CATEGORIE":608},"geometry":{"type":"Point","coordinates":[-1.55129617973765,47.2367088534381]}},{"type":"Feature","properties":{"geo":{"name":"Stand de Tir des Jamonières"},"_l":[47.2570977823384,-1.540807058322],"LIBTHEME":"SPORTS","CODE_POSTAL":44240,"WEB":null,"STATUT":"Ville de Nantes","TELEPHONE":null,"THEME":6,"COMMUNE":"LA-CHAPELLE-SUR-ERDRE","LIBCATEGORIE":"Autre équipement","ADRESSE":"Route de la Jonelière","LIBTYPE":null,"_IDOBJ":3923,"TYPE":null,"CATEGORIE":608},"geometry":{"type":"Point","coordinates":[-1.540807058322,47.2570977823384]}},{"type":"Feature","properties":{"geo":{"name":"Plateau Sportif Winnipeg"},"_l":[47.2595297012164,-1.57826013212345],"LIBTHEME":"SPORTS","CODE_POSTAL":44300,"WEB":null,"STATUT":"Ville de Nantes","TELEPHONE":null,"THEME":6,"COMMUNE":"NANTES","LIBCATEGORIE":"Espace Sportif de Proximité","ADRESSE":"Rue de Vancouver","LIBTYPE":null,"_IDOBJ":3924,"TYPE":null,"CATEGORIE":609},"geometry":{"type":"Point","coordinates":[-1.57826013212345,47.2595297012164]}},{"type":"Feature","properties":{"geo":{"name":"Plateau Sportif André Chénier"},"_l":[47.2533733262975,-1.56724591076149],"LIBTHEME":"SPORTS","CODE_POSTAL":44300,"WEB":null,"STATUT":"Ville de Nantes","TELEPHONE":null,"THEME":6,"COMMUNE":"NANTES","LIBCATEGORIE":"Espace Sportif de Proximité","ADRESSE":"Rue André Chénier","LIBTYPE":null,"_IDOBJ":3925,"TYPE":null,"CATEGORIE":609},"geometry":{"type":"Point","coordinates":[-1.56724591076149,47.2533733262975]}},{"type":"Feature","properties":{"geo":{"name":"Espace Sportif Paul Gauguin"},"_l":[47.219890502139,-1.59330467562418],"LIBTHEME":"SPORTS","CODE_POSTAL":44100,"WEB":null,"STATUT":"Ville de Nantes","TELEPHONE":null,"THEME":6,"COMMUNE":"NANTES","LIBCATEGORIE":"Espace Sportif de Proximité","ADRESSE":"Rue Paul Gauguin","LIBTYPE":null,"_IDOBJ":3926,"TYPE":null,"CATEGORIE":609},"geometry":{"type":"Point","coordinates":[-1.59330467562418,47.219890502139]}},{"type":"Feature","properties":{"geo":{"name":"Plateau Sportif de la Géraudière"},"_l":[47.258481052182,-1.56767475232835],"LIBTHEME":"SPORTS","CODE_POSTAL":44300,"WEB":null,"STATUT":"Ville de Nantes","TELEPHONE":null,"THEME":6,"COMMUNE":"NANTES","LIBCATEGORIE":"Espace Sportif de Proximité","ADRESSE":"Rue des Renards","LIBTYPE":null,"_IDOBJ":3927,"TYPE":null,"CATEGORIE":609},"geometry":{"type":"Point","coordinates":[-1.56767475232835,47.258481052182]}},{"type":"Feature","properties":{"geo":{"name":"Centre Sportif de la Faculté de Lettres"},"_l":[47.245440041888,-1.54886479935527],"LIBTHEME":"SPORTS","CODE_POSTAL":44300,"WEB":null,"STATUT":"Etat","TELEPHONE":null,"THEME":6,"COMMUNE":"NANTES","LIBCATEGORIE":"Centre sportif","ADRESSE":"Rue de l'Ile d'Yeu","LIBTYPE":null,"_IDOBJ":3929,"TYPE":null,"CATEGORIE":601},"geometry":{"type":"Point","coordinates":[-1.54886479935527,47.245440041888]}},{"type":"Feature","properties":{"geo":{"name":"UFR STAPS"},"_l":[47.2516895143255,-1.55531376070076],"LIBTHEME":"SPORTS","CODE_POSTAL":44300,"WEB":null,"STATUT":"Etat","TELEPHONE":null,"THEME":6,"COMMUNE":"NANTES","LIBCATEGORIE":"Gymnase","ADRESSE":"25 Boulevard Guy Mollet","LIBTYPE":null,"_IDOBJ":3930,"TYPE":null,"CATEGORIE":603},"geometry":{"type":"Point","coordinates":[-1.55531376070076,47.2516895143255]}},{"type":"Feature","properties":{"geo":{"name":"Plaine de Jeux St-Joseph de Porterie"},"_l":[47.2717515568959,-1.51866644850178],"LIBTHEME":"SPORTS","CODE_POSTAL":44300,"WEB":null,"STATUT":"Ville de Nantes","TELEPHONE":null,"THEME":6,"COMMUNE":"NANTES","LIBCATEGORIE":"Plaine de jeux","ADRESSE":"Route de Saint Joseph","LIBTYPE":null,"_IDOBJ":3931,"TYPE":null,"CATEGORIE":605},"geometry":{"type":"Point","coordinates":[-1.51866644850178,47.2717515568959]}},{"type":"Feature","properties":{"geo":{"name":"Equipement Sportif des Quatre Jeudis"},"_l":[47.2662235402302,-1.52053450198753],"LIBTHEME":"SPORTS","CODE_POSTAL":44300,"WEB":null,"STATUT":"Ville de Nantes","TELEPHONE":null,"THEME":6,"COMMUNE":"NANTES","LIBCATEGORIE":"Espace Sportif de Proximité","ADRESSE":"Passage des Tauzins","LIBTYPE":null,"_IDOBJ":3932,"TYPE":null,"CATEGORIE":609},"geometry":{"type":"Point","coordinates":[-1.52053450198753,47.2662235402302]}},{"type":"Feature","properties":{"geo":{"name":"Espace Sportif Louis Pergaud"},"_l":[47.2680687130896,-1.51982819492898],"LIBTHEME":"SPORTS","CODE_POSTAL":44300,"WEB":null,"STATUT":"Ville de Nantes","TELEPHONE":null,"THEME":6,"COMMUNE":"NANTES","LIBCATEGORIE":"Espace Sportif de Proximité","ADRESSE":"Route de Saint Joseph","LIBTYPE":null,"_IDOBJ":3934,"TYPE":null,"CATEGORIE":609},"geometry":{"type":"Point","coordinates":[-1.51982819492898,47.2680687130896]}},{"type":"Feature","properties":{"geo":{"name":"Espace Sportif Ecole du Linot"},"_l":[47.2682287243193,-1.5285551638079],"LIBTHEME":"SPORTS","CODE_POSTAL":44300,"WEB":null,"STATUT":"Ville de Nantes","TELEPHONE":null,"THEME":6,"COMMUNE":"NANTES","LIBCATEGORIE":"Espace Sportif de Proximité","ADRESSE":"43B Rue du Port des Charrettes","LIBTYPE":null,"_IDOBJ":3935,"TYPE":null,"CATEGORIE":609},"geometry":{"type":"Point","coordinates":[-1.5285551638079,47.2682287243193]}},{"type":"Feature","properties":{"geo":{"name":"Complexe Sportif Ecole des Mines"},"_l":[47.2817070942818,-1.52093090870516],"LIBTHEME":"SPORTS","CODE_POSTAL":44300,"WEB":null,"STATUT":"Etat","TELEPHONE":null,"THEME":6,"COMMUNE":"NANTES","LIBCATEGORIE":"Centre sportif","ADRESSE":"4 Rue Alfred Kastler","LIBTYPE":null,"_IDOBJ":3936,"TYPE":null,"CATEGORIE":601},"geometry":{"type":"Point","coordinates":[-1.52093090870516,47.2817070942818]}},{"type":"Feature","properties":{"geo":{"name":"Plaine de Jeux du Lycée de la Colinière"},"_l":[47.2354161995634,-1.51229825260666],"LIBTHEME":"SPORTS","CODE_POSTAL":44300,"WEB":null,"STATUT":"Région","TELEPHONE":null,"THEME":6,"COMMUNE":"NANTES","LIBCATEGORIE":"Plaine de jeux","ADRESSE":"129 Rue du Landreau","LIBTYPE":null,"_IDOBJ":3937,"TYPE":null,"CATEGORIE":605},"geometry":{"type":"Point","coordinates":[-1.51229825260666,47.2354161995634]}},{"type":"Feature","properties":{"geo":{"name":"Halle de Tennis de la Marrière"},"_l":[47.2368185757269,-1.52784818256959],"LIBTHEME":"SPORTS","CODE_POSTAL":44300,"WEB":null,"STATUT":"Ville de Nantes","TELEPHONE":null,"THEME":6,"COMMUNE":"NANTES","LIBCATEGORIE":"Tennis","ADRESSE":"95 Rue de la Marrière","LIBTYPE":null,"_IDOBJ":3938,"TYPE":null,"CATEGORIE":607},"geometry":{"type":"Point","coordinates":[-1.52784818256959,47.2368185757269]}},{"type":"Feature","properties":{"geo":{"name":"Equipement Sportif Marché de la Marrière"},"_l":[47.2341578249064,-1.53252726238317],"LIBTHEME":"SPORTS","CODE_POSTAL":44300,"WEB":null,"STATUT":"Ville de Nantes","TELEPHONE":null,"THEME":6,"COMMUNE":"NANTES","LIBCATEGORIE":"Espace Sportif de Proximité","ADRESSE":"27 Rue de la Marrière","LIBTYPE":null,"_IDOBJ":3939,"TYPE":null,"CATEGORIE":609},"geometry":{"type":"Point","coordinates":[-1.53252726238317,47.2341578249064]}},{"type":"Feature","properties":{"geo":{"name":"AEP Saint-Médard"},"_l":[47.239935244659,-1.5051183545599],"LIBTHEME":"SPORTS","CODE_POSTAL":44300,"WEB":null,"STATUT":"Privé","TELEPHONE":null,"THEME":6,"COMMUNE":"NANTES","LIBCATEGORIE":"Centre sportif","ADRESSE":"72 Rue du Pontereau","LIBTYPE":null,"_IDOBJ":3940,"TYPE":null,"CATEGORIE":601},"geometry":{"type":"Point","coordinates":[-1.5051183545599,47.239935244659]}},{"type":"Feature","properties":{"geo":{"name":"Equipement Sportif du Square A. Fresnel"},"_l":[47.2426956453976,-1.52266565989614],"LIBTHEME":"SPORTS","CODE_POSTAL":44300,"WEB":null,"STATUT":"Ville de Nantes","TELEPHONE":null,"THEME":6,"COMMUNE":"NANTES","LIBCATEGORIE":"Espace Sportif de Proximité","ADRESSE":"Rue Augustin Fresnel","LIBTYPE":null,"_IDOBJ":3941,"TYPE":null,"CATEGORIE":609},"geometry":{"type":"Point","coordinates":[-1.52266565989614,47.2426956453976]}},{"type":"Feature","properties":{"geo":{"name":"Plaine de Jeux de la Noë Lambert"},"_l":[47.2300547381758,-1.52586312329866],"LIBTHEME":"SPORTS","CODE_POSTAL":44300,"WEB":null,"STATUT":"Ville de Nantes","TELEPHONE":null,"THEME":6,"COMMUNE":"NANTES","LIBCATEGORIE":"Plaine de jeux","ADRESSE":"21 Route de Sainte Luce","LIBTYPE":null,"_IDOBJ":3942,"TYPE":null,"CATEGORIE":605},"geometry":{"type":"Point","coordinates":[-1.52586312329866,47.2300547381758]}},{"type":"Feature","properties":{"geo":{"name":"Salle de Boxe Bottière Nantes Est"},"_l":[47.2406744968973,-1.52102580886387],"LIBTHEME":"SPORTS","CODE_POSTAL":44300,"WEB":null,"STATUT":"Ville de Nantes","TELEPHONE":null,"THEME":6,"COMMUNE":"NANTES","LIBCATEGORIE":"Autre équipement","ADRESSE":"83 Rue Félix Ménétrier","LIBTYPE":null,"_IDOBJ":3943,"TYPE":null,"CATEGORIE":608},"geometry":{"type":"Point","coordinates":[-1.52102580886387,47.2406744968973]}},{"type":"Feature","properties":{"geo":{"name":"Equipement Sportif de la Haluchère"},"_l":[47.2474595193242,-1.51227991311785],"LIBTHEME":"SPORTS","CODE_POSTAL":44300,"WEB":null,"STATUT":"Ville de Nantes","TELEPHONE":null,"THEME":6,"COMMUNE":"NANTES","LIBCATEGORIE":"Espace Sportif de Proximité","ADRESSE":"Rue Jules Grandjouan","LIBTYPE":null,"_IDOBJ":3944,"TYPE":null,"CATEGORIE":609},"geometry":{"type":"Point","coordinates":[-1.51227991311785,47.2474595193242]}},{"type":"Feature","properties":{"geo":{"name":"Equipement Sportif de la Bottière"},"_l":[47.2358561844833,-1.51988070382336],"LIBTHEME":"SPORTS","CODE_POSTAL":44300,"WEB":null,"STATUT":"Ville de Nantes","TELEPHONE":null,"THEME":6,"COMMUNE":"NANTES","LIBCATEGORIE":"Espace Sportif de Proximité","ADRESSE":"Rue Alfred Nobel","LIBTYPE":null,"_IDOBJ":3945,"TYPE":null,"CATEGORIE":609},"geometry":{"type":"Point","coordinates":[-1.51988070382336,47.2358561844833]}},{"type":"Feature","properties":{"geo":{"name":"Gymnase Lycée L. de Vinci"},"_l":[47.2382229711751,-1.52201727131023],"LIBTHEME":"SPORTS","CODE_POSTAL":44300,"WEB":null,"STATUT":"Région","TELEPHONE":null,"THEME":6,"COMMUNE":"NANTES","LIBCATEGORIE":"Gymnase","ADRESSE":"31 Rue de la Bottière","LIBTYPE":null,"_IDOBJ":3948,"TYPE":null,"CATEGORIE":603},"geometry":{"type":"Point","coordinates":[-1.52201727131023,47.2382229711751]}},{"type":"Feature","properties":{"geo":{"name":"Terrain de Handball Notre Dame de la Sagesse"},"_l":[47.1955645171836,-1.53959049891492],"LIBTHEME":"SPORTS","CODE_POSTAL":44200,"WEB":null,"STATUT":"Et. scolaire privé","TELEPHONE":null,"THEME":6,"COMMUNE":"NANTES","LIBCATEGORIE":"Autre équipement","ADRESSE":"14 Rue Frère Louis","LIBTYPE":null,"_IDOBJ":3949,"TYPE":null,"CATEGORIE":608},"geometry":{"type":"Point","coordinates":[-1.53959049891492,47.1955645171836]}},{"type":"Feature","properties":{"geo":{"name":"Boulodrome du Bèle"},"_l":[47.2598818439842,-1.51301291030959],"LIBTHEME":"SPORTS","CODE_POSTAL":44300,"WEB":null,"STATUT":"Ville de Nantes","TELEPHONE":null,"THEME":6,"COMMUNE":"NANTES","LIBCATEGORIE":"Autre équipement","ADRESSE":"16 Boulevard de la Beaujoire","LIBTYPE":null,"_IDOBJ":3953,"TYPE":null,"CATEGORIE":608},"geometry":{"type":"Point","coordinates":[-1.51301291030959,47.2598818439842]}},{"type":"Feature","properties":{"geo":{"name":"Bowling de l'Erdre"},"_l":[47.3018248360051,-1.50361701293574],"LIBTHEME":"SPORTS","CODE_POSTAL":44470,"WEB":"www.bowling-erdre.fr","STATUT":null,"TELEPHONE":"02 40 52 79 12","THEME":6,"COMMUNE":"CARQUEFOU","LIBCATEGORIE":"Autre équipement","ADRESSE":"24 Boulevard Ampère","LIBTYPE":null,"_IDOBJ":3957,"TYPE":null,"CATEGORIE":608},"geometry":{"type":"Point","coordinates":[-1.50361701293574,47.3018248360051]}},{"type":"Feature","properties":{"geo":{"name":"Terrain multisports Millerand"},"_l":[47.2091102616296,-1.53037444889631],"LIBTHEME":"SPORTS","CODE_POSTAL":44200,"WEB":"www.iledenantes.com","STATUT":"Ville de Nantes","TELEPHONE":null,"THEME":6,"COMMUNE":"NANTES","LIBCATEGORIE":"Espace Sportif de Proximité","ADRESSE":"Rue du Général de Bollardière","LIBTYPE":null,"_IDOBJ":3970,"TYPE":null,"CATEGORIE":609},"geometry":{"type":"Point","coordinates":[-1.53037444889631,47.2091102616296]}},{"type":"Feature","properties":{"geo":{"name":"Espace Sportif Le Souchais"},"_l":[47.3039615378976,-1.50241580552544],"LIBTHEME":"SPORTS","CODE_POSTAL":44470,"WEB":"www.carquefou.fr","STATUT":null,"TELEPHONE":null,"THEME":6,"COMMUNE":"CARQUEFOU","LIBCATEGORIE":"Centre sportif","ADRESSE":"1 Avenue de la Loire","LIBTYPE":null,"_IDOBJ":4039,"TYPE":null,"CATEGORIE":601},"geometry":{"type":"Point","coordinates":[-1.50241580552544,47.3039615378976]}},{"type":"Feature","properties":{"geo":{"name":"Espace Sportif Louis Le Nain"},"_l":[47.2258162797341,-1.59817455093445],"LIBTHEME":"SPORTS","CODE_POSTAL":44100,"WEB":"www.nantes.fr","STATUT":"Public","TELEPHONE":null,"THEME":6,"COMMUNE":"NANTES","LIBCATEGORIE":"Espace Sportif de Proximité","ADRESSE":"Rue Louis Le Nain","LIBTYPE":null,"_IDOBJ":4044,"TYPE":null,"CATEGORIE":609},"geometry":{"type":"Point","coordinates":[-1.59817455093445,47.2258162797341]}},{"type":"Feature","properties":{"geo":{"name":"Gymnase Bottière Chênaie"},"_l":[47.237434063416,-1.51413692175225],"LIBTHEME":"SPORTS","CODE_POSTAL":44300,"WEB":null,"STATUT":null,"TELEPHONE":"02 40 50 40 38","THEME":6,"COMMUNE":"NANTES","LIBCATEGORIE":"Gymnase","ADRESSE":"Rue des Carnavaliers","LIBTYPE":null,"_IDOBJ":4102,"TYPE":null,"CATEGORIE":603},"geometry":{"type":"Point","coordinates":[-1.51413692175225,47.237434063416]}},{"type":"Feature","properties":{"geo":{"name":"Stadium Métropolitain Pierre Quinon"},"_l":[47.2488734221852,-1.55557682568905],"LIBTHEME":"SPORTS","CODE_POSTAL":44300,"WEB":"www.nantesmetropole.fr","STATUT":null,"TELEPHONE":null,"THEME":6,"COMMUNE":"NANTES","LIBCATEGORIE":"Gymnase","ADRESSE":"19 Boulevard Guy Mollet","LIBTYPE":null,"_IDOBJ":4113,"TYPE":null,"CATEGORIE":603},"geometry":{"type":"Point","coordinates":[-1.55557682568905,47.2488734221852]}},{"type":"Feature","properties":{"geo":{"name":"Gymnase Port-au-Blé"},"_l":[47.1902520445376,-1.55287080054853],"LIBTHEME":"SPORTS","CODE_POSTAL":44400,"WEB":"www.reze.fr","STATUT":null,"TELEPHONE":null,"THEME":6,"COMMUNE":"REZE","LIBCATEGORIE":"Gymnase","ADRESSE":"Avenue André Malraux","LIBTYPE":null,"_IDOBJ":4114,"TYPE":null,"CATEGORIE":603},"geometry":{"type":"Point","coordinates":[-1.55287080054853,47.1902520445376]}},{"type":"Feature","properties":{"geo":{"name":"Gymnase Arthur-Dugast"},"_l":[47.1654797011878,-1.54438743967666],"LIBTHEME":"SPORTS","CODE_POSTAL":44400,"WEB":"www.reze.fr","STATUT":null,"TELEPHONE":"02 40 32 51 20","THEME":6,"COMMUNE":"REZE","LIBCATEGORIE":"Gymnase","ADRESSE":"22 Boulevard Jean Monnet","LIBTYPE":null,"_IDOBJ":4132,"TYPE":null,"CATEGORIE":603},"geometry":{"type":"Point","coordinates":[-1.54438743967666,47.1654797011878]}},{"type":"Feature","properties":{"geo":{"name":"Espace Multisport Solvardière"},"_l":[47.2166995009956,-1.64176082507584],"LIBTHEME":"SPORTS","CODE_POSTAL":44800,"WEB":null,"STATUT":null,"TELEPHONE":null,"THEME":6,"COMMUNE":"ST-HERBLAIN","LIBCATEGORIE":"Plaine de jeux","ADRESSE":"5 Chemin de la Solvardière","LIBTYPE":null,"_IDOBJ":4151,"TYPE":null,"CATEGORIE":605},"geometry":{"type":"Point","coordinates":[-1.64176082507584,47.2166995009956]}},{"type":"Feature","properties":{"geo":{"name":"Espace Multisport Censive"},"_l":[47.2104096584847,-1.61158809549252],"LIBTHEME":"SPORTS","CODE_POSTAL":44800,"WEB":"www.saint-herblain.fr","STATUT":null,"TELEPHONE":null,"THEME":6,"COMMUNE":"ST-HERBLAIN","LIBCATEGORIE":"Plaine de jeux","ADRESSE":"21 Rue de Bordeaux","LIBTYPE":null,"_IDOBJ":4152,"TYPE":null,"CATEGORIE":605},"geometry":{"type":"Point","coordinates":[-1.61158809549252,47.2104096584847]}},{"type":"Feature","properties":{"geo":{"name":"Espace Multisport Crémetterie"},"_l":[47.215451784303,-1.60905162935041],"LIBTHEME":"SPORTS","CODE_POSTAL":44800,"WEB":"www.saint-herblain.fr","STATUT":null,"TELEPHONE":null,"THEME":6,"COMMUNE":"ST-HERBLAIN","LIBCATEGORIE":"Plaine de jeux","ADRESSE":"15 Rue de l'Ecole","LIBTYPE":null,"_IDOBJ":4153,"TYPE":null,"CATEGORIE":605},"geometry":{"type":"Point","coordinates":[-1.60905162935041,47.215451784303]}},{"type":"Feature","properties":{"geo":{"name":"Tennis"},"_l":[47.1345345540375,-1.73271134771113],"LIBTHEME":"SPORTS","CODE_POSTAL":44710,"WEB":null,"STATUT":null,"TELEPHONE":null,"THEME":6,"COMMUNE":"SAINT-LEGER-LES-VIGNES","LIBCATEGORIE":"Tennis","ADRESSE":"Rue de la Rive","LIBTYPE":null,"_IDOBJ":4161,"TYPE":null,"CATEGORIE":607},"geometry":{"type":"Point","coordinates":[-1.73271134771113,47.1345345540375]}},{"type":"Feature","properties":{"geo":{"name":"Court de Tennis"},"_l":[47.2009617615033,-1.66875796124264],"LIBTHEME":"SPORTS","CODE_POSTAL":44610,"WEB":null,"STATUT":null,"TELEPHONE":null,"THEME":6,"COMMUNE":"INDRE","LIBCATEGORIE":"Tennis","ADRESSE":"Rue de la Gare","LIBTYPE":null,"_IDOBJ":4166,"TYPE":null,"CATEGORIE":607},"geometry":{"type":"Point","coordinates":[-1.66875796124264,47.2009617615033]}},{"type":"Feature","properties":{"geo":{"name":"Cercle Nautique d'Indre"},"_l":[47.1960700438542,-1.66910329129323],"LIBTHEME":"SPORTS","CODE_POSTAL":44610,"WEB":null,"STATUT":null,"TELEPHONE":"02 40 85 05 37","THEME":6,"COMMUNE":"INDRE","LIBCATEGORIE":"Centre sportif","ADRESSE":"Quai Henri Brunais","LIBTYPE":null,"_IDOBJ":4168,"TYPE":null,"CATEGORIE":601},"geometry":{"type":"Point","coordinates":[-1.66910329129323,47.1960700438542]}},{"type":"Feature","properties":{"geo":{"name":"Skate Park Brains"},"_l":[47.1717279732956,-1.71740328001877],"LIBTHEME":"SPORTS","CODE_POSTAL":44830,"WEB":null,"STATUT":null,"TELEPHONE":null,"THEME":6,"COMMUNE":"BRAINS","LIBCATEGORIE":"Autre équipement","ADRESSE":"Rue Professeur Yves Boquien","LIBTYPE":null,"_IDOBJ":4171,"TYPE":null,"CATEGORIE":608},"geometry":{"type":"Point","coordinates":[-1.71740328001877,47.1717279732956]}},{"type":"Feature","properties":{"geo":{"name":"Aire de jeux multisports Brains"},"_l":[47.1715714181572,-1.71741348723713],"LIBTHEME":"SPORTS","CODE_POSTAL":44830,"WEB":null,"STATUT":null,"TELEPHONE":null,"THEME":6,"COMMUNE":"BRAINS","LIBCATEGORIE":"Autre équipement","ADRESSE":"Rue Professeur Yves Boquien","LIBTYPE":null,"_IDOBJ":4172,"TYPE":null,"CATEGORIE":608},"geometry":{"type":"Point","coordinates":[-1.71741348723713,47.1715714181572]}},{"type":"Feature","properties":{"geo":{"name":"Karaté"},"_l":[47.1480518339684,-1.52263459405555],"LIBTHEME":"SPORTS","CODE_POSTAL":44840,"WEB":null,"STATUT":null,"TELEPHONE":null,"THEME":6,"COMMUNE":"LES-SORINIERES","LIBCATEGORIE":"Autre équipement","ADRESSE":"Rue des Papillons","LIBTYPE":null,"_IDOBJ":4176,"TYPE":null,"CATEGORIE":608},"geometry":{"type":"Point","coordinates":[-1.52263459405555,47.1480518339684]}},{"type":"Feature","properties":{"geo":{"name":"Aire multisports"},"_l":[47.1574985364247,-1.52301319853266],"LIBTHEME":"SPORTS","CODE_POSTAL":44840,"WEB":null,"STATUT":null,"TELEPHONE":null,"THEME":6,"COMMUNE":"LES-SORINIERES","LIBCATEGORIE":"Plaine de jeux","ADRESSE":"Rue de la Maillardière","LIBTYPE":null,"_IDOBJ":4179,"TYPE":null,"CATEGORIE":605},"geometry":{"type":"Point","coordinates":[-1.52301319853266,47.1574985364247]}},{"type":"Feature","properties":{"geo":{"name":"Aire multisports"},"_l":[47.1488585941618,-1.53387347807476],"LIBTHEME":"SPORTS","CODE_POSTAL":44840,"WEB":null,"STATUT":null,"TELEPHONE":null,"THEME":6,"COMMUNE":"LES-SORINIERES","LIBCATEGORIE":"Plaine de jeux","ADRESSE":"Impasse de la Forge","LIBTYPE":null,"_IDOBJ":4180,"TYPE":null,"CATEGORIE":605},"geometry":{"type":"Point","coordinates":[-1.53387347807476,47.1488585941618]}},{"type":"Feature","properties":{"geo":{"name":"Centre equestre Poney Club"},"_l":[47.1448969479154,-1.54402353337293],"LIBTHEME":"SPORTS","CODE_POSTAL":44840,"WEB":null,"STATUT":null,"TELEPHONE":null,"THEME":6,"COMMUNE":"LES-SORINIERES","LIBCATEGORIE":"Centre sportif","ADRESSE":"Rue de la Poste","LIBTYPE":null,"_IDOBJ":4188,"TYPE":null,"CATEGORIE":601},"geometry":{"type":"Point","coordinates":[-1.54402353337293,47.1448969479154]}},{"type":"Feature","properties":{"geo":{"name":"Centre aquatique So.Pool"},"_l":[47.1895837223825,-1.47341691893707],"LIBTHEME":"SPORTS","CODE_POSTAL":44115,"WEB":null,"STATUT":null,"TELEPHONE":null,"THEME":6,"COMMUNE":"BASSE-GOULAINE","LIBCATEGORIE":"Piscine","ADRESSE":"2 Rue de Tasmanie","LIBTYPE":null,"_IDOBJ":4192,"TYPE":null,"CATEGORIE":604},"geometry":{"type":"Point","coordinates":[-1.47341691893707,47.1895837223825]}},{"type":"Feature","properties":{"geo":{"name":"Salle omnisport de Bellestre"},"_l":[47.1500759089382,-1.69621586994762],"LIBTHEME":"SPORTS","CODE_POSTAL":44830,"WEB":"www.bouaye.fr","STATUT":null,"TELEPHONE":null,"THEME":6,"COMMUNE":"BOUAYE","LIBCATEGORIE":"Gymnase","ADRESSE":"Rue du Stade","LIBTYPE":null,"_IDOBJ":4193,"TYPE":null,"CATEGORIE":603},"geometry":{"type":"Point","coordinates":[-1.69621586994762,47.1500759089382]}},{"type":"Feature","properties":{"geo":{"name":"Court de Tennis"},"_l":[47.1506353405133,-1.69262060484085],"LIBTHEME":"SPORTS","CODE_POSTAL":44830,"WEB":null,"STATUT":null,"TELEPHONE":null,"THEME":6,"COMMUNE":"BOUAYE","LIBCATEGORIE":"Tennis","ADRESSE":"Chemin de la Piogerie","LIBTYPE":null,"_IDOBJ":4194,"TYPE":null,"CATEGORIE":607},"geometry":{"type":"Point","coordinates":[-1.69262060484085,47.1506353405133]}},{"type":"Feature","properties":{"geo":{"name":"Skatepark"},"_l":[47.1546780883818,-1.68029644310577],"LIBTHEME":"SPORTS","CODE_POSTAL":44830,"WEB":null,"STATUT":null,"TELEPHONE":null,"THEME":6,"COMMUNE":"BOUAYE","LIBCATEGORIE":"Autre équipement","ADRESSE":"Esplanade de l'Edit de Nantes","LIBTYPE":null,"_IDOBJ":4196,"TYPE":null,"CATEGORIE":608},"geometry":{"type":"Point","coordinates":[-1.68029644310577,47.1546780883818]}},{"type":"Feature","properties":{"geo":{"name":"Salle de sport de la Belle Etoile"},"_l":[47.260932282872,-1.45322268077049],"LIBTHEME":"SPORTS","CODE_POSTAL":44470,"WEB":null,"STATUT":null,"TELEPHONE":null,"THEME":6,"COMMUNE":"THOUARE-SUR-LOIRE","LIBCATEGORIE":"Gymnase","ADRESSE":"Avenue du Parc des Sports","LIBTYPE":null,"_IDOBJ":4215,"TYPE":null,"CATEGORIE":603},"geometry":{"type":"Point","coordinates":[-1.45322268077049,47.260932282872]}},{"type":"Feature","properties":{"geo":{"name":"Salle de Tennis du Guette Loup"},"_l":[47.2625548892178,-1.45519991438981],"LIBTHEME":"SPORTS","CODE_POSTAL":44470,"WEB":null,"STATUT":null,"TELEPHONE":null,"THEME":6,"COMMUNE":"THOUARE-SUR-LOIRE","LIBCATEGORIE":"Tennis","ADRESSE":"Route de la Barre","LIBTYPE":null,"_IDOBJ":4216,"TYPE":null,"CATEGORIE":607},"geometry":{"type":"Point","coordinates":[-1.45519991438981,47.2625548892178]}},{"type":"Feature","properties":{"geo":{"name":"Salle Omnisport"},"_l":[47.2631952890256,-1.45608305074378],"LIBTHEME":"SPORTS","CODE_POSTAL":44470,"WEB":null,"STATUT":null,"TELEPHONE":null,"THEME":6,"COMMUNE":"THOUARE-SUR-LOIRE","LIBCATEGORIE":"Gymnase","ADRESSE":"Voie Non Dénommée 2041149","LIBTYPE":null,"_IDOBJ":4217,"TYPE":null,"CATEGORIE":603},"geometry":{"type":"Point","coordinates":[-1.45608305074378,47.2631952890256]}},{"type":"Feature","properties":{"geo":{"name":"Court de Tennis"},"_l":[47.2185329342019,-1.46781574720677],"LIBTHEME":"SPORTS","CODE_POSTAL":44115,"WEB":null,"STATUT":null,"TELEPHONE":null,"THEME":6,"COMMUNE":"BASSE-GOULAINE","LIBCATEGORIE":"Tennis","ADRESSE":"Rue de la Poste","LIBTYPE":null,"_IDOBJ":4221,"TYPE":null,"CATEGORIE":607},"geometry":{"type":"Point","coordinates":[-1.46781574720677,47.2185329342019]}},{"type":"Feature","properties":{"geo":{"name":"Stades de Football"},"_l":[47.218460390894,-1.46645497803417],"LIBTHEME":"SPORTS","CODE_POSTAL":44115,"WEB":null,"STATUT":null,"TELEPHONE":null,"THEME":6,"COMMUNE":"BASSE-GOULAINE","LIBCATEGORIE":"Stade","ADRESSE":"Rue de la Poste","LIBTYPE":null,"_IDOBJ":4222,"TYPE":null,"CATEGORIE":606},"geometry":{"type":"Point","coordinates":[-1.46645497803417,47.218460390894]}},{"type":"Feature","properties":{"geo":{"name":"Dojo Goulainais"},"_l":[47.2167943071233,-1.46748951112505],"LIBTHEME":"SPORTS","CODE_POSTAL":44115,"WEB":null,"STATUT":null,"TELEPHONE":null,"THEME":6,"COMMUNE":"BASSE-GOULAINE","LIBCATEGORIE":"Autre équipement","ADRESSE":"Rue de la Poste","LIBTYPE":null,"_IDOBJ":4223,"TYPE":null,"CATEGORIE":608},"geometry":{"type":"Point","coordinates":[-1.46748951112505,47.2167943071233]}},{"type":"Feature","properties":{"geo":{"name":"Boulodrome"},"_l":[47.2166199319565,-1.46807115962903],"LIBTHEME":"SPORTS","CODE_POSTAL":44115,"WEB":null,"STATUT":null,"TELEPHONE":null,"THEME":6,"COMMUNE":"BASSE-GOULAINE","LIBCATEGORIE":"Autre équipement","ADRESSE":"Rue de la Poste","LIBTYPE":null,"_IDOBJ":4224,"TYPE":null,"CATEGORIE":608},"geometry":{"type":"Point","coordinates":[-1.46807115962903,47.2166199319565]}},{"type":"Feature","properties":{"geo":{"name":"Skate Park"},"_l":[47.2178756582812,-1.46573542845903],"LIBTHEME":"SPORTS","CODE_POSTAL":44115,"WEB":null,"STATUT":null,"TELEPHONE":null,"THEME":6,"COMMUNE":"BASSE-GOULAINE","LIBCATEGORIE":"Autre équipement","ADRESSE":"Square de Theley","LIBTYPE":null,"_IDOBJ":4226,"TYPE":null,"CATEGORIE":608},"geometry":{"type":"Point","coordinates":[-1.46573542845903,47.2178756582812]}},{"type":"Feature","properties":{"geo":{"name":"Terrain multisport"},"_l":[47.2176312634001,-1.46578072150551],"LIBTHEME":"SPORTS","CODE_POSTAL":44115,"WEB":null,"STATUT":null,"TELEPHONE":null,"THEME":6,"COMMUNE":"BASSE-GOULAINE","LIBCATEGORIE":"Autre équipement","ADRESSE":"Square de Theley","LIBTYPE":null,"_IDOBJ":4227,"TYPE":null,"CATEGORIE":608},"geometry":{"type":"Point","coordinates":[-1.46578072150551,47.2176312634001]}},{"type":"Feature","properties":{"geo":{"name":"Boulodrome"},"_l":[47.1203301600343,-1.63771789549553],"LIBTHEME":"SPORTS","CODE_POSTAL":44860,"WEB":null,"STATUT":null,"TELEPHONE":null,"THEME":6,"COMMUNE":"SAINT-AIGNAN-GRANDLIEU","LIBCATEGORIE":"Autre équipement","ADRESSE":"Route du Lac","LIBTYPE":null,"_IDOBJ":4230,"TYPE":null,"CATEGORIE":608},"geometry":{"type":"Point","coordinates":[-1.63771789549553,47.1203301600343]}},{"type":"Feature","properties":{"geo":{"name":"Skate-Park"},"_l":[47.1211603599007,-1.6372830000767],"LIBTHEME":"SPORTS","CODE_POSTAL":44860,"WEB":null,"STATUT":null,"TELEPHONE":null,"THEME":6,"COMMUNE":"SAINT-AIGNAN-GRANDLIEU","LIBCATEGORIE":"Autre équipement","ADRESSE":"Place Saint Amani","LIBTYPE":null,"_IDOBJ":4231,"TYPE":null,"CATEGORIE":608},"geometry":{"type":"Point","coordinates":[-1.6372830000767,47.1211603599007]}},{"type":"Feature","properties":{"geo":{"name":"Terrain de Basket"},"_l":[47.1210002452753,-1.63719841649588],"LIBTHEME":"SPORTS","CODE_POSTAL":44860,"WEB":null,"STATUT":null,"TELEPHONE":null,"THEME":6,"COMMUNE":"SAINT-AIGNAN-GRANDLIEU","LIBCATEGORIE":"Autre équipement","ADRESSE":"Place Saint Amani","LIBTYPE":null,"_IDOBJ":4232,"TYPE":null,"CATEGORIE":608},"geometry":{"type":"Point","coordinates":[-1.63719841649588,47.1210002452753]}},{"type":"Feature","properties":{"geo":{"name":"Tir à l'Arc"},"_l":[47.1862942742528,-1.70998017391629],"LIBTHEME":"SPORTS","CODE_POSTAL":44640,"WEB":"lesarchersdupe.jimdo.com","STATUT":null,"TELEPHONE":null,"THEME":6,"COMMUNE":"SAINT-JEAN-DE-BOISEAU","LIBCATEGORIE":"Autre équipement","ADRESSE":"Chemin de la Coulée","LIBTYPE":null,"_IDOBJ":4233,"TYPE":null,"CATEGORIE":608},"geometry":{"type":"Point","coordinates":[-1.70998017391629,47.1862942742528]}},{"type":"Feature","properties":{"geo":{"name":"Skate Park"},"_l":[47.186997597229,-1.68685033383099],"LIBTHEME":"SPORTS","CODE_POSTAL":44620,"WEB":null,"STATUT":null,"TELEPHONE":null,"THEME":6,"COMMUNE":"LA-MONTAGNE","LIBCATEGORIE":"Autre équipement","ADRESSE":"153 Route de Bouguenais","LIBTYPE":null,"_IDOBJ":4239,"TYPE":null,"CATEGORIE":608},"geometry":{"type":"Point","coordinates":[-1.68685033383099,47.186997597229]}},{"type":"Feature","properties":{"geo":{"name":"Skatepark"},"_l":[47.1632053229194,-1.46618353240723],"LIBTHEME":"SPORTS","CODE_POSTAL":44120,"WEB":null,"STATUT":null,"TELEPHONE":null,"THEME":6,"COMMUNE":"VERTOU","LIBCATEGORIE":"Autre équipement","ADRESSE":"Allée de la Vigne de Pâques","LIBTYPE":null,"_IDOBJ":4244,"TYPE":null,"CATEGORIE":608},"geometry":{"type":"Point","coordinates":[-1.46618353240723,47.1632053229194]}},{"type":"Feature","properties":{"geo":{"name":"Terrain de Tennis"},"_l":[47.1639364142099,-1.46673883456256],"LIBTHEME":"SPORTS","CODE_POSTAL":44120,"WEB":null,"STATUT":null,"TELEPHONE":null,"THEME":6,"COMMUNE":"VERTOU","LIBCATEGORIE":"Tennis","ADRESSE":"Allée de la Vigne de Pâques","LIBTYPE":null,"_IDOBJ":4245,"TYPE":null,"CATEGORIE":607},"geometry":{"type":"Point","coordinates":[-1.46673883456256,47.1639364142099]}},{"type":"Feature","properties":{"geo":{"name":"Terrain de Tennis"},"_l":[47.1832575358085,-1.49828335754745],"LIBTHEME":"SPORTS","CODE_POSTAL":44120,"WEB":null,"STATUT":null,"TELEPHONE":null,"THEME":6,"COMMUNE":"VERTOU","LIBCATEGORIE":"Tennis","ADRESSE":"Impasse du Stade Raymond Durand","LIBTYPE":null,"_IDOBJ":4246,"TYPE":null,"CATEGORIE":607},"geometry":{"type":"Point","coordinates":[-1.49828335754745,47.1832575358085]}},{"type":"Feature","properties":{"geo":{"name":"Entente Tennis Vertou"},"_l":[47.1785373270275,-1.46318253916213],"LIBTHEME":"SPORTS","CODE_POSTAL":44120,"WEB":"http://www.club.fft.fr/","STATUT":null,"TELEPHONE":"02 51 79 17 10","THEME":6,"COMMUNE":"VERTOU","LIBCATEGORIE":"Tennis","ADRESSE":"Impasse de la Foresterie","LIBTYPE":null,"_IDOBJ":4247,"TYPE":null,"CATEGORIE":607},"geometry":{"type":"Point","coordinates":[-1.46318253916213,47.1785373270275]}},{"type":"Feature","properties":{"geo":{"name":"Salle spécifique de gymnastique"},"_l":[47.1652390708765,-1.46713546740473],"LIBTHEME":"SPORTS","CODE_POSTAL":44120,"WEB":null,"STATUT":null,"TELEPHONE":null,"THEME":6,"COMMUNE":"VERTOU","LIBCATEGORIE":"Gymnase","ADRESSE":"Allée de la Vigne de Pâques","LIBTYPE":null,"_IDOBJ":4249,"TYPE":null,"CATEGORIE":603},"geometry":{"type":"Point","coordinates":[-1.46713546740473,47.1652390708765]}},{"type":"Feature","properties":{"geo":{"name":"Terrain de Pétanque des Reigners"},"_l":[47.1376168981039,-1.46445035062312],"LIBTHEME":"SPORTS","CODE_POSTAL":44120,"WEB":null,"STATUT":null,"TELEPHONE":null,"THEME":6,"COMMUNE":"VERTOU","LIBCATEGORIE":"Autre équipement","ADRESSE":"Rue des Reigniers","LIBTYPE":null,"_IDOBJ":4252,"TYPE":null,"CATEGORIE":608},"geometry":{"type":"Point","coordinates":[-1.46445035062312,47.1376168981039]}},{"type":"Feature","properties":{"geo":{"name":"Skatepark"},"_l":[47.137740018999,-1.46506122696991],"LIBTHEME":"SPORTS","CODE_POSTAL":44120,"WEB":null,"STATUT":null,"TELEPHONE":null,"THEME":6,"COMMUNE":"VERTOU","LIBCATEGORIE":"Autre équipement","ADRESSE":"Rue des Reigniers","LIBTYPE":null,"_IDOBJ":4253,"TYPE":null,"CATEGORIE":608},"geometry":{"type":"Point","coordinates":[-1.46506122696991,47.137740018999]}},{"type":"Feature","properties":{"geo":{"name":"Salle Antarès"},"_l":[47.2662087671741,-1.67944111191122],"LIBTHEME":"SPORTS","CODE_POSTAL":44880,"WEB":"www.sautron.fr","STATUT":null,"TELEPHONE":null,"THEME":6,"COMMUNE":"SAUTRON","LIBCATEGORIE":"Gymnase","ADRESSE":"Rue de la Forêt","LIBTYPE":null,"_IDOBJ":4257,"TYPE":null,"CATEGORIE":603},"geometry":{"type":"Point","coordinates":[-1.67944111191122,47.2662087671741]}},{"type":"Feature","properties":{"geo":{"name":"Salle de Tennis Centaure"},"_l":[47.2669270963193,-1.67886425849015],"LIBTHEME":"SPORTS","CODE_POSTAL":44880,"WEB":null,"STATUT":null,"TELEPHONE":null,"THEME":6,"COMMUNE":"SAUTRON","LIBCATEGORIE":"Tennis","ADRESSE":"Rue de la Forêt","LIBTYPE":null,"_IDOBJ":4258,"TYPE":null,"CATEGORIE":607},"geometry":{"type":"Point","coordinates":[-1.67886425849015,47.2669270963193]}},{"type":"Feature","properties":{"geo":{"name":"Salle de Pétanque Electra"},"_l":[47.2658821247271,-1.67811198422129],"LIBTHEME":"SPORTS","CODE_POSTAL":44880,"WEB":null,"STATUT":null,"TELEPHONE":null,"THEME":6,"COMMUNE":"SAUTRON","LIBCATEGORIE":"Autre équipement","ADRESSE":"Rue de la Forêt","LIBTYPE":null,"_IDOBJ":4259,"TYPE":null,"CATEGORIE":608},"geometry":{"type":"Point","coordinates":[-1.67811198422129,47.2658821247271]}},{"type":"Feature","properties":{"geo":{"name":"Salle de Tennis Cassiopée"},"_l":[47.2666474812869,-1.67923508048179],"LIBTHEME":"SPORTS","CODE_POSTAL":44880,"WEB":null,"STATUT":null,"TELEPHONE":null,"THEME":6,"COMMUNE":"SAUTRON","LIBCATEGORIE":"Tennis","ADRESSE":"Rue de la Forêt","LIBTYPE":null,"_IDOBJ":4260,"TYPE":null,"CATEGORIE":607},"geometry":{"type":"Point","coordinates":[-1.67923508048179,47.2666474812869]}},{"type":"Feature","properties":{"geo":{"name":"Salle Omnisport Delta"},"_l":[47.266164291383,-1.67787222373831],"LIBTHEME":"SPORTS","CODE_POSTAL":44880,"WEB":null,"STATUT":null,"TELEPHONE":null,"THEME":6,"COMMUNE":"SAUTRON","LIBCATEGORIE":"Gymnase","ADRESSE":"Rue de la Forêt","LIBTYPE":null,"_IDOBJ":4261,"TYPE":null,"CATEGORIE":603},"geometry":{"type":"Point","coordinates":[-1.67787222373831,47.266164291383]}},{"type":"Feature","properties":{"geo":{"name":"Salle Omnisport Bellatrix"},"_l":[47.2660375779804,-1.67874386609388],"LIBTHEME":"SPORTS","CODE_POSTAL":44880,"WEB":null,"STATUT":null,"TELEPHONE":null,"THEME":6,"COMMUNE":"SAUTRON","LIBCATEGORIE":"Gymnase","ADRESSE":"Rue de la Forêt","LIBTYPE":null,"_IDOBJ":4262,"TYPE":null,"CATEGORIE":603},"geometry":{"type":"Point","coordinates":[-1.67874386609388,47.2660375779804]}},{"type":"Feature","properties":{"geo":{"name":"Terrains de tennis"},"_l":[47.2665123104871,-1.67841905846459],"LIBTHEME":"SPORTS","CODE_POSTAL":44880,"WEB":null,"STATUT":null,"TELEPHONE":null,"THEME":6,"COMMUNE":"SAUTRON","LIBCATEGORIE":"Tennis","ADRESSE":"Rue de la Forêt","LIBTYPE":null,"_IDOBJ":4263,"TYPE":null,"CATEGORIE":607},"geometry":{"type":"Point","coordinates":[-1.67841905846459,47.2665123104871]}},{"type":"Feature","properties":{"geo":{"name":"Terrains de pétanque"},"_l":[47.2670126159199,-1.67792360967436],"LIBTHEME":"SPORTS","CODE_POSTAL":44880,"WEB":null,"STATUT":null,"TELEPHONE":null,"THEME":6,"COMMUNE":"SAUTRON","LIBCATEGORIE":"Autre équipement","ADRESSE":"Rue de la Forêt","LIBTYPE":null,"_IDOBJ":4264,"TYPE":null,"CATEGORIE":608},"geometry":{"type":"Point","coordinates":[-1.67792360967436,47.2670126159199]}},{"type":"Feature","properties":{"geo":{"name":"Skatepark"},"_l":[47.2662524329902,-1.67980908258144],"LIBTHEME":"SPORTS","CODE_POSTAL":44880,"WEB":null,"STATUT":null,"TELEPHONE":null,"THEME":6,"COMMUNE":"SAUTRON","LIBCATEGORIE":"Autre équipement","ADRESSE":"Rue de la Forêt","LIBTYPE":null,"_IDOBJ":4265,"TYPE":null,"CATEGORIE":608},"geometry":{"type":"Point","coordinates":[-1.67980908258144,47.2662524329902]}},{"type":"Feature","properties":{"geo":{"name":"Tennis Country Club"},"_l":[47.2445883438036,-1.70438066734281],"LIBTHEME":"SPORTS","CODE_POSTAL":44220,"WEB":"cours-tennis-club.countryclubnantais.fr","STATUT":null,"TELEPHONE":"02 40 86 40 90","THEME":6,"COMMUNE":"COUERON","LIBCATEGORIE":"Tennis","ADRESSE":"Voie Non Dénommée 0471861","LIBTYPE":null,"_IDOBJ":4281,"TYPE":null,"CATEGORIE":607},"geometry":{"type":"Point","coordinates":[-1.70438066734281,47.2445883438036]}},{"type":"Feature","properties":{"geo":{"name":"Centre équestre Poney-Club"},"_l":[47.2460107847443,-1.70455122124794],"LIBTHEME":"SPORTS","CODE_POSTAL":44220,"WEB":null,"STATUT":null,"TELEPHONE":null,"THEME":6,"COMMUNE":"COUERON","LIBCATEGORIE":"Centre sportif","ADRESSE":"RD 101","LIBTYPE":null,"_IDOBJ":4282,"TYPE":null,"CATEGORIE":601},"geometry":{"type":"Point","coordinates":[-1.70455122124794,47.2460107847443]}},{"type":"Feature","properties":{"geo":{"name":"Boulodrome"},"_l":[47.2193163005765,-1.68393059268241],"LIBTHEME":"SPORTS","CODE_POSTAL":44220,"WEB":"www.ville-coueron.fr","STATUT":null,"TELEPHONE":null,"THEME":6,"COMMUNE":"COUERON","LIBCATEGORIE":"Autre équipement","ADRESSE":"Rue de la Noë Allais","LIBTYPE":null,"_IDOBJ":4285,"TYPE":null,"CATEGORIE":608},"geometry":{"type":"Point","coordinates":[-1.68393059268241,47.2193163005765]}},{"type":"Feature","properties":{"geo":{"name":"Tennis"},"_l":[47.2117152639444,-1.73813547120881],"LIBTHEME":"SPORTS","CODE_POSTAL":44220,"WEB":null,"STATUT":null,"TELEPHONE":null,"THEME":6,"COMMUNE":"COUERON","LIBCATEGORIE":"Tennis","ADRESSE":"Rue Marcel de la Provoté","LIBTYPE":null,"_IDOBJ":4286,"TYPE":null,"CATEGORIE":607},"geometry":{"type":"Point","coordinates":[-1.73813547120881,47.2117152639444]}},{"type":"Feature","properties":{"geo":{"name":"Stade René Gaudin"},"_l":[47.2124692994787,-1.73688201873656],"LIBTHEME":"SPORTS","CODE_POSTAL":44220,"WEB":"www.ville-coueron.fr","STATUT":null,"TELEPHONE":"02 40 86 70 52","THEME":6,"COMMUNE":"COUERON","LIBCATEGORIE":"Stade","ADRESSE":"Boulevard Francois Blancho","LIBTYPE":null,"_IDOBJ":4287,"TYPE":null,"CATEGORIE":606},"geometry":{"type":"Point","coordinates":[-1.73688201873656,47.2124692994787]}},{"type":"Feature","properties":{"geo":{"name":"Skatepark Romain Douillard"},"_l":[47.212189124209,-1.73831246720018],"LIBTHEME":"SPORTS","CODE_POSTAL":44220,"WEB":"www.ville-coueron.fr","STATUT":null,"TELEPHONE":"02 40 38 32 11","THEME":6,"COMMUNE":"COUERON","LIBCATEGORIE":"Autre équipement","ADRESSE":"Rue Marcel de la Provoté","LIBTYPE":null,"_IDOBJ":4288,"TYPE":null,"CATEGORIE":608},"geometry":{"type":"Point","coordinates":[-1.73831246720018,47.212189124209]}},{"type":"Feature","properties":{"geo":{"name":"City Stade"},"_l":[47.2140442390179,-1.68346476489689],"LIBTHEME":"SPORTS","CODE_POSTAL":44220,"WEB":"www.ville-coueron.fr","STATUT":null,"TELEPHONE":null,"THEME":6,"COMMUNE":"COUERON","LIBCATEGORIE":"Espace Sportif de Proximité","ADRESSE":"Rue du Premier Mai","LIBTYPE":null,"_IDOBJ":4289,"TYPE":null,"CATEGORIE":609},"geometry":{"type":"Point","coordinates":[-1.68346476489689,47.2140442390179]}},{"type":"Feature","properties":{"geo":{"name":"Gymnase Eersel"},"_l":[47.2855739091227,-1.4830005017521],"LIBTHEME":"SPORTS","CODE_POSTAL":44470,"WEB":"www.carquefou.fr","STATUT":null,"TELEPHONE":null,"THEME":6,"COMMUNE":"CARQUEFOU","LIBCATEGORIE":"Gymnase","ADRESSE":"Rue du Moulin Boisseau","LIBTYPE":null,"_IDOBJ":4291,"TYPE":null,"CATEGORIE":603},"geometry":{"type":"Point","coordinates":[-1.4830005017521,47.2855739091227]}},{"type":"Feature","properties":{"geo":{"name":"Piste de bicross"},"_l":[47.2814486517006,-1.48138210872558],"LIBTHEME":"SPORTS","CODE_POSTAL":44470,"WEB":"www.carquefou.fr","STATUT":null,"TELEPHONE":null,"THEME":6,"COMMUNE":"CARQUEFOU","LIBCATEGORIE":"Autre équipement","ADRESSE":"Rue Victor Hugo","LIBTYPE":null,"_IDOBJ":4292,"TYPE":null,"CATEGORIE":608},"geometry":{"type":"Point","coordinates":[-1.48138210872558,47.2814486517006]}},{"type":"Feature","properties":{"geo":{"name":"Terrain de Pétanque"},"_l":[47.2822277108609,-1.48128079092291],"LIBTHEME":"SPORTS","CODE_POSTAL":44470,"WEB":"www.carquefou.fr","STATUT":null,"TELEPHONE":null,"THEME":6,"COMMUNE":"CARQUEFOU","LIBCATEGORIE":"Autre équipement","ADRESSE":"Rue Victor Hugo","LIBTYPE":null,"_IDOBJ":4293,"TYPE":null,"CATEGORIE":608},"geometry":{"type":"Point","coordinates":[-1.48128079092291,47.2822277108609]}},{"type":"Feature","properties":{"geo":{"name":"Tennis"},"_l":[47.2844351822684,-1.48341346932704],"LIBTHEME":"SPORTS","CODE_POSTAL":44470,"WEB":"www.carquefou.fr","STATUT":null,"TELEPHONE":null,"THEME":6,"COMMUNE":"CARQUEFOU","LIBCATEGORIE":"Tennis","ADRESSE":"Rue du Moulin Boisseau","LIBTYPE":null,"_IDOBJ":4294,"TYPE":null,"CATEGORIE":607},"geometry":{"type":"Point","coordinates":[-1.48341346932704,47.2844351822684]}},{"type":"Feature","properties":{"geo":{"name":"Stand de Tir"},"_l":[47.3182432264806,-1.47070687781425],"LIBTHEME":"SPORTS","CODE_POSTAL":44470,"WEB":"www.carquefou.fr","STATUT":null,"TELEPHONE":null,"THEME":6,"COMMUNE":"CARQUEFOU","LIBCATEGORIE":"Autre équipement","ADRESSE":"Chemin des Pâtureaux","LIBTYPE":null,"_IDOBJ":4295,"TYPE":null,"CATEGORIE":608},"geometry":{"type":"Point","coordinates":[-1.47070687781425,47.3182432264806]}},{"type":"Feature","properties":{"geo":{"name":"Sport Nautique de l'Ouest"},"_l":[47.3014057422845,-1.52641524899551],"LIBTHEME":"SPORTS","CODE_POSTAL":44470,"WEB":"www.snonantes.com","STATUT":null,"TELEPHONE":"02 40 50 81 51","THEME":6,"COMMUNE":"CARQUEFOU","LIBCATEGORIE":"Centre sportif","ADRESSE":"17 Chemin de Port Breton","LIBTYPE":null,"_IDOBJ":4297,"TYPE":null,"CATEGORIE":601},"geometry":{"type":"Point","coordinates":[-1.52641524899551,47.3014057422845]}},{"type":"Feature","properties":{"geo":{"name":"Color'ado"},"_l":[47.3029252594488,-1.49269654987027],"LIBTHEME":"SPORTS","CODE_POSTAL":44470,"WEB":"www.carquefou.fr","STATUT":null,"TELEPHONE":null,"THEME":6,"COMMUNE":"CARQUEFOU","LIBCATEGORIE":"Autre équipement","ADRESSE":"Rue Pierre Mendes France","LIBTYPE":null,"_IDOBJ":4299,"TYPE":null,"CATEGORIE":608},"geometry":{"type":"Point","coordinates":[-1.49269654987027,47.3029252594488]}},{"type":"Feature","properties":{"geo":{"name":"Gymnase Pré-Gauchet"},"_l":[47.2171288108494,-1.53530393844997],"LIBTHEME":"SPORTS","CODE_POSTAL":44000,"WEB":"www.nantes.fr","STATUT":null,"TELEPHONE":null,"THEME":6,"COMMUNE":"NANTES","LIBCATEGORIE":"Gymnase","ADRESSE":"13 Rue Nina Simone","LIBTYPE":null,"_IDOBJ":4307,"TYPE":null,"CATEGORIE":603},"geometry":{"type":"Point","coordinates":[-1.53530393844997,47.2171288108494]}},{"type":"Feature","properties":{"geo":{"name":"Boulodrome"},"_l":[47.27434615242,-1.62505307890939],"LIBTHEME":"SPORTS","CODE_POSTAL":44700,"WEB":null,"STATUT":null,"TELEPHONE":null,"THEME":6,"COMMUNE":"ORVAULT","LIBCATEGORIE":"Autre équipement","ADRESSE":"Chemin des Garettes","LIBTYPE":null,"_IDOBJ":4334,"TYPE":null,"CATEGORIE":608},"geometry":{"type":"Point","coordinates":[-1.62505307890939,47.27434615242]}},{"type":"Feature","properties":{"geo":{"name":"Tennis Frébaudière"},"_l":[47.2744022434315,-1.62560460051723],"LIBTHEME":"SPORTS","CODE_POSTAL":44700,"WEB":null,"STATUT":null,"TELEPHONE":null,"THEME":6,"COMMUNE":"ORVAULT","LIBCATEGORIE":"Tennis","ADRESSE":"Chemin des Garettes","LIBTYPE":null,"_IDOBJ":4335,"TYPE":null,"CATEGORIE":607},"geometry":{"type":"Point","coordinates":[-1.62560460051723,47.2744022434315]}},{"type":"Feature","properties":{"geo":{"name":"Skatepark"},"_l":[47.2744176896823,-1.62611737840092],"LIBTHEME":"SPORTS","CODE_POSTAL":44700,"WEB":null,"STATUT":null,"TELEPHONE":null,"THEME":6,"COMMUNE":"ORVAULT","LIBCATEGORIE":"Autre équipement","ADRESSE":"Chemin des Garettes","LIBTYPE":null,"_IDOBJ":4336,"TYPE":null,"CATEGORIE":608},"geometry":{"type":"Point","coordinates":[-1.62611737840092,47.2744176896823]}},{"type":"Feature","properties":{"geo":{"name":"Bike-Park"},"_l":[47.2818757473023,-1.62959729620603],"LIBTHEME":"SPORTS","CODE_POSTAL":44700,"WEB":"www.orvault.fr","STATUT":null,"TELEPHONE":null,"THEME":6,"COMMUNE":"ORVAULT","LIBCATEGORIE":"Autre équipement","ADRESSE":"4 Chemin de Gagné","LIBTYPE":null,"_IDOBJ":4337,"TYPE":null,"CATEGORIE":608},"geometry":{"type":"Point","coordinates":[-1.62959729620603,47.2818757473023]}},{"type":"Feature","properties":{"geo":{"name":"Boulodrome"},"_l":[47.2540770172418,-1.5983966005253],"LIBTHEME":"SPORTS","CODE_POSTAL":44700,"WEB":null,"STATUT":null,"TELEPHONE":null,"THEME":6,"COMMUNE":"ORVAULT","LIBCATEGORIE":"Autre équipement","ADRESSE":"48 Avenue Alexandre Goupil","LIBTYPE":null,"_IDOBJ":4338,"TYPE":null,"CATEGORIE":608},"geometry":{"type":"Point","coordinates":[-1.5983966005253,47.2540770172418]}},{"type":"Feature","properties":{"geo":{"name":"Skatepark"},"_l":[47.2960789946463,-1.55578638712424],"LIBTHEME":"SPORTS","CODE_POSTAL":44240,"WEB":"www.lachapellesurerdre.fr","STATUT":null,"TELEPHONE":null,"THEME":6,"COMMUNE":"LA-CHAPELLE-SUR-ERDRE","LIBCATEGORIE":"Autre équipement","ADRESSE":"Avenue de Beauregard","LIBTYPE":null,"_IDOBJ":4354,"TYPE":null,"CATEGORIE":608},"geometry":{"type":"Point","coordinates":[-1.55578638712424,47.2960789946463]}},{"type":"Feature","properties":{"geo":{"name":"Piste d'athlétisme"},"_l":[47.2981980314539,-1.55717877351555],"LIBTHEME":"SPORTS","CODE_POSTAL":44240,"WEB":null,"STATUT":null,"TELEPHONE":null,"THEME":6,"COMMUNE":"LA-CHAPELLE-SUR-ERDRE","LIBCATEGORIE":"Stade","ADRESSE":"Rue Louis Maisonneuve","LIBTYPE":null,"_IDOBJ":4356,"TYPE":null,"CATEGORIE":606},"geometry":{"type":"Point","coordinates":[-1.55717877351555,47.2981980314539]}},{"type":"Feature","properties":{"geo":{"name":"Boulodrome de Massigné"},"_l":[47.2991404935532,-1.55900172096383],"LIBTHEME":"SPORTS","CODE_POSTAL":44240,"WEB":null,"STATUT":null,"TELEPHONE":null,"THEME":6,"COMMUNE":"LA-CHAPELLE-SUR-ERDRE","LIBCATEGORIE":"Autre équipement","ADRESSE":"Rue Louis Maisonneuve","LIBTYPE":null,"_IDOBJ":4357,"TYPE":null,"CATEGORIE":608},"geometry":{"type":"Point","coordinates":[-1.55900172096383,47.2991404935532]}},{"type":"Feature","properties":{"geo":{"name":"Courts de Tennis du Gesvres"},"_l":[47.2672520042777,-1.55164077434728],"LIBTHEME":"SPORTS","CODE_POSTAL":44240,"WEB":"www.lachapellesurerdre.fr","STATUT":null,"TELEPHONE":null,"THEME":6,"COMMUNE":"LA-CHAPELLE-SUR-ERDRE","LIBCATEGORIE":"Tennis","ADRESSE":"Boulevard du Gesvres","LIBTYPE":null,"_IDOBJ":4359,"TYPE":null,"CATEGORIE":607},"geometry":{"type":"Point","coordinates":[-1.55164077434728,47.2672520042777]}},{"type":"Feature","properties":{"geo":{"name":"Terrain multisports de Gesvres"},"_l":[47.2669945793363,-1.55129377312182],"LIBTHEME":"SPORTS","CODE_POSTAL":44240,"WEB":"www.lachapellesurerdre.fr","STATUT":null,"TELEPHONE":null,"THEME":6,"COMMUNE":"LA-CHAPELLE-SUR-ERDRE","LIBCATEGORIE":"Autre équipement","ADRESSE":"Boulevard du Gesvres","LIBTYPE":null,"_IDOBJ":4360,"TYPE":null,"CATEGORIE":608},"geometry":{"type":"Point","coordinates":[-1.55129377312182,47.2669945793363]}},{"type":"Feature","properties":{"geo":{"name":"Plateau sportif Gesvres"},"_l":[47.2668362406531,-1.5510211970947],"LIBTHEME":"SPORTS","CODE_POSTAL":44240,"WEB":"www.lachapellesurerdre.fr","STATUT":null,"TELEPHONE":null,"THEME":6,"COMMUNE":"LA-CHAPELLE-SUR-ERDRE","LIBCATEGORIE":"Stade","ADRESSE":"Boulevard du Gesvres","LIBTYPE":null,"_IDOBJ":4361,"TYPE":null,"CATEGORIE":606},"geometry":{"type":"Point","coordinates":[-1.5510211970947,47.2668362406531]}},{"type":"Feature","properties":{"geo":{"name":"Poney-club de Port-Barbe"},"_l":[47.2647855333542,-1.54243680963377],"LIBTHEME":"SPORTS","CODE_POSTAL":44240,"WEB":"www.accoordnantes.info","STATUT":null,"TELEPHONE":"02 40 72 89 32","THEME":6,"COMMUNE":"LA-CHAPELLE-SUR-ERDRE","LIBCATEGORIE":"Centre sportif","ADRESSE":"Route de la Jonelière","LIBTYPE":null,"_IDOBJ":4363,"TYPE":null,"CATEGORIE":601},"geometry":{"type":"Point","coordinates":[-1.54243680963377,47.2647855333542]}},{"type":"Feature","properties":{"geo":{"name":"Swing-Golf de Port-Barbe"},"_l":[47.2635553088015,-1.54072241592381],"LIBTHEME":"SPORTS","CODE_POSTAL":44240,"WEB":"www.accoordnantes.info","STATUT":null,"TELEPHONE":null,"THEME":6,"COMMUNE":"LA-CHAPELLE-SUR-ERDRE","LIBCATEGORIE":"Centre sportif","ADRESSE":"Route de la Jonelière","LIBTYPE":null,"_IDOBJ":4364,"TYPE":null,"CATEGORIE":601},"geometry":{"type":"Point","coordinates":[-1.54072241592381,47.2635553088015]}},{"type":"Feature","properties":{"geo":{"name":"Halle des Sports de Mazaire"},"_l":[47.2963662110068,-1.55784797877258],"LIBTHEME":"SPORTS","CODE_POSTAL":44240,"WEB":"www.lachapellesurerdre.fr","STATUT":null,"TELEPHONE":"02 51 81 87 22","THEME":6,"COMMUNE":"LA-CHAPELLE-SUR-ERDRE","LIBCATEGORIE":"Gymnase","ADRESSE":"Rue de la Hautière","LIBTYPE":null,"_IDOBJ":4370,"TYPE":null,"CATEGORIE":603},"geometry":{"type":"Point","coordinates":[-1.55784797877258,47.2963662110068]}},{"type":"Feature","properties":{"geo":{"name":"Salle de Gymnastique Jacques Canzillon"},"_l":[47.2966402742367,-1.55853957466216],"LIBTHEME":"SPORTS","CODE_POSTAL":44240,"WEB":"www.lachapellesurerdre.fr","STATUT":null,"TELEPHONE":"02 51 81 87 22","THEME":6,"COMMUNE":"LA-CHAPELLE-SUR-ERDRE","LIBCATEGORIE":"Gymnase","ADRESSE":"Rue de la Hautière","LIBTYPE":null,"_IDOBJ":4371,"TYPE":null,"CATEGORIE":603},"geometry":{"type":"Point","coordinates":[-1.55853957466216,47.2966402742367]}},{"type":"Feature","properties":{"geo":{"name":"Salles Duruy et Petipa"},"_l":[47.1710656961929,-1.62176824826453],"LIBTHEME":"SPORTS","CODE_POSTAL":44340,"WEB":"www.ville-bouguenais.fr","STATUT":null,"TELEPHONE":"02 40 26 95 34","THEME":6,"COMMUNE":"BOUGUENAIS","LIBCATEGORIE":"Autre équipement","ADRESSE":"Rue Pablo Neruda","LIBTYPE":null,"_IDOBJ":4379,"TYPE":null,"CATEGORIE":608},"geometry":{"type":"Point","coordinates":[-1.62176824826453,47.1710656961929]}},{"type":"Feature","properties":{"geo":{"name":"Salle des Samouraïs"},"_l":[47.1713225991909,-1.62186477405135],"LIBTHEME":"SPORTS","CODE_POSTAL":44340,"WEB":"www.ville-bouguenais.fr","STATUT":null,"TELEPHONE":"02 40 26 95 34","THEME":6,"COMMUNE":"BOUGUENAIS","LIBCATEGORIE":"Autre équipement","ADRESSE":"Rue Pablo Neruda","LIBTYPE":null,"_IDOBJ":4380,"TYPE":null,"CATEGORIE":608},"geometry":{"type":"Point","coordinates":[-1.62186477405135,47.1713225991909]}},{"type":"Feature","properties":{"geo":{"name":"Complexe sportif de la Neustrie"},"_l":[47.1762824412455,-1.59176000805947],"LIBTHEME":"SPORTS","CODE_POSTAL":44340,"WEB":"www.ville-bouguenais.fr","STATUT":null,"TELEPHONE":null,"THEME":6,"COMMUNE":"BOUGUENAIS","LIBCATEGORIE":"Centre sportif","ADRESSE":"Chemin de la Neustrie","LIBTYPE":null,"_IDOBJ":4381,"TYPE":null,"CATEGORIE":601},"geometry":{"type":"Point","coordinates":[-1.59176000805947,47.1762824412455]}},{"type":"Feature","properties":{"geo":{"name":"Skatepark"},"_l":[47.173403266949,-1.62429652739744],"LIBTHEME":"SPORTS","CODE_POSTAL":44340,"WEB":"www.ville-bouguenais.fr","STATUT":null,"TELEPHONE":null,"THEME":6,"COMMUNE":"BOUGUENAIS","LIBCATEGORIE":"Autre équipement","ADRESSE":"Rue Salvador Allende","LIBTYPE":null,"_IDOBJ":4382,"TYPE":null,"CATEGORIE":608},"geometry":{"type":"Point","coordinates":[-1.62429652739744,47.173403266949]}},{"type":"Feature","properties":{"geo":{"name":"Complexe sportif de la Croix-Jeannette"},"_l":[47.1715985404301,-1.62199440933209],"LIBTHEME":"SPORTS","CODE_POSTAL":44340,"WEB":"www.ville-bouguenais.fr","STATUT":null,"TELEPHONE":null,"THEME":6,"COMMUNE":"BOUGUENAIS","LIBCATEGORIE":"Centre sportif","ADRESSE":"Rue Pablo Neruda","LIBTYPE":null,"_IDOBJ":4383,"TYPE":null,"CATEGORIE":601},"geometry":{"type":"Point","coordinates":[-1.62199440933209,47.1715985404301]}},{"type":"Feature","properties":{"geo":{"name":"Terrain de boules de Beauvoir"},"_l":[47.1791113975866,-1.62643250012879],"LIBTHEME":"SPORTS","CODE_POSTAL":44340,"WEB":"www.ville-bouguenais.fr","STATUT":null,"TELEPHONE":null,"THEME":6,"COMMUNE":"BOUGUENAIS","LIBCATEGORIE":"Autre équipement","ADRESSE":"Rue de Beauvoir","LIBTYPE":null,"_IDOBJ":4384,"TYPE":null,"CATEGORIE":608},"geometry":{"type":"Point","coordinates":[-1.62643250012879,47.1791113975866]}},{"type":"Feature","properties":{"geo":{"name":"Terrain multisports de la Pierre Blanche"},"_l":[47.1667816209015,-1.62536528312159],"LIBTHEME":"SPORTS","CODE_POSTAL":44340,"WEB":"www.ville-bouguenais.fr","STATUT":null,"TELEPHONE":null,"THEME":6,"COMMUNE":"BOUGUENAIS","LIBCATEGORIE":"Autre équipement","ADRESSE":"Rue du Carrousel","LIBTYPE":null,"_IDOBJ":4385,"TYPE":null,"CATEGORIE":608},"geometry":{"type":"Point","coordinates":[-1.62536528312159,47.1667816209015]}},{"type":"Feature","properties":{"geo":{"name":"Skatepark"},"_l":[47.1778083499968,-1.6298593988431],"LIBTHEME":"SPORTS","CODE_POSTAL":44340,"WEB":"www.ville-bouguenais.fr","STATUT":null,"TELEPHONE":null,"THEME":6,"COMMUNE":"BOUGUENAIS","LIBCATEGORIE":"Autre équipement","ADRESSE":"Allée de la Communauté Rurale de Ballou","LIBTYPE":null,"_IDOBJ":4392,"TYPE":null,"CATEGORIE":608},"geometry":{"type":"Point","coordinates":[-1.6298593988431,47.1778083499968]}},{"type":"Feature","properties":{"geo":{"name":"Espace René Cassin - salle Gilles de la Bourdonnaye"},"_l":[47.1942539117923,-1.76211029913759],"LIBTHEME":"SPORTS","CODE_POSTAL":44640,"WEB":"www.ville-lepellerin.fr","STATUT":null,"TELEPHONE":null,"THEME":6,"COMMUNE":"LE-PELLERIN","LIBCATEGORIE":"Gymnase","ADRESSE":"Rue de la Jouardais","LIBTYPE":null,"_IDOBJ":4393,"TYPE":null,"CATEGORIE":603},"geometry":{"type":"Point","coordinates":[-1.76211029913759,47.1942539117923]}},{"type":"Feature","properties":{"geo":{"name":"Espace René Cassin - salle Cécile Nowak"},"_l":[47.1941796772969,-1.76175348369782],"LIBTHEME":"SPORTS","CODE_POSTAL":44640,"WEB":"www.ville-lepellerin.fr","STATUT":null,"TELEPHONE":null,"THEME":6,"COMMUNE":"LE-PELLERIN","LIBCATEGORIE":"Gymnase","ADRESSE":"Rue de la Jouardais","LIBTYPE":null,"_IDOBJ":4394,"TYPE":null,"CATEGORIE":603},"geometry":{"type":"Point","coordinates":[-1.76175348369782,47.1941796772969]}},{"type":"Feature","properties":{"geo":{"name":"Terrain de basket"},"_l":[47.1959542284627,-1.75847864387058],"LIBTHEME":"SPORTS","CODE_POSTAL":44640,"WEB":"www.ville-lepellerin.fr","STATUT":null,"TELEPHONE":null,"THEME":6,"COMMUNE":"LE-PELLERIN","LIBCATEGORIE":"Autre équipement","ADRESSE":"Rue de la Jouardais","LIBTYPE":null,"_IDOBJ":4395,"TYPE":null,"CATEGORIE":608},"geometry":{"type":"Point","coordinates":[-1.75847864387058,47.1959542284627]}},{"type":"Feature","properties":{"geo":{"name":"Terrain Multisports"},"_l":[47.1958049825886,-1.75819683229684],"LIBTHEME":"SPORTS","CODE_POSTAL":44640,"WEB":"www.ville-lepellerin.fr","STATUT":null,"TELEPHONE":null,"THEME":6,"COMMUNE":"LE-PELLERIN","LIBCATEGORIE":"Autre équipement","ADRESSE":"Rue de la Jouardais","LIBTYPE":null,"_IDOBJ":4396,"TYPE":null,"CATEGORIE":608},"geometry":{"type":"Point","coordinates":[-1.75819683229684,47.1958049825886]}},{"type":"Feature","properties":{"geo":{"name":"Amicale Laïque du Pellerin Tir Sportif"},"_l":[47.200727477551,-1.75902876489526],"LIBTHEME":"SPORTS","CODE_POSTAL":44640,"WEB":"www.ville-lepellerin.fr","STATUT":null,"TELEPHONE":null,"THEME":6,"COMMUNE":"LE-PELLERIN","LIBCATEGORIE":"Autre équipement","ADRESSE":"2 Rue de la Paix","LIBTYPE":null,"_IDOBJ":4397,"TYPE":null,"CATEGORIE":608},"geometry":{"type":"Point","coordinates":[-1.75902876489526,47.200727477551]}},{"type":"Feature","properties":{"geo":{"name":"Skatepark"},"_l":[47.2019454287438,-1.75010863427358],"LIBTHEME":"SPORTS","CODE_POSTAL":44640,"WEB":"www.ville-lepellerin.fr","STATUT":null,"TELEPHONE":null,"THEME":6,"COMMUNE":"LE-PELLERIN","LIBCATEGORIE":"Autre équipement","ADRESSE":"Quai du Docteur Provost","LIBTYPE":null,"_IDOBJ":4398,"TYPE":null,"CATEGORIE":608},"geometry":{"type":"Point","coordinates":[-1.75010863427358,47.2019454287438]}},{"type":"Feature","properties":{"geo":{"name":"Terrain multisports"},"_l":[47.2103948934432,-1.51306868442501],"LIBTHEME":"SPORTS","CODE_POSTAL":44230,"WEB":null,"STATUT":null,"TELEPHONE":null,"THEME":6,"COMMUNE":"ST-SEBASTIEN","LIBCATEGORIE":"Espace Sportif de Proximité","ADRESSE":"Boulevard des Pas Enchantés","LIBTYPE":null,"_IDOBJ":4471,"TYPE":null,"CATEGORIE":609},"geometry":{"type":"Point","coordinates":[-1.51306868442501,47.2103948934432]}},{"type":"Feature","properties":{"geo":{"name":"Courts de Tennis"},"_l":[47.2934626531311,-1.39092544393487],"LIBTHEME":"SPORTS","CODE_POSTAL":44470,"WEB":null,"STATUT":null,"TELEPHONE":null,"THEME":6,"COMMUNE":"MAUVES-SUR-LOIRE","LIBCATEGORIE":"Tennis","ADRESSE":"Rue des Saulzais","LIBTYPE":null,"_IDOBJ":4472,"TYPE":null,"CATEGORIE":607},"geometry":{"type":"Point","coordinates":[-1.39092544393487,47.2934626531311]}},{"type":"Feature","properties":{"geo":{"name":"Centre Sportif de la Bourgonnière"},"_l":[47.2072019047294,-1.65639620862974],"LIBTHEME":"SPORTS","CODE_POSTAL":44800,"WEB":null,"STATUT":null,"TELEPHONE":null,"THEME":6,"COMMUNE":"ST-HERBLAIN","LIBCATEGORIE":"Centre sportif","ADRESSE":"34 Allée de la Bourgonnière","LIBTYPE":null,"_IDOBJ":4494,"TYPE":null,"CATEGORIE":601},"geometry":{"type":"Point","coordinates":[-1.65639620862974,47.2072019047294]}},{"type":"Feature","properties":{"geo":{"name":"Tennis"},"_l":[47.2301054930646,-1.58103296936768],"LIBTHEME":"SPORTS","CODE_POSTAL":44100,"WEB":null,"STATUT":null,"TELEPHONE":null,"THEME":6,"COMMUNE":"NANTES","LIBCATEGORIE":"Tennis","ADRESSE":"1 Rue Louis Delluc","LIBTYPE":null,"_IDOBJ":4495,"TYPE":null,"CATEGORIE":607},"geometry":{"type":"Point","coordinates":[-1.58103296936768,47.2301054930646]}},{"type":"Feature","properties":{"geo":{"name":"City Stade"},"_l":[47.2304282772397,-1.58390074500619],"LIBTHEME":"SPORTS","CODE_POSTAL":44100,"WEB":null,"STATUT":null,"TELEPHONE":null,"THEME":6,"COMMUNE":"NANTES","LIBCATEGORIE":"Espace Sportif de Proximité","ADRESSE":"Rue du Breil","LIBTYPE":null,"_IDOBJ":4505,"TYPE":null,"CATEGORIE":609},"geometry":{"type":"Point","coordinates":[-1.58390074500619,47.2304282772397]}},{"type":"Feature","properties":{"geo":{"name":"Poney Club Salantine Houssay"},"_l":[47.2296861899789,-1.5997194294491],"LIBTHEME":"SPORTS","CODE_POSTAL":44800,"WEB":"salantine.fr","STATUT":null,"TELEPHONE":"02 40 46 02 13","THEME":6,"COMMUNE":"ST-HERBLAIN","LIBCATEGORIE":"Centre sportif","ADRESSE":"Rue Jean Jacques Rousseau","LIBTYPE":null,"_IDOBJ":4517,"TYPE":null,"CATEGORIE":601},"geometry":{"type":"Point","coordinates":[-1.5997194294491,47.2296861899789]}},{"type":"Feature","properties":{"geo":{"name":"Boulodrome du Tillay"},"_l":[47.2313320131578,-1.60556742386325],"LIBTHEME":"SPORTS","CODE_POSTAL":44800,"WEB":null,"STATUT":null,"TELEPHONE":null,"THEME":6,"COMMUNE":"ST-HERBLAIN","LIBCATEGORIE":"Autre équipement","ADRESSE":"Allée des Droits de l'Homme","LIBTYPE":null,"_IDOBJ":4519,"TYPE":null,"CATEGORIE":608},"geometry":{"type":"Point","coordinates":[-1.60556742386325,47.2313320131578]}},{"type":"Feature","properties":{"geo":{"name":"Tennis Club La Gagnerie"},"_l":[47.235501355851,-1.60102340982181],"LIBTHEME":"SPORTS","CODE_POSTAL":44800,"WEB":"tc-gagnerie.fr","STATUT":null,"TELEPHONE":"02 40 76 05 14","THEME":6,"COMMUNE":"ST-HERBLAIN","LIBCATEGORIE":"Tennis","ADRESSE":"Avenue Alain Gerbault","LIBTYPE":null,"_IDOBJ":4522,"TYPE":null,"CATEGORIE":607},"geometry":{"type":"Point","coordinates":[-1.60102340982181,47.235501355851]}},{"type":"Feature","properties":{"geo":{"name":"City Stade"},"_l":[47.2561017302004,-1.51933111538115],"LIBTHEME":"SPORTS","CODE_POSTAL":44300,"WEB":null,"STATUT":null,"TELEPHONE":null,"THEME":6,"COMMUNE":"NANTES","LIBCATEGORIE":"Espace Sportif de Proximité","ADRESSE":"Rue Gustave Eiffel","LIBTYPE":null,"_IDOBJ":4538,"TYPE":null,"CATEGORIE":609},"geometry":{"type":"Point","coordinates":[-1.51933111538115,47.2561017302004]}},{"type":"Feature","properties":{"geo":{"name":"City Stade"},"_l":[47.2170918722201,-1.52393174051278],"LIBTHEME":"SPORTS","CODE_POSTAL":44000,"WEB":null,"STATUT":null,"TELEPHONE":null,"THEME":6,"COMMUNE":"NANTES","LIBCATEGORIE":"Espace Sportif de Proximité","ADRESSE":"Rue de Suisse","LIBTYPE":null,"_IDOBJ":4539,"TYPE":null,"CATEGORIE":609},"geometry":{"type":"Point","coordinates":[-1.52393174051278,47.2170918722201]}},{"type":"Feature","properties":{"geo":{"name":"City Stade"},"_l":[47.2686413253353,-1.51874002158811],"LIBTHEME":"SPORTS","CODE_POSTAL":44300,"WEB":null,"STATUT":null,"TELEPHONE":null,"THEME":6,"COMMUNE":"NANTES","LIBCATEGORIE":"Espace Sportif de Proximité","ADRESSE":"Rue Louis Pergaud","LIBTYPE":null,"_IDOBJ":4602,"TYPE":null,"CATEGORIE":609},"geometry":{"type":"Point","coordinates":[-1.51874002158811,47.2686413253353]}},{"type":"Feature","properties":{"geo":{"name":"Gymnase Bonne Garde"},"_l":[47.1929657069178,-1.53691739665354],"LIBTHEME":"SPORTS","CODE_POSTAL":44200,"WEB":null,"STATUT":"Privé","TELEPHONE":"02 51 11 03 44","THEME":6,"COMMUNE":"NANTES","LIBCATEGORIE":"Gymnase","ADRESSE":"30 Rue Frère Louis","LIBTYPE":null,"_IDOBJ":27,"TYPE":null,"CATEGORIE":603},"geometry":{"type":"Point","coordinates":[-1.53691739665354,47.1929657069178]}},{"type":"Feature","properties":{"geo":{"name":"Gymnase Emile Morice"},"_l":[47.2064593469832,-1.55149274758042],"LIBTHEME":"SPORTS","CODE_POSTAL":44200,"WEB":null,"STATUT":"Ville de Nantes","TELEPHONE":"02 40 89 30 79","THEME":6,"COMMUNE":"NANTES","LIBCATEGORIE":"Gymnase","ADRESSE":"8 Quai Hoche","LIBTYPE":null,"_IDOBJ":28,"TYPE":null,"CATEGORIE":603},"geometry":{"type":"Point","coordinates":[-1.55149274758042,47.2064593469832]}},{"type":"Feature","properties":{"geo":{"name":"Gymnase Gravaud"},"_l":[47.2038636257076,-1.57752951962898],"LIBTHEME":"SPORTS","CODE_POSTAL":44100,"WEB":null,"STATUT":"Ville de Nantes","TELEPHONE":"02 40 73 86 86","THEME":6,"COMMUNE":"NANTES","LIBCATEGORIE":"Gymnase","ADRESSE":"14 Rue de la Barbinais","LIBTYPE":null,"_IDOBJ":29,"TYPE":null,"CATEGORIE":603},"geometry":{"type":"Point","coordinates":[-1.57752951962898,47.2038636257076]}},