{"type":"FeatureCollection","features":[{"type":"Feature","properties":{"title":"Centre d'Incendie et de Secours Rezé","Catégorie":"Pompiers","Type":null,"Statut":null,"Adresse":"8 ","Code postal":44400,"Commune":"REZE","Téléphone":"02 28 20 45 00","Site Internet":"www.pompiersdefrance.org","icon":"default"},"geometry":{"type":"Point","coordinates":[-1.55452321401702,47.1941603533334]}},{"type":"Feature","properties":{"title":"Centre d'Incendie et de Secours Vertou","Catégorie":"Pompiers","Type":null,"Statut":null,"Adresse":"Allée des Cadets","Code postal":44120,"Commune":"VERTOU","Téléphone":"02 40 03 17 18","Site Internet":"www.pompiersdefrance.org","icon":"default"},"geometry":{"type":"Point","coordinates":[-1.46164149225231,47.17777658054]}},{"type":"Feature","properties":{"title":"Tribunal de Grande Instance Nantes","Catégorie":"Justice","Type":null,"Statut":null,"Adresse":"Quai François Mitterrand","Code postal":44200,"Commune":"NANTES","Téléphone":"02 51 17 95 00","Site Internet":"www.justice.gouv.fr","icon":"default"},"geometry":{"type":"Point","coordinates":[-1.561712382933,47.2075726032428]}},{"type":"Feature","properties":{"title":"Tribunal d'Instance Nantes","Catégorie":"Justice","Type":null,"Statut":null,"Adresse":"Quai François Mitterrand","Code postal":44200,"Commune":"NANTES","Téléphone":"02 51 17 95 00","Site Internet":"www.justice.gouv.fr","icon":"default"},"geometry":{"type":"Point","coordinates":[-1.56116889517563,47.2077922886444]}},{"type":"Feature","properties":{"title":"Police Municipale Orvault","Catégorie":"Police","Type":"Police municipale","Statut":null,"Adresse":"Rue Marcel Deniau","Code postal":44700,"Commune":"ORVAULT","Téléphone":"02 51 78 31 57","Site Internet":null,"icon":"default"},"geometry":{"type":"Point","coordinates":[-1.62461883855969,47.270739694616]}},{"type":"Feature","properties":{"title":"Centre d'Incendie et de Secours Saint Herblain","Catégorie":"Pompiers","Type":null,"Statut":null,"Adresse":"Boulevard Charles De Gaulle","Code postal":44800,"Commune":"ST-HERBLAIN","Téléphone":"02 51 80 37 00","Site Internet":"www.pompiersdefrance.org","icon":"default"},"geometry":{"type":"Point","coordinates":[-1.62421356013104,47.2111254142498]}},{"type":"Feature","properties":{"title":"Cour Administrative d'Appel de Nantes","Catégorie":"Justice","Type":null,"Statut":null,"Adresse":"2 Place de l'Edit de Nantes","Code postal":44100,"Commune":"NANTES","Téléphone":"02 51 84 77 77","Site Internet":"www.conseil-etat.fr/ce-data/cours-ext/nantes","icon":"default"},"geometry":{"type":"Point","coordinates":[-1.56783699687537,47.2146176315382]}},{"type":"Feature","properties":{"title":"Commissariat de Police Bellevue","Catégorie":"Police","Type":"Police nationale","Statut":null,"Adresse":"50 Boulevard Winston Churchill","Code postal":44100,"Commune":"NANTES","Téléphone":"02 40 43 14 67","Site Internet":"www.interieur.gouv.fr/organisation","icon":"default"},"geometry":{"type":"Point","coordinates":[-1.61048336734263,47.2089746520243]}},{"type":"Feature","properties":{"title":"Commissariat de Police Henri  Barbusse","Catégorie":"Police","Type":"Police nationale","Statut":null,"Adresse":"14 Quai Henri Barbusse","Code postal":44000,"Commune":"NANTES","Téléphone":"02 51 86 03 40","Site Internet":null,"icon":"default"},"geometry":{"type":"Point","coordinates":[-1.5527948917921,47.2249693360757]}},{"type":"Feature","properties":{"title":"Caserne Commandant Rivière Détach. Maintenance Génie","Catégorie":"Armée","Type":null,"Statut":null,"Adresse":"12 Rue des Rochettes","Code postal":44000,"Commune":"NANTES","Téléphone":null,"Site Internet":"www.defense.gouv.fr/terre","icon":"default"},"geometry":{"type":"Point","coordinates":[-1.53543615535935,47.2233046771476]}},{"type":"Feature","properties":{"title":"Quartier Richemont Lamoricière","Catégorie":"Armée","Type":null,"Statut":null,"Adresse":"16 Rue des Rochettes","Code postal":44000,"Commune":"NANTES","Téléphone":null,"Site Internet":"www.defense.gouv.fr/terre","icon":"default"},"geometry":{"type":"Point","coordinates":[-1.5320308867113,47.2247607222181]}},{"type":"Feature","properties":{"title":"Etat Major de Force No 2 Nantes","Catégorie":"Armée","Type":null,"Statut":null,"Adresse":"16 Rue des Rochettes","Code postal":44000,"Commune":"NANTES","Téléphone":null,"Site Internet":"www.defense.gouv.fr/terre","icon":"default"},"geometry":{"type":"Point","coordinates":[-1.53247147766662,47.2250321688163]}},{"type":"Feature","properties":{"title":"Bureau Armée de l'Air Information Nantes","Catégorie":"Armée","Type":null,"Statut":null,"Adresse":"16 Rue des Rochettes","Code postal":44000,"Commune":"NANTES","Téléphone":"02 40 74 21 29","Site Internet":"www.defense.gouv.fr/air","icon":"default"},"geometry":{"type":"Point","coordinates":[-1.53683302304528,47.2241423002735]}},{"type":"Feature","properties":{"title":"Centre Educatif Nantes ouest - PJJ","Catégorie":"Justice","Type":null,"Statut":null,"Adresse":"11 Allée Baco","Code postal":44000,"Commune":"NANTES","Téléphone":"02 40 20 64 20","Site Internet":null,"icon":"default"},"geometry":{"type":"Point","coordinates":[-1.54881762575851,47.2140881638019]}},{"type":"Feature","properties":{"title":"Centre de Détention de Nantes","Catégorie":"Justice","Type":null,"Statut":null,"Adresse":"68 Boulevard Albert Einstein","Code postal":44300,"Commune":"NANTES","Téléphone":"02 40 16 45 00","Site Internet":"www.justice.gouv.fr","icon":"default"},"geometry":{"type":"Point","coordinates":[-1.57231439940694,47.2653234549513]}},{"type":"Feature","properties":{"title":"Tribunal des Affaires de Sécurité Sociale Nantes","Catégorie":"Justice","Type":null,"Statut":null,"Adresse":"10 Rue Mondésir","Code postal":44000,"Commune":"NANTES","Téléphone":"02 40 20 31 04","Site Internet":null,"icon":"default"},"geometry":{"type":"Point","coordinates":[-1.56935262388943,47.2183063029992]}},{"type":"Feature","properties":{"title":"Centre de Secours Gouzé","Catégorie":"Pompiers","Type":null,"Statut":null,"Adresse":"37 Rue Maréchal Joffre","Code postal":44000,"Commune":"NANTES","Téléphone":"02 40 37 85 85","Site Internet":"www.pompiersdefrance.org","icon":"default"},"geometry":{"type":"Point","coordinates":[-1.54526821868743,47.2212114995258]}},{"type":"Feature","properties":{"title":"Cellule Opérationnelle de Prévention des Risques Nantes","Catégorie":"Pompiers","Type":null,"Statut":null,"Adresse":"37 Rue Maréchal Joffre","Code postal":44000,"Commune":"NANTES","Téléphone":"02 40 37 85 54","Site Internet":"www.pompiersdefrance.org","icon":"default"},"geometry":{"type":"Point","coordinates":[-1.54673143308088,47.2217066772754]}},{"type":"Feature","properties":{"title":"Centre d'Action Educative Protection Judiciaire de la Jeunesse","Catégorie":"Justice","Type":null,"Statut":null,"Adresse":"106 Boulevard des Belges","Code postal":44300,"Commune":"NANTES","Téléphone":"02 51 13 45 19","Site Internet":null,"icon":"default"},"geometry":{"type":"Point","coordinates":[-1.54416652607627,47.2353464563975]}},{"type":"Feature","properties":{"title":"Gendarmerie Nationale Etat Major","Catégorie":"Gendarmerie","Type":null,"Statut":null,"Adresse":"8 Rue Stéphenson","Code postal":44000,"Commune":"NANTES","Téléphone":"02 40 49 64 45","Site Internet":"www.defense.gouv.fr/gendarmerie","icon":"default"},"geometry":{"type":"Point","coordinates":[-1.52857205006087,47.2243629962894]}},{"type":"Feature","properties":{"title":"Commissariat Feydeau","Catégorie":"Police","Type":"Police nationale","Statut":null,"Adresse":"5 Cours Olivier De Clisson","Code postal":44000,"Commune":"NANTES","Téléphone":"02 40 20 73 50","Site Internet":"www.interieur.gouv.fr","icon":"default"},"geometry":{"type":"Point","coordinates":[-1.5540734526188,47.2131197189799]}},{"type":"Feature","properties":{"title":"Commissariat de Police Chantenay","Catégorie":"Police","Type":"Police nationale","Statut":null,"Adresse":"128 Boulevard de la Liberté","Code postal":44100,"Commune":"NANTES","Téléphone":"02 40 46 51 16","Site Internet":"www.interieur.gouv.fr/organisation","icon":"default"},"geometry":{"type":"Point","coordinates":[-1.58776051774145,47.2055598265254]}},{"type":"Feature","properties":{"title":"Fourrière Automobile Municipale du Perray","Catégorie":"Police","Type":"Police nationale","Statut":null,"Adresse":"106 Rue du Perray","Code postal":44300,"Commune":"NANTES","Téléphone":"02 40 41 98 95","Site Internet":null,"icon":"default"},"geometry":{"type":"Point","coordinates":[-1.50955438156833,47.2496880406315]}},{"type":"Feature","properties":{"title":"Quart. Mellinet","Catégorie":"Armée","Type":null,"Statut":null,"Adresse":"4 Place du 51ième RA","Code postal":44000,"Commune":"NANTES","Téléphone":null,"Site Internet":"www.defense.gouv.fr/terre","icon":"default"},"geometry":{"type":"Point","coordinates":[-1.53865082694786,47.2275255535266]}},{"type":"Feature","properties":{"title":"22ème Bataillon d'Infanterie de Marine Nantes","Catégorie":"Armée","Type":null,"Statut":null,"Adresse":"4 Place du 51ième RA","Code postal":44000,"Commune":"NANTES","Téléphone":null,"Site Internet":"www.defense.gouv.fr/terre","icon":"default"},"geometry":{"type":"Point","coordinates":[-1.53828917707472,47.2277442322788]}},{"type":"Feature","properties":{"title":"9ème Brigade Légère Blindée de Marine Nantes","Catégorie":"Armée","Type":null,"Statut":null,"Adresse":"4 Place du 51ième RA","Code postal":44000,"Commune":"NANTES","Téléphone":null,"Site Internet":"www.defense.gouv.fr/terre","icon":"default"},"geometry":{"type":"Point","coordinates":[-1.53897732011467,47.2272906724048]}},{"type":"Feature","properties":{"title":"Police Municipale Vertou","Catégorie":"Police","Type":"Police municipale","Statut":null,"Adresse":"2 Rue du Chemin Creux","Code postal":44120,"Commune":"VERTOU","Téléphone":"02 51 71 30 47","Site Internet":null,"icon":"default"},"geometry":{"type":"Point","coordinates":[-1.47331399444406,47.1687794773689]}},{"type":"Feature","properties":{"title":"Centre d' Incendie et Secours Gabriel Pinson","Catégorie":"Pompiers","Type":null,"Statut":null,"Adresse":"3B Rue des Epinettes","Code postal":44830,"Commune":"BOUAYE","Téléphone":"02 40 65 50 09","Site Internet":"www;pompiersdefrance.org","icon":"default"},"geometry":{"type":"Point","coordinates":[-1.68985848943553,47.1456508977537]}},{"type":"Feature","properties":{"title":"Police Municipale Bouaye","Catégorie":"Police","Type":"Police municipale","Statut":null,"Adresse":"12 Rue de Pornic","Code postal":44830,"Commune":"BOUAYE","Téléphone":"02 51 70 55 59","Site Internet":null,"icon":"default"},"geometry":{"type":"Point","coordinates":[-1.69468222071905,47.1436682655717]}},{"type":"Feature","properties":{"title":"Police Municipale Bouguenais","Catégorie":"Police","Type":"Police municipale","Statut":null,"Adresse":"21 Rue Aristide Briand","Code postal":44340,"Commune":"BOUGUENAIS","Téléphone":"02 28 00 18 81","Site Internet":null,"icon":"default"},"geometry":{"type":"Point","coordinates":[-1.62288687355183,47.1795489463769]}},{"type":"Feature","properties":{"title":"Gendarmerie Nationale","Catégorie":"Gendarmerie","Type":null,"Statut":"Public","Adresse":"23 Rue Gutenberg","Code postal":44340,"Commune":"BOUGUENAIS","Téléphone":"02 40 65 16 79","Site Internet":"www.gendarmerie.defense.gouv.fr","icon":"default"},"geometry":{"type":"Point","coordinates":[-1.6172168170858,47.173293077781]}},{"type":"Feature","properties":{"title":"Centre de Secours Pompiers Bouguenais","Catégorie":"Pompiers","Type":null,"Statut":"Public","Adresse":"19 Rue Eugène Pottier","Code postal":44340,"Commune":"BOUGUENAIS","Téléphone":"02 40 32 02 80","Site Internet":"www.pompiersdefrance.org","icon":"default"},"geometry":{"type":"Point","coordinates":[-1.62718771406128,47.1780544360104]}},{"type":"Feature","properties":{"title":"Police Municipale Nantes","Catégorie":"Police","Type":"Police nationale","Statut":null,"Adresse":"11 Boulevard de Stalingrad","Code postal":44000,"Commune":"NANTES","Téléphone":"02 40 41 95 30","Site Internet":null,"icon":"default"},"geometry":{"type":"Point","coordinates":[-1.53643017875723,47.2194095732912]}},{"type":"Feature","properties":{"title":"Gendarmerie Centrale Saint Herblain","Catégorie":"Gendarmerie","Type":null,"Statut":"Public","Adresse":"Boulevard du Massacre","Code postal":44800,"Commune":"ST-HERBLAIN","Téléphone":"02 40 67 56 00","Site Internet":"www.gendarmerie.defense.gouv.fr","icon":"default"},"geometry":{"type":"Point","coordinates":[-1.58874503753763,47.2358825266874]}},{"type":"Feature","properties":{"title":"Compagnie Républicaine de Sécurité 42 Nantes","Catégorie":"Police","Type":"Police nationale","Statut":"Public","Adresse":"Avenue des Naudières","Code postal":44800,"Commune":"ST-HERBLAIN","Téléphone":"02 40 67 22 00","Site Internet":null,"icon":"default"},"geometry":{"type":"Point","coordinates":[-1.60023736499209,47.2381702192087]}},{"type":"Feature","properties":{"title":"Etablissement Pénitentiaire pour Mineurs","Catégorie":"Justice","Type":null,"Statut":null,"Adresse":"Avenue de la Jalière","Code postal":44700,"Commune":"ORVAULT","Téléphone":null,"Site Internet":null,"icon":"default"},"geometry":{"type":"Point","coordinates":[-1.59024802315103,47.2678262128539]}},{"type":"Feature","properties":{"title":"Commissariat de Police Orvault","Catégorie":"Police","Type":"Police nationale","Statut":"Public","Adresse":"Avenue Alexandre Goupil","Code postal":44700,"Commune":"ORVAULT","Téléphone":"02 40 94 75 36","Site Internet":"www.interieur.gouv.fr","icon":"default"},"geometry":{"type":"Point","coordinates":[-1.59751746243971,47.2537667236664]}},{"type":"Feature","properties":{"title":"Police Municipale Indre","Catégorie":"Police","Type":"Police municipale","Statut":null,"Adresse":"Avenue de la Loire","Code postal":44610,"Commune":"INDRE","Téléphone":"02 40 85 45 86","Site Internet":null,"icon":"default"},"geometry":{"type":"Point","coordinates":[-1.66619551439386,47.1993051566362]}},{"type":"Feature","properties":{"title":"Maison de la S. Sociale, Droit, Justice Rezé","Catégorie":"Justice","Type":null,"Statut":null,"Adresse":"6 ","Code postal":44400,"Commune":"REZE","Téléphone":null,"Site Internet":null,"icon":"default"},"geometry":{"type":"Point","coordinates":[-1.54613844125493,47.1909240550246]}},{"type":"Feature","properties":{"title":"Piste d'Education Routière Nantes","Catégorie":"Police","Type":"Police nationale","Statut":null,"Adresse":"Boulevard de la Beaujoire","Code postal":44300,"Commune":"NANTES","Téléphone":"02 40 25 16 56","Site Internet":null,"icon":"default"},"geometry":{"type":"Point","coordinates":[-1.52688066710054,47.2576303467311]}},{"type":"Feature","properties":{"title":"Gendarmerie Nationale Le Pellerin","Catégorie":"Gendarmerie","Type":null,"Statut":null,"Adresse":"Rue de Villeneuve","Code postal":44640,"Commune":"LE-PELLERIN","Téléphone":"02 40 04 66 17","Site Internet":null,"icon":"default"},"geometry":{"type":"Point","coordinates":[-1.75886629434881,47.1936903361139]}},{"type":"Feature","properties":{"title":"Centre d'Incendie et de Secours Couëron","Catégorie":"Pompiers","Type":null,"Statut":null,"Adresse":"Rue Joséphine Even","Code postal":44220,"Commune":"COUERON","Téléphone":"02 40 86 53 11","Site Internet":"www.pompiersdefrance.org","icon":"default"},"geometry":{"type":"Point","coordinates":[-1.72832338973765,47.2121002087676]}},{"type":"Feature","properties":{"title":"Gendarmerie Nationale Sainte Luce Sur loire","Catégorie":"Gendarmerie","Type":null,"Statut":null,"Adresse":"Route de Thouaré","Code postal":44980,"Commune":"SAINTE-LUCE-SUR-LOIRE","Téléphone":"02 51 13 39 90","Site Internet":null,"icon":"default"},"geometry":{"type":"Point","coordinates":[-1.46980639256882,47.2555225890293]}},{"type":"Feature","properties":{"title":"Direction des Constructions Navales d'Indret","Catégorie":"Armée","Type":null,"Statut":null,"Adresse":"Porte Houdaille","Code postal":44620,"Commune":"INDRE","Téléphone":"02 40 84 85 00","Site Internet":null,"icon":"default"},"geometry":{"type":"Point","coordinates":[-1.68005386628998,47.1960820868105]}},{"type":"Feature","properties":{"title":"Centre d'Incendie et de Secours Indre","Catégorie":"Pompiers","Type":null,"Statut":"Public","Adresse":"Rue de la Gare","Code postal":44610,"Commune":"INDRE","Téléphone":"02 40 38 02 28","Site Internet":"www.pompiersdefrance.org","icon":"default"},"geometry":{"type":"Point","coordinates":[-1.66860754120348,47.1994018513443]}},{"type":"Feature","properties":{"title":"Centre d'Incendie et de Secours Le Pellerin","Catégorie":"Pompiers","Type":null,"Statut":null,"Adresse":"Place du Champ de Foire","Code postal":44640,"Commune":"LE-PELLERIN","Téléphone":"02 40 05 61 27","Site Internet":null,"icon":"default"},"geometry":{"type":"Point","coordinates":[-1.75900202086203,47.2021659240053]}},{"type":"Feature","properties":{"title":"Gendarmerie Nationale Bouaye","Catégorie":"Gendarmerie","Type":null,"Statut":null,"Adresse":"Rue du Pinier","Code postal":44830,"Commune":"BOUAYE","Téléphone":"02 40 65 41 17","Site Internet":null,"icon":"default"},"geometry":{"type":"Point","coordinates":[-1.68168831376959,47.1433179394844]}},{"type":"Feature","properties":{"title":"Centre de Secours et d'Incendie Brains","Catégorie":"Pompiers","Type":null,"Statut":null,"Adresse":"Rue de Bel Air","Code postal":44830,"Commune":"BRAINS","Téléphone":"02 40 32 68 18","Site Internet":"www.pompiersdefrance.org","icon":"default"},"geometry":{"type":"Point","coordinates":[-1.71770215658723,47.17140451987]}},{"type":"Feature","properties":{"title":"Centre de semi-liberté","Catégorie":"Justice","Type":null,"Statut":null,"Adresse":"19 Avenue de la Close","Code postal":44300,"Commune":"NANTES","Téléphone":null,"Site Internet":null,"icon":"default"},"geometry":{"type":"Point","coordinates":[-1.57591395996756,47.2413126437672]}},{"type":"Feature","properties":{"title":"Commissariat de Police Rezé","Catégorie":"Police","Type":"Police nationale","Statut":null,"Adresse":"8 Allée de Touraine","Code postal":44400,"Commune":"REZE","Téléphone":"02 51 11 23 00","Site Internet":null,"icon":"default"},"geometry":{"type":"Point","coordinates":[-1.55592301132916,47.1859096061494]}},{"type":"Feature","properties":{"title":"Tribunal Administratif de Nantes","Catégorie":"Justice","Type":null,"Statut":null,"Adresse":"6 Allée de l'Ile Gloriette","Code postal":44000,"Commune":"NANTES","Téléphone":"02 40 99 46 00","Site Internet":"www.conseil-etat.fr/ce-data/trib_ext/nantes","icon":"default"},"geometry":{"type":"Point","coordinates":[-1.55786515453138,47.2109174832373]}},{"type":"Feature","properties":{"title":"Service Départemental d'Incendie et de Secours La Chapelle sur Erdre","Catégorie":"Pompiers","Type":null,"Statut":null,"Adresse":"12 Rue Arago","Code postal":44240,"Commune":"LA-CHAPELLE-SUR-ERDRE","Téléphone":"02 40 67 86 18","Site Internet":"www.pompiersdefrance.org","icon":"default"},"geometry":{"type":"Point","coordinates":[-1.55393058461534,47.263204761222]}},{"type":"Feature","properties":{"title":"Gendarmerie Nationale La Chapelle sur Erdre","Catégorie":"Gendarmerie","Type":null,"Statut":null,"Adresse":"26 Rue Charles De Gaulle","Code postal":44240,"Commune":"LA-CHAPELLE-SUR-ERDRE","Téléphone":"02 40 72 07 01","Site Internet":null,"icon":"default"},"geometry":{"type":"Point","coordinates":[-1.55819915060145,47.3043996791667]}},{"type":"Feature","properties":{"title":"Centre d'Information et de Recrutement de la Gendarmerie Nantes","Catégorie":"Gendarmerie","Type":null,"Statut":null,"Adresse":"2 Place Félix Fournier","Code postal":44000,"Commune":"NANTES","Téléphone":"02 40 20 24 24","Site Internet":"www.defense.gouv.fr/gendarmerie","icon":"default"},"geometry":{"type":"Point","coordinates":[-1.55759622342299,47.2147896923039]}},{"type":"Feature","properties":{"title":"Direction Départementale de la Protection Judiciaire de la Jeunesse Nantes","Catégorie":"Justice","Type":null,"Statut":null,"Adresse":"4 Rue de Courson","Code postal":44000,"Commune":"NANTES","Téléphone":"02 40 14 59 59","Site Internet":null,"icon":"default"},"geometry":{"type":"Point","coordinates":[-1.54386319358932,47.2240434159426]}},{"type":"Feature","properties":{"title":"Conseil des Prud'Hommes","Catégorie":"Justice","Type":null,"Statut":null,"Adresse":"26 Boulevard Vincent Gâche","Code postal":44200,"Commune":"NANTES","Téléphone":"02 40 20 61 30","Site Internet":"www.cgt.fr/07prudho/prud1.htm","icon":"default"},"geometry":{"type":"Point","coordinates":[-1.54661892271077,47.2064067844492]}},{"type":"Feature","properties":{"title":"Centre d'Action Educative Protection Judiciaire de la Jeunesse Nantes","Catégorie":"Justice","Type":null,"Statut":null,"Adresse":"62 Rue des Trois Rois","Code postal":44000,"Commune":"NANTES","Téléphone":"02 40 50 44 82","Site Internet":null,"icon":"default"},"geometry":{"type":"Point","coordinates":[-1.53011509508906,47.2307301138029]}},{"type":"Feature","properties":{"title":"Commissariat Saint Sébastien","Catégorie":"Police","Type":"Police nationale","Statut":"Public","Adresse":"28 Rue Maurice Daniel","Code postal":44230,"Commune":"ST-SEBASTIEN","Téléphone":"02 40 80 56 93","Site Internet":null,"icon":"default"},"geometry":{"type":"Point","coordinates":[-1.50651984072619,47.2062221898683]}},{"type":"Feature","properties":{"title":"Gendarmerie Mobile Nantes","Catégorie":"Gendarmerie","Type":null,"Statut":null,"Adresse":"4 Rue d'Allonville","Code postal":44000,"Commune":"NANTES","Téléphone":"02 51 12 50 00","Site Internet":"www.defense.gouv.fr/gendarmerie","icon":"default"},"geometry":{"type":"Point","coordinates":[-1.53352495444874,47.223374256173]}},{"type":"Feature","properties":{"title":"Centre de Secours Nantes Nord","Catégorie":"Pompiers","Type":null,"Statut":null,"Adresse":"26 Boulevard René Cassin","Code postal":44300,"Commune":"NANTES","Téléphone":"02 28 20 46 50","Site Internet":"www.pompiersdefrance.org","icon":"default"},"geometry":{"type":"Point","coordinates":[-1.58220930362375,47.2631741573758]}},{"type":"Feature","properties":{"title":"Centre d'Action Educative Protection Judiciaire de la Jeunesse Nantes","Catégorie":"Justice","Type":null,"Statut":null,"Adresse":"1 Rue Mauvoisins","Code postal":44200,"Commune":"NANTES","Téléphone":"02 51 71 21 31","Site Internet":null,"icon":"default"},"geometry":{"type":"Point","coordinates":[-1.52430137838358,47.1911644777912]}},{"type":"Feature","properties":{"title":"Commissariat de Police Babin Chevaye","Catégorie":"Police","Type":"Police nationale","Statut":null,"Adresse":"18 Boulevard Babin Chevaye","Code postal":44200,"Commune":"NANTES","Téléphone":"02 40 47 94 20","Site Internet":"www.interieur.gouv.fr/organisation","icon":"default"},"geometry":{"type":"Point","coordinates":[-1.55080087834071,47.2058228463965]}},{"type":"Feature","properties":{"title":"Gendarmerie Nationale Rezé","Catégorie":"Gendarmerie","Type":null,"Statut":null,"Adresse":"4 Rue Pierre Brossolette","Code postal":44400,"Commune":"REZE","Téléphone":"02 40 75 65 26","Site Internet":null,"icon":"default"},"geometry":{"type":"Point","coordinates":[-1.54962901536836,47.1870814098566]}},{"type":"Feature","properties":{"title":"Centre d'Action Educative Protection Judiciaire de la Jeunesse Nantes","Catégorie":"Justice","Type":null,"Statut":null,"Adresse":"4 Rue des Olivettes","Code postal":44000,"Commune":"NANTES","Téléphone":"02 40 35 39 74","Site Internet":null,"icon":"default"},"geometry":{"type":"Point","coordinates":[-1.55025579980218,47.2120656563371]}},{"type":"Feature","properties":{"title":"Maison de la Justice ,Droit et Sécurité","Catégorie":"Justice","Type":null,"Statut":null,"Adresse":"21 Rue Charles Roger","Code postal":44100,"Commune":"NANTES","Téléphone":"02 51 80 64 30","Site Internet":"www.justice.gouv.fr","icon":"default"},"geometry":{"type":"Point","coordinates":[-1.59758055330341,47.2229884421266]}},{"type":"Feature","properties":{"title":"Commissariat de Police Annexe Thébaudières","Catégorie":"Police","Type":"Police nationale","Statut":"Public","Adresse":"1 Place des Thébaudières","Code postal":44800,"Commune":"ST-HERBLAIN","Téléphone":"02 40 63 48 00","Site Internet":"www.interieur.gouv.fr","icon":"default"},"geometry":{"type":"Point","coordinates":[-1.60666689462712,47.2436483694951]}},{"type":"Feature","properties":{"title":"Commissariat Central de Police Waldeck Rousseau","Catégorie":"Police","Type":"Police nationale","Statut":null,"Adresse":"6 Place Waldeck Rousseau","Code postal":44000,"Commune":"NANTES","Téléphone":"02 40 37 21 21","Site Internet":"www.interieur.gouv.fr/organisation","icon":"default"},"geometry":{"type":"Point","coordinates":[-1.55171149786107,47.2269721488517]}},{"type":"Feature","properties":{"title":"Tribunal  de Commerce (Greffe) Nantes","Catégorie":"Justice","Type":null,"Statut":null,"Adresse":"2 Quai François Mitterrand","Code postal":44200,"Commune":"NANTES","Téléphone":"02 40 41 02 00","Site Internet":"www.infogreffe.fr","icon":"default"},"geometry":{"type":"Point","coordinates":[-1.55557946172813,47.2071962384858]}},{"type":"Feature","properties":{"title":"Commissariat de Police Toronto","Catégorie":"Police","Type":"Police nationale","Statut":null,"Adresse":"12 Rue de Toronto","Code postal":44300,"Commune":"NANTES","Téléphone":"02 40 59 03 21","Site Internet":"www.interieur.gouv.fr/organisation","icon":"default"},"geometry":{"type":"Point","coordinates":[-1.57744545825633,47.2582866644368]}},{"type":"Feature","properties":{"title":"Casier Judiciaire National","Catégorie":"Justice","Type":null,"Statut":null,"Adresse":"107 Rue du Landreau","Code postal":44300,"Commune":"NANTES","Téléphone":"02 51 89 89 51","Site Internet":"www.justice.gouv.fr/cjn","icon":"default"},"geometry":{"type":"Point","coordinates":[-1.51160980604455,47.2337154160348]}},{"type":"Feature","properties":{"title":"Gendarmerie Nationale Carquefou","Catégorie":"Gendarmerie","Type":null,"Statut":null,"Adresse":"12 Rue Louis Armand","Code postal":44470,"Commune":"CARQUEFOU","Téléphone":"02 40 50 87 17","Site Internet":null,"icon":"default"},"geometry":{"type":"Point","coordinates":[-1.48878834714578,47.2951619398599]}},{"type":"Feature","properties":{"title":"Direction Départementale Protection Judiciaire de la Jeunesse Bouguenais","Catégorie":"Justice","Type":null,"Statut":null,"Adresse":"42 Rue Jules Vallès","Code postal":44340,"Commune":"BOUGUENAIS","Téléphone":"02 40 32 31 81","Site Internet":null,"icon":"default"},"geometry":{"type":"Point","coordinates":[-1.57354231599371,47.1740779721185]}},{"type":"Feature","properties":{"title":"Commissariat de Police Central Saint Herblain","Catégorie":"Police","Type":"Police nationale","Statut":"Public","Adresse":"118 Boulevard François Mitterrand","Code postal":44800,"Commune":"ST-HERBLAIN","Téléphone":"02 40 85 43 00","Site Internet":"www.interieur.gouv.fr","icon":"default"},"geometry":{"type":"Point","coordinates":[-1.64871155737979,47.2139049083682]}},{"type":"Feature","properties":{"title":"Centre d'Incendie et de Secours La Montagne","Catégorie":"Pompiers","Type":null,"Statut":null,"Adresse":"Rue de la Briandière","Code postal":44620,"Commune":"LA-MONTAGNE","Téléphone":"02 40 65 84 97","Site Internet":"www.pompiersdefrance.org","icon":"default"},"geometry":{"type":"Point","coordinates":[-1.69019123399194,47.188597089056]}},{"type":"Feature","properties":{"title":"Ministère de la Défense Service des Essences Couëron","Catégorie":"Armée","Type":null,"Statut":null,"Adresse":"RD 617","Code postal":44220,"Commune":"COUERON","Téléphone":"02 40 85 40 00","Site Internet":null,"icon":"default"},"geometry":{"type":"Point","coordinates":[-1.68507671211545,47.210793663913]}},{"type":"Feature","properties":{"title":"Gendarmerie Nationale Couëron","Catégorie":"Gendarmerie","Type":null,"Statut":null,"Adresse":"Boulevard de la Libération","Code postal":44220,"Commune":"COUERON","Téléphone":"02 40 86 12 17","Site Internet":null,"icon":"default"},"geometry":{"type":"Point","coordinates":[-1.69877879097483,47.213690038705]}},{"type":"Feature","properties":{"title":"Maison d'Arrêt Hommes et Femmes","Catégorie":"Justice","Type":null,"Statut":null,"Adresse":"Rue de la Mainguais","Code postal":44300,"Commune":"CARQUEFOU","Téléphone":"02 72 65 33 00","Site Internet":null,"icon":"default"},"geometry":{"type":"Point","coordinates":[-1.50512834836447,47.267618480153]}},{"type":"Feature","properties":{"title":"Centre d' Incendie et Secours Carquefou","Catégorie":"Pompiers","Type":null,"Statut":null,"Adresse":"Impasse de Vieilleville","Code postal":44470,"Commune":"CARQUEFOU","Téléphone":"02 51 13 91 00","Site Internet":"www.pompiersdefrance.org","icon":"default"},"geometry":{"type":"Point","coordinates":[-1.47388394769838,47.2933499185985]}},{"type":"Feature","properties":{"title":"Police Municipale Sainte Luce sur Loire","Catégorie":"Police","Type":"Police municipale","Statut":null,"Adresse":"Mail de l'Europe","Code postal":44980,"Commune":"SAINTE-LUCE-SUR-LOIRE","Téléphone":"02 40 68 16 86","Site Internet":null,"icon":"default"},"geometry":{"type":"Point","coordinates":[-1.48375000976192,47.2488373712513]}},{"type":"Feature","properties":{"title":"Police Municipale Basse Goulaine","Catégorie":"Police","Type":"Police municipale","Statut":null,"Adresse":"Rue de la Poste","Code postal":44115,"Commune":"BASSE-GOULAINE","Téléphone":"02 40 54 52 07","Site Internet":null,"icon":"default"},"geometry":{"type":"Point","coordinates":[-1.46727007487008,47.2166324090175]}},{"type":"Feature","properties":{"title":"Police Municipale Saint Sébastien","Catégorie":"Police","Type":"Police municipale","Statut":"Public","Adresse":"Rue du Général De Gaulle","Code postal":44230,"Commune":"ST-SEBASTIEN","Téléphone":"02 40 80 50 81","Site Internet":null,"icon":"default"},"geometry":{"type":"Point","coordinates":[-1.50281186638497,47.2074588958979]}},{"type":"Feature","properties":{"title":"Police Municipale Carquefou","Catégorie":"Police","Type":"Police municipale","Statut":null,"Adresse":"Rue de l'Hôtel de Ville","Code postal":44470,"Commune":"CARQUEFOU","Téléphone":"02 40 68 49 44","Site Internet":null,"icon":"default"},"geometry":{"type":"Point","coordinates":[-1.49238828142583,47.2992533757388]}},{"type":"Feature","properties":{"title":"Gendarmerie Nationale Vertou","Catégorie":"Gendarmerie","Type":null,"Statut":null,"Adresse":"Rue de la Massonnière","Code postal":44120,"Commune":"VERTOU","Téléphone":"02 40 34 41 17","Site Internet":null,"icon":"default"},"geometry":{"type":"Point","coordinates":[-1.4638193968722,47.1693270538215]}},{"type":"Feature","properties":{"title":"Police Municipale la Chapelle sur Erdre","Catégorie":"Police","Type":"Police municipale","Statut":null,"Adresse":"16 Rue Olivier De Sesmaisons","Code postal":44240,"Commune":"LA-CHAPELLE-SUR-ERDRE","Téléphone":"02 51 81 87 17","Site Internet":null,"icon":"default"},"geometry":{"type":"Point","coordinates":[-1.55188025930472,47.2989958333825]}},{"type":"Feature","properties":{"title":"Gendarmerie Nationale Sautron","Catégorie":"Gendarmerie","Type":null,"Statut":null,"Adresse":"1 Rue de la Mairie","Code postal":44880,"Commune":"SAUTRON","Téléphone":"02 40 63 46 10","Site Internet":null,"icon":"default"},"geometry":{"type":"Point","coordinates":[-1.67271629597606,47.2633655034889]}},{"type":"Feature","properties":{"title":"Brigade territoriale autonome de gendarmerie de Basse-Goulaine","Catégorie":"Gendarmerie","Type":null,"Statut":null,"Adresse":"80 Rue de Goulaine","Code postal":44115,"Commune":"BASSE-GOULAINE","Téléphone":"02 40 80 56 93","Site Internet":null,"icon":"default"},"geometry":{"type":"Point","coordinates":[-1.46129821547674,47.2085058444167]}},{"type":"Feature","properties":{"title":"Direction Départementale Protection Judiciaire de la Jeunesse Nantes","Catégorie":"Justice","Type":null,"Statut":null,"Adresse":"69 Boulevard des Poilus","Code postal":44000,"Commune":"NANTES","Téléphone":"02 40 84 07 00","Site Internet":null,"icon":"default"},"geometry":{"type":"Point","coordinates":[-1.52979585325581,47.2307587426875]}},{"type":"Feature","properties":{"title":"Commissariat de Police Est Jacques Patissou","Catégorie":"Police","Type":"Police nationale","Statut":null,"Adresse":"2 Place Jacques Patissou","Code postal":44000,"Commune":"NANTES","Téléphone":"02 40 29 38 25","Site Internet":"www.interieur.gouv.fr/organisation","icon":"default"},"geometry":{"type":"Point","coordinates":[-1.53512925782168,47.2317952222612]}},{"type":"Feature","properties":{"title":"Police Municipale Couëon","Catégorie":"Police","Type":"Police municipale","Statut":null,"Adresse":"8 Place Charles De Gaulle","Code postal":44220,"Commune":"COUERON","Téléphone":"02 40 38 51 18","Site Internet":null,"icon":"default"},"geometry":{"type":"Point","coordinates":[-1.72773819091274,47.2117819739661]}},{"type":"Feature","properties":{"title":"Gendarmerie Nationale Doulon","Catégorie":"Gendarmerie","Type":null,"Statut":null,"Adresse":"18 Boulevard Ernest Dalby","Code postal":44000,"Commune":"NANTES","Téléphone":"02 40 49 75 24","Site Internet":"www.defense.gouv.fr/gendarmerie","icon":"default"},"geometry":{"type":"Point","coordinates":[-1.52819220144191,47.2273502656567]}},{"type":"Feature","properties":{"title":"Marine Nationale Bureau Info Carrières Marine Nantes","Catégorie":"Armée","Type":null,"Statut":null,"Adresse":"66 Rue de la Ville en Pierre","Code postal":44000,"Commune":"NANTES","Téléphone":"02 40 49 35 44","Site Internet":"www.defense.gouv.fr/marine","icon":"default"},"geometry":{"type":"Point","coordinates":[-1.5276930908864,47.2250272497669]}}],"properties":[{"type":"Feature","properties":{"title":"Centre d'Incendie et de Secours Rezé","Catégorie":"Pompiers","Type":null,"Statut":null,"Adresse":"8 ","Code postal":44400,"Commune":"REZE","Téléphone":"02 28 20 45 00","Site Internet":"www.pompiersdefrance.org","icon":"default"},"geometry":{"type":"Point","coordinates":[-1.55452321401702,47.1941603533334]}},{"type":"Feature","properties":{"title":"Centre d'Incendie et de Secours Vertou","Catégorie":"Pompiers","Type":null,"Statut":null,"Adresse":"Allée des Cadets","Code postal":44120,"Commune":"VERTOU","Téléphone":"02 40 03 17 18","Site Internet":"www.pompiersdefrance.org","icon":"default"},"geometry":{"type":"Point","coordinates":[-1.46164149225231,47.17777658054]}},{"type":"Feature","properties":{"title":"Tribunal de Grande Instance Nantes","Catégorie":"Justice","Type":null,"Statut":null,"Adresse":"Quai François Mitterrand","Code postal":44200,"Commune":"NANTES","Téléphone":"02 51 17 95 00","Site Internet":"www.justice.gouv.fr","icon":"default"},"geometry":{"type":"Point","coordinates":[-1.561712382933,47.2075726032428]}},{"type":"Feature","properties":{"title":"Tribunal d'Instance Nantes","Catégorie":"Justice","Type":null,"Statut":null,"Adresse":"Quai François Mitterrand","Code postal":44200,"Commune":"NANTES","Téléphone":"02 51 17 95 00","Site Internet":"www.justice.gouv.fr","icon":"default"},"geometry":{"type":"Point","coordinates":[-1.56116889517563,47.2077922886444]}},{"type":"Feature","properties":{"title":"Police Municipale Orvault","Catégorie":"Police","Type":"Police municipale","Statut":null,"Adresse":"Rue Marcel Deniau","Code postal":44700,"Commune":"ORVAULT","Téléphone":"02 51 78 31 57","Site Internet":null,"icon":"default"},"geometry":{"type":"Point","coordinates":[-1.62461883855969,47.270739694616]}},{"type":"Feature","properties":{"title":"Centre d'Incendie et de Secours Saint Herblain","Catégorie":"Pompiers","Type":null,"Statut":null,"Adresse":"Boulevard Charles De Gaulle","Code postal":44800,"Commune":"ST-HERBLAIN","Téléphone":"02 51 80 37 00","Site Internet":"www.pompiersdefrance.org","icon":"default"},"geometry":{"type":"Point","coordinates":[-1.62421356013104,47.2111254142498]}},{"type":"Feature","properties":{"title":"Cour Administrative d'Appel de Nantes","Catégorie":"Justice","Type":null,"Statut":null,"Adresse":"2 Place de l'Edit de Nantes","Code postal":44100,"Commune":"NANTES","Téléphone":"02 51 84 77 77","Site Internet":"www.conseil-etat.fr/ce-data/cours-ext/nantes","icon":"default"},"geometry":{"type":"Point","coordinates":[-1.56783699687537,47.2146176315382]}},{"type":"Feature","properties":{"title":"Commissariat de Police Bellevue","Catégorie":"Police","Type":"Police nationale","Statut":null,"Adresse":"50 Boulevard Winston Churchill","Code postal":44100,"Commune":"NANTES","Téléphone":"02 40 43 14 67","Site Internet":"www.interieur.gouv.fr/organisation","icon":"default"},"geometry":{"type":"Point","coordinates":[-1.61048336734263,47.2089746520243]}},{"type":"Feature","properties":{"title":"Commissariat de Police Henri  Barbusse","Catégorie":"Police","Type":"Police nationale","Statut":null,"Adresse":"14 Quai Henri Barbusse","Code postal":44000,"Commune":"NANTES","Téléphone":"02 51 86 03 40","Site Internet":null,"icon":"default"},"geometry":{"type":"Point","coordinates":[-1.5527948917921,47.2249693360757]}},{"type":"Feature","properties":{"title":"Caserne Commandant Rivière Détach. Maintenance Génie","Catégorie":"Armée","Type":null,"Statut":null,"Adresse":"12 Rue des Rochettes","Code postal":44000,"Commune":"NANTES","Téléphone":null,"Site Internet":"www.defense.gouv.fr/terre","icon":"default"},"geometry":{"type":"Point","coordinates":[-1.53543615535935,47.2233046771476]}},{"type":"Feature","properties":{"title":"Quartier Richemont Lamoricière","Catégorie":"Armée","Type":null,"Statut":null,"Adresse":"16 Rue des Rochettes","Code postal":44000,"Commune":"NANTES","Téléphone":null,"Site Internet":"www.defense.gouv.fr/terre","icon":"default"},"geometry":{"type":"Point","coordinates":[-1.5320308867113,47.2247607222181]}},{"type":"Feature","properties":{"title":"Etat Major de Force No 2 Nantes","Catégorie":"Armée","Type":null,"Statut":null,"Adresse":"16 Rue des Rochettes","Code postal":44000,"Commune":"NANTES","Téléphone":null,"Site Internet":"www.defense.gouv.fr/terre","icon":"default"},"geometry":{"type":"Point","coordinates":[-1.53247147766662,47.2250321688163]}},{"type":"Feature","properties":{"title":"Bureau Armée de l'Air Information Nantes","Catégorie":"Armée","Type":null,"Statut":null,"Adresse":"16 Rue des Rochettes","Code postal":44000,"Commune":"NANTES","Téléphone":"02 40 74 21 29","Site Internet":"www.defense.gouv.fr/air","icon":"default"},"geometry":{"type":"Point","coordinates":[-1.53683302304528,47.2241423002735]}},{"type":"Feature","properties":{"title":"Centre Educatif Nantes ouest - PJJ","Catégorie":"Justice","Type":null,"Statut":null,"Adresse":"11 Allée Baco","Code postal":44000,"Commune":"NANTES","Téléphone":"02 40 20 64 20","Site Internet":null,"icon":"default"},"geometry":{"type":"Point","coordinates":[-1.54881762575851,47.2140881638019]}},{"type":"Feature","properties":{"title":"Centre de Détention de Nantes","Catégorie":"Justice","Type":null,"Statut":null,"Adresse":"68 Boulevard Albert Einstein","Code postal":44300,"Commune":"NANTES","Téléphone":"02 40 16 45 00","Site Internet":"www.justice.gouv.fr","icon":"default"},"geometry":{"type":"Point","coordinates":[-1.57231439940694,47.2653234549513]}},{"type":"Feature","properties":{"title":"Tribunal des Affaires de Sécurité Sociale Nantes","Catégorie":"Justice","Type":null,"Statut":null,"Adresse":"10 Rue Mondésir","Code postal":44000,"Commune":"NANTES","Téléphone":"02 40 20 31 04","Site Internet":null,"icon":"default"},"geometry":{"type":"Point","coordinates":[-1.56935262388943,47.2183063029992]}},{"type":"Feature","properties":{"title":"Centre de Secours Gouzé","Catégorie":"Pompiers","Type":null,"Statut":null,"Adresse":"37 Rue Maréchal Joffre","Code postal":44000,"Commune":"NANTES","Téléphone":"02 40 37 85 85","Site Internet":"www.pompiersdefrance.org","icon":"default"},"geometry":{"type":"Point","coordinates":[-1.54526821868743,47.2212114995258]}},{"type":"Feature","properties":{"title":"Cellule Opérationnelle de Prévention des Risques Nantes","Catégorie":"Pompiers","Type":null,"Statut":null,"Adresse":"37 Rue Maréchal Joffre","Code postal":44000,"Commune":"NANTES","Téléphone":"02 40 37 85 54","Site Internet":"www.pompiersdefrance.org","icon":"default"},"geometry":{"type":"Point","coordinates":[-1.54673143308088,47.2217066772754]}},{"type":"Feature","properties":{"title":"Centre d'Action Educative Protection Judiciaire de la Jeunesse","Catégorie":"Justice","Type":null,"Statut":null,"Adresse":"106 Boulevard des Belges","Code postal":44300,"Commune":"NANTES","Téléphone":"02 51 13 45 19","Site Internet":null,"icon":"default"},"geometry":{"type":"Point","coordinates":[-1.54416652607627,47.2353464563975]}},{"type":"Feature","properties":{"title":"Gendarmerie Nationale Etat Major","Catégorie":"Gendarmerie","Type":null,"Statut":null,"Adresse":"8 Rue Stéphenson","Code postal":44000,"Commune":"NANTES","Téléphone":"02 40 49 64 45","Site Internet":"www.defense.gouv.fr/gendarmerie","icon":"default"},"geometry":{"type":"Point","coordinates":[-1.52857205006087,47.2243629962894]}},{"type":"Feature","properties":{"title":"Commissariat Feydeau","Catégorie":"Police","Type":"Police nationale","Statut":null,"Adresse":"5 Cours Olivier De Clisson","Code postal":44000,"Commune":"NANTES","Téléphone":"02 40 20 73 50","Site Internet":"www.interieur.gouv.fr","icon":"default"},"geometry":{"type":"Point","coordinates":[-1.5540734526188,47.2131197189799]}},{"type":"Feature","properties":{"title":"Commissariat de Police Chantenay","Catégorie":"Police","Type":"Police nationale","Statut":null,"Adresse":"128 Boulevard de la Liberté","Code postal":44100,"Commune":"NANTES","Téléphone":"02 40 46 51 16","Site Internet":"www.interieur.gouv.fr/organisation","icon":"default"},"geometry":{"type":"Point","coordinates":[-1.58776051774145,47.2055598265254]}},{"type":"Feature","properties":{"title":"Fourrière Automobile Municipale du Perray","Catégorie":"Police","Type":"Police nationale","Statut":null,"Adresse":"106 Rue du Perray","Code postal":44300,"Commune":"NANTES","Téléphone":"02 40 41 98 95","Site Internet":null,"icon":"default"},"geometry":{"type":"Point","coordinates":[-1.50955438156833,47.2496880406315]}},{"type":"Feature","properties":{"title":"Quart. Mellinet","Catégorie":"Armée","Type":null,"Statut":null,"Adresse":"4 Place du 51ième RA","Code postal":44000,"Commune":"NANTES","Téléphone":null,"Site Internet":"www.defense.gouv.fr/terre","icon":"default"},"geometry":{"type":"Point","coordinates":[-1.53865082694786,47.2275255535266]}},{"type":"Feature","properties":{"title":"22ème Bataillon d'Infanterie de Marine Nantes","Catégorie":"Armée","Type":null,"Statut":null,"Adresse":"4 Place du 51ième RA","Code postal":44000,"Commune":"NANTES","Téléphone":null,"Site Internet":"www.defense.gouv.fr/terre","icon":"default"},"geometry":{"type":"Point","coordinates":[-1.53828917707472,47.2277442322788]}},{"type":"Feature","properties":{"title":"9ème Brigade Légère Blindée de Marine Nantes","Catégorie":"Armée","Type":null,"Statut":null,"Adresse":"4 Place du 51ième RA","Code postal":44000,"Commune":"NANTES","Téléphone":null,"Site Internet":"www.defense.gouv.fr/terre","icon":"default"},"geometry":{"type":"Point","coordinates":[-1.53897732011467,47.2272906724048]}},{"type":"Feature","properties":{"title":"Police Municipale Vertou","Catégorie":"Police","Type":"Police municipale","Statut":null,"Adresse":"2 Rue du Chemin Creux","Code postal":44120,"Commune":"VERTOU","Téléphone":"02 51 71 30 47","Site Internet":null,"icon":"default"},"geometry":{"type":"Point","coordinates":[-1.47331399444406,47.1687794773689]}},{"type":"Feature","properties":{"title":"Centre d' Incendie et Secours Gabriel Pinson","Catégorie":"Pompiers","Type":null,"Statut":null,"Adresse":"3B Rue des Epinettes","Code postal":44830,"Commune":"BOUAYE","Téléphone":"02 40 65 50 09","Site Internet":"www;pompiersdefrance.org","icon":"default"},"geometry":{"type":"Point","coordinates":[-1.68985848943553,47.1456508977537]}},{"type":"Feature","properties":{"title":"Police Municipale Bouaye","Catégorie":"Police","Type":"Police municipale","Statut":null,"Adresse":"12 Rue de Pornic","Code postal":44830,"Commune":"BOUAYE","Téléphone":"02 51 70 55 59","Site Internet":null,"icon":"default"},"geometry":{"type":"Point","coordinates":[-1.69468222071905,47.1436682655717]}},{"type":"Feature","properties":{"title":"Police Municipale Bouguenais","Catégorie":"Police","Type":"Police municipale","Statut":null,"Adresse":"21 Rue Aristide Briand","Code postal":44340,"Commune":"BOUGUENAIS","Téléphone":"02 28 00 18 81","Site Internet":null,"icon":"default"},"geometry":{"type":"Point","coordinates":[-1.62288687355183,47.1795489463769]}},{"type":"Feature","properties":{"title":"Gendarmerie Nationale","Catégorie":"Gendarmerie","Type":null,"Statut":"Public","Adresse":"23 Rue Gutenberg","Code postal":44340,"Commune":"BOUGUENAIS","Téléphone":"02 40 65 16 79","Site Internet":"www.gendarmerie.defense.gouv.fr","icon":"default"},"geometry":{"type":"Point","coordinates":[-1.6172168170858,47.173293077781]}},{"type":"Feature","properties":{"title":"Centre de Secours Pompiers Bouguenais","Catégorie":"Pompiers","Type":null,"Statut":"Public","Adresse":"19 Rue Eugène Pottier","Code postal":44340,"Commune":"BOUGUENAIS","Téléphone":"02 40 32 02 80","Site Internet":"www.pompiersdefrance.org","icon":"default"},"geometry":{"type":"Point","coordinates":[-1.62718771406128,47.1780544360104]}},{"type":"Feature","properties":{"title":"Police Municipale Nantes","Catégorie":"Police","Type":"Police nationale","Statut":null,"Adresse":"11 Boulevard de Stalingrad","Code postal":44000,"Commune":"NANTES","Téléphone":"02 40 41 95 30","Site Internet":null,"icon":"default"},"geometry":{"type":"Point","coordinates":[-1.53643017875723,47.2194095732912]}},{"type":"Feature","properties":{"title":"Gendarmerie Centrale Saint Herblain","Catégorie":"Gendarmerie","Type":null,"Statut":"Public","Adresse":"Boulevard du Massacre","Code postal":44800,"Commune":"ST-HERBLAIN","Téléphone":"02 40 67 56 00","Site Internet":"www.gendarmerie.defense.gouv.fr","icon":"default"},"geometry":{"type":"Point","coordinates":[-1.58874503753763,47.2358825266874]}},{"type":"Feature","properties":{"title":"Compagnie Républicaine de Sécurité 42 Nantes","Catégorie":"Police","Type":"Police nationale","Statut":"Public","Adresse":"Avenue des Naudières","Code postal":44800,"Commune":"ST-HERBLAIN","Téléphone":"02 40 67 22 00","Site Internet":null,"icon":"default"},"geometry":{"type":"Point","coordinates":[-1.60023736499209,47.2381702192087]}},{"type":"Feature","properties":{"title":"Etablissement Pénitentiaire pour Mineurs","Catégorie":"Justice","Type":null,"Statut":null,"Adresse":"Avenue de la Jalière","Code postal":44700,"Commune":"ORVAULT","Téléphone":null,"Site Internet":null,"icon":"default"},"geometry":{"type":"Point","coordinates":[-1.59024802315103,47.2678262128539]}},{"type":"Feature","properties":{"title":"Commissariat de Police Orvault","Catégorie":"Police","Type":"Police nationale","Statut":"Public","Adresse":"Avenue Alexandre Goupil","Code postal":44700,"Commune":"ORVAULT","Téléphone":"02 40 94 75 36","Site Internet":"www.interieur.gouv.fr","icon":"default"},"geometry":{"type":"Point","coordinates":[-1.59751746243971,47.2537667236664]}},{"type":"Feature","properties":{"title":"Police Municipale Indre","Catégorie":"Police","Type":"Police municipale","Statut":null,"Adresse":"Avenue de la Loire","Code postal":44610,"Commune":"INDRE","Téléphone":"02 40 85 45 86","Site Internet":null,"icon":"default"},"geometry":{"type":"Point","coordinates":[-1.66619551439386,47.1993051566362]}},{"type":"Feature","properties":{"title":"Maison de la S. Sociale, Droit, Justice Rezé","Catégorie":"Justice","Type":null,"Statut":null,"Adresse":"6 ","Code postal":44400,"Commune":"REZE","Téléphone":null,"Site Internet":null,"icon":"default"},"geometry":{"type":"Point","coordinates":[-1.54613844125493,47.1909240550246]}},{"type":"Feature","properties":{"title":"Piste d'Education Routière Nantes","Catégorie":"Police","Type":"Police nationale","Statut":null,"Adresse":"Boulevard de la Beaujoire","Code postal":44300,"Commune":"NANTES","Téléphone":"02 40 25 16 56","Site Internet":null,"icon":"default"},"geometry":{"type":"Point","coordinates":[-1.52688066710054,47.2576303467311]}},{"type":"Feature","properties":{"title":"Gendarmerie Nationale Le Pellerin","Catégorie":"Gendarmerie","Type":null,"Statut":null,"Adresse":"Rue de Villeneuve","Code postal":44640,"Commune":"LE-PELLERIN","Téléphone":"02 40 04 66 17","Site Internet":null,"icon":"default"},"geometry":{"type":"Point","coordinates":[-1.75886629434881,47.1936903361139]}},{"type":"Feature","properties":{"title":"Centre d'Incendie et de Secours Couëron","Catégorie":"Pompiers","Type":null,"Statut":null,"Adresse":"Rue Joséphine Even","Code postal":44220,"Commune":"COUERON","Téléphone":"02 40 86 53 11","Site Internet":"www.pompiersdefrance.org","icon":"default"},"geometry":{"type":"Point","coordinates":[-1.72832338973765,47.2121002087676]}},{"type":"Feature","properties":{"title":"Gendarmerie Nationale Sainte Luce Sur loire","Catégorie":"Gendarmerie","Type":null,"Statut":null,"Adresse":"Route de Thouaré","Code postal":44980,"Commune":"SAINTE-LUCE-SUR-LOIRE","Téléphone":"02 51 13 39 90","Site Internet":null,"icon":"default"},"geometry":{"type":"Point","coordinates":[-1.46980639256882,47.2555225890293]}},{"type":"Feature","properties":{"title":"Direction des Constructions Navales d'Indret","Catégorie":"Armée","Type":null,"Statut":null,"Adresse":"Porte Houdaille","Code postal":44620,"Commune":"INDRE","Téléphone":"02 40 84 85 00","Site Internet":null,"icon":"default"},"geometry":{"type":"Point","coordinates":[-1.68005386628998,47.1960820868105]}},{"type":"Feature","properties":{"title":"Centre d'Incendie et de Secours Indre","Catégorie":"Pompiers","Type":null,"Statut":"Public","Adresse":"Rue de la Gare","Code postal":44610,"Commune":"INDRE","Téléphone":"02 40 38 02 28","Site Internet":"www.pompiersdefrance.org","icon":"default"},"geometry":{"type":"Point","coordinates":[-1.66860754120348,47.1994018513443]}},{"type":"Feature","properties":{"title":"Centre d'Incendie et de Secours Le Pellerin","Catégorie":"Pompiers","Type":null,"Statut":null,"Adresse":"Place du Champ de Foire","Code postal":44640,"Commune":"LE-PELLERIN","Téléphone":"02 40 05 61 27","Site Internet":null,"icon":"default"},"geometry":{"type":"Point","coordinates":[-1.75900202086203,47.2021659240053]}},{"type":"Feature","properties":{"title":"Gendarmerie Nationale Bouaye","Catégorie":"Gendarmerie","Type":null,"Statut":null,"Adresse":"Rue du Pinier","Code postal":44830,"Commune":"BOUAYE","Téléphone":"02 40 65 41 17","Site Internet":null,"icon":"default"},"geometry":{"type":"Point","coordinates":[-1.68168831376959,47.1433179394844]}},{"type":"Feature","properties":{"title":"Centre de Secours et d'Incendie Brains","Catégorie":"Pompiers","Type":null,"Statut":null,"Adresse":"Rue de Bel Air","Code postal":44830,"Commune":"BRAINS","Téléphone":"02 40 32 68 18","Site Internet":"www.pompiersdefrance.org","icon":"default"},"geometry":{"type":"Point","coordinates":[-1.71770215658723,47.17140451987]}},{"type":"Feature","properties":{"title":"Centre de semi-liberté","Catégorie":"Justice","Type":null,"Statut":null,"Adresse":"19 Avenue de la Close","Code postal":44300,"Commune":"NANTES","Téléphone":null,"Site Internet":null,"icon":"default"},"geometry":{"type":"Point","coordinates":[-1.57591395996756,47.2413126437672]}},{"type":"Feature","properties":{"title":"Commissariat de Police Rezé","Catégorie":"Police","Type":"Police nationale","Statut":null,"Adresse":"8 Allée de Touraine","Code postal":44400,"Commune":"REZE","Téléphone":"02 51 11 23 00","Site Internet":null,"icon":"default"},"geometry":{"type":"Point","coordinates":[-1.55592301132916,47.1859096061494]}},{"type":"Feature","properties":{"title":"Tribunal Administratif de Nantes","Catégorie":"Justice","Type":null,"Statut":null,"Adresse":"6 Allée de l'Ile Gloriette","Code postal":44000,"Commune":"NANTES","Téléphone":"02 40 99 46 00","Site Internet":"www.conseil-etat.fr/ce-data/trib_ext/nantes","icon":"default"},"geometry":{"type":"Point","coordinates":[-1.55786515453138,47.2109174832373]}},{"type":"Feature","properties":{"title":"Service Départemental d'Incendie et de Secours La Chapelle sur Erdre","Catégorie":"Pompiers","Type":null,"Statut":null,"Adresse":"12 Rue Arago","Code postal":44240,"Commune":"LA-CHAPELLE-SUR-ERDRE","Téléphone":"02 40 67 86 18","Site Internet":"www.pompiersdefrance.org","icon":"default"},"geometry":{"type":"Point","coordinates":[-1.55393058461534,47.263204761222]}},{"type":"Feature","properties":{"title":"Gendarmerie Nationale La Chapelle sur Erdre","Catégorie":"Gendarmerie","Type":null,"Statut":null,"Adresse":"26 Rue Charles De Gaulle","Code postal":44240,"Commune":"LA-CHAPELLE-SUR-ERDRE","Téléphone":"02 40 72 07 01","Site Internet":null,"icon":"default"},"geometry":{"type":"Point","coordinates":[-1.55819915060145,47.3043996791667]}},{"type":"Feature","properties":{"title":"Centre d'Information et de Recrutement de la Gendarmerie Nantes","Catégorie":"Gendarmerie","Type":null,"Statut":null,"Adresse":"2 Place Félix Fournier","Code postal":44000,"Commune":"NANTES","Téléphone":"02 40 20 24 24","Site Internet":"www.defense.gouv.fr/gendarmerie","icon":"default"},"geometry":{"type":"Point","coordinates":[-1.55759622342299,47.2147896923039]}},{"type":"Feature","properties":{"title":"Direction Départementale de la Protection Judiciaire de la Jeunesse Nantes","Catégorie":"Justice","Type":null,"Statut":null,"Adresse":"4 Rue de Courson","Code postal":44000,"Commune":"NANTES","Téléphone":"02 40 14 59 59","Site Internet":null,"icon":"default"},"geometry":{"type":"Point","coordinates":[-1.54386319358932,47.2240434159426]}},{"type":"Feature","properties":{"title":"Conseil des Prud'Hommes","Catégorie":"Justice","Type":null,"Statut":null,"Adresse":"26 Boulevard Vincent Gâche","Code postal":44200,"Commune":"NANTES","Téléphone":"02 40 20 61 30","Site Internet":"www.cgt.fr/07prudho/prud1.htm","icon":"default"},"geometry":{"type":"Point","coordinates":[-1.54661892271077,47.2064067844492]}},{"type":"Feature","properties":{"title":"Centre d'Action Educative Protection Judiciaire de la Jeunesse Nantes","Catégorie":"Justice","Type":null,"Statut":null,"Adresse":"62 Rue des Trois Rois","Code postal":44000,"Commune":"NANTES","Téléphone":"02 40 50 44 82","Site Internet":null,"icon":"default"},"geometry":{"type":"Point","coordinates":[-1.53011509508906,47.2307301138029]}},{"type":"Feature","properties":{"title":"Commissariat Saint Sébastien","Catégorie":"Police","Type":"Police nationale","Statut":"Public","Adresse":"28 Rue Maurice Daniel","Code postal":44230,"Commune":"ST-SEBASTIEN","Téléphone":"02 40 80 56 93","Site Internet":null,"icon":"default"},"geometry":{"type":"Point","coordinates":[-1.50651984072619,47.2062221898683]}},{"type":"Feature","properties":{"title":"Gendarmerie Mobile Nantes","Catégorie":"Gendarmerie","Type":null,"Statut":null,"Adresse":"4 Rue d'Allonville","Code postal":44000,"Commune":"NANTES","Téléphone":"02 51 12 50 00","Site Internet":"www.defense.gouv.fr/gendarmerie","icon":"default"},"geometry":{"type":"Point","coordinates":[-1.53352495444874,47.223374256173]}},{"type":"Feature","properties":{"title":"Centre de Secours Nantes Nord","Catégorie":"Pompiers","Type":null,"Statut":null,"Adresse":"26 Boulevard René Cassin","Code postal":44300,"Commune":"NANTES","Téléphone":"02 28 20 46 50","Site Internet":"www.pompiersdefrance.org","icon":"default"},"geometry":{"type":"Point","coordinates":[-1.58220930362375,47.2631741573758]}},{"type":"Feature","properties":{"title":"Centre d'Action Educative Protection Judiciaire de la Jeunesse Nantes","Catégorie":"Justice","Type":null,"Statut":null,"Adresse":"1 Rue Mauvoisins","Code postal":44200,"Commune":"NANTES","Téléphone":"02 51 71 21 31","Site Internet":null,"icon":"default"},"geometry":{"type":"Point","coordinates":[-1.52430137838358,47.1911644777912]}},{"type":"Feature","properties":{"title":"Commissariat de Police Babin Chevaye","Catégorie":"Police","Type":"Police nationale","Statut":null,"Adresse":"18 Boulevard Babin Chevaye","Code postal":44200,"Commune":"NANTES","Téléphone":"02 40 47 94 20","Site Internet":"www.interieur.gouv.fr/organisation","icon":"default"},"geometry":{"type":"Point","coordinates":[-1.55080087834071,47.2058228463965]}},{"type":"Feature","properties":{"title":"Gendarmerie Nationale Rezé","Catégorie":"Gendarmerie","Type":null,"Statut":null,"Adresse":"4 Rue Pierre Brossolette","Code postal":44400,"Commune":"REZE","Téléphone":"02 40 75 65 26","Site Internet":null,"icon":"default"},"geometry":{"type":"Point","coordinates":[-1.54962901536836,47.1870814098566]}},{"type":"Feature","properties":{"title":"Centre d'Action Educative Protection Judiciaire de la Jeunesse Nantes","Catégorie":"Justice","Type":null,"Statut":null,"Adresse":"4 Rue des Olivettes","Code postal":44000,"Commune":"NANTES","Téléphone":"02 40 35 39 74","Site Internet":null,"icon":"default"},"geometry":{"type":"Point","coordinates":[-1.55025579980218,47.2120656563371]}},{"type":"Feature","properties":{"title":"Maison de la Justice ,Droit et Sécurité","Catégorie":"Justice","Type":null,"Statut":null,"Adresse":"21 Rue Charles Roger","Code postal":44100,"Commune":"NANTES","Téléphone":"02 51 80 64 30","Site Internet":"www.justice.gouv.fr","icon":"default"},"geometry":{"type":"Point","coordinates":[-1.59758055330341,47.2229884421266]}},{"type":"Feature","properties":{"title":"Commissariat de Police Annexe Thébaudières","Catégorie":"Police","Type":"Police nationale","Statut":"Public","Adresse":"1 Place des Thébaudières","Code postal":44800,"Commune":"ST-HERBLAIN","Téléphone":"02 40 63 48 00","Site Internet":"www.interieur.gouv.fr","icon":"default"},"geometry":{"type":"Point","coordinates":[-1.60666689462712,47.2436483694951]}},{"type":"Feature","properties":{"title":"Commissariat Central de Police Waldeck Rousseau","Catégorie":"Police","Type":"Police nationale","Statut":null,"Adresse":"6 Place Waldeck Rousseau","Code postal":44000,"Commune":"NANTES","Téléphone":"02 40 37 21 21","Site Internet":"www.interieur.gouv.fr/organisation","icon":"default"},"geometry":{"type":"Point","coordinates":[-1.55171149786107,47.2269721488517]}},{"type":"Feature","properties":{"title":"Tribunal  de Commerce (Greffe) Nantes","Catégorie":"Justice","Type":null,"Statut":null,"Adresse":"2 Quai François Mitterrand","Code postal":44200,"Commune":"NANTES","Téléphone":"02 40 41 02 00","Site Internet":"www.infogreffe.fr","icon":"default"},"geometry":{"type":"Point","coordinates":[-1.55557946172813,47.2071962384858]}},{"type":"Feature","properties":{"title":"Commissariat de Police Toronto","Catégorie":"Police","Type":"Police nationale","Statut":null,"Adresse":"12 Rue de Toronto","Code postal":44300,"Commune":"NANTES","Téléphone":"02 40 59 03 21","Site Internet":"www.interieur.gouv.fr/organisation","icon":"default"},"geometry":{"type":"Point","coordinates":[-1.57744545825633,47.2582866644368]}},{"type":"Feature","properties":{"title":"Casier Judiciaire National","Catégorie":"Justice","Type":null,"Statut":null,"Adresse":"107 Rue du Landreau","Code postal":44300,"Commune":"NANTES","Téléphone":"02 51 89 89 51","Site Internet":"www.justice.gouv.fr/cjn","icon":"default"},"geometry":{"type":"Point","coordinates":[-1.51160980604455,47.2337154160348]}},{"type":"Feature","properties":{"title":"Gendarmerie Nationale Carquefou","Catégorie":"Gendarmerie","Type":null,"Statut":null,"Adresse":"12 Rue Louis Armand","Code postal":44470,"Commune":"CARQUEFOU","Téléphone":"02 40 50 87 17","Site Internet":null,"icon":"default"},"geometry":{"type":"Point","coordinates":[-1.48878834714578,47.2951619398599]}},{"type":"Feature","properties":{"title":"Direction Départementale Protection Judiciaire de la Jeunesse Bouguenais","Catégorie":"Justice","Type":null,"Statut":null,"Adresse":"42 Rue Jules Vallès","Code postal":44340,"Commune":"BOUGUENAIS","Téléphone":"02 40 32 31 81","Site Internet":null,"icon":"default"},"geometry":{"type":"Point","coordinates":[-1.57354231599371,47.1740779721185]}},{"type":"Feature","properties":{"title":"Commissariat de Police Central Saint Herblain","Catégorie":"Police","Type":"Police nationale","Statut":"Public","Adresse":"118 Boulevard François Mitterrand","Code postal":44800,"Commune":"ST-HERBLAIN","Téléphone":"02 40 85 43 00","Site Internet":"www.interieur.gouv.fr","icon":"default"},"geometry":{"type":"Point","coordinates":[-1.64871155737979,47.2139049083682]}},{"type":"Feature","properties":{"title":"Centre d'Incendie et de Secours La Montagne","Catégorie":"Pompiers","Type":null,"Statut":null,"Adresse":"Rue de la Briandière","Code postal":44620,"Commune":"LA-MONTAGNE","Téléphone":"02 40 65 84 97","Site Internet":"www.pompiersdefrance.org","icon":"default"},"geometry":{"type":"Point","coordinates":[-1.69019123399194,47.188597089056]}},{"type":"Feature","properties":{"title":"Ministère de la Défense Service des Essences Couëron","Catégorie":"Armée","Type":null,"Statut":null,"Adresse":"RD 617","Code postal":44220,"Commune":"COUERON","Téléphone":"02 40 85 40 00","Site Internet":null,"icon":"default"},"geometry":{"type":"Point","coordinates":[-1.68507671211545,47.210793663913]}},{"type":"Feature","properties":{"title":"Gendarmerie Nationale Couëron","Catégorie":"Gendarmerie","Type":null,"Statut":null,"Adresse":"Boulevard de la Libération","Code postal":44220,"Commune":"COUERON","Téléphone":"02 40 86 12 17","Site Internet":null,"icon":"default"},"geometry":{"type":"Point","coordinates":[-1.69877879097483,47.213690038705]}},{"type":"Feature","properties":{"title":"Maison d'Arrêt Hommes et Femmes","Catégorie":"Justice","Type":null,"Statut":null,"Adresse":"Rue de la Mainguais","Code postal":44300,"Commune":"CARQUEFOU","Téléphone":"02 72 65 33 00","Site Internet":null,"icon":"default"},"geometry":{"type":"Point","coordinates":[-1.50512834836447,47.267618480153]}},{"type":"Feature","properties":{"title":"Centre d' Incendie et Secours Carquefou","Catégorie":"Pompiers","Type":null,"Statut":null,"Adresse":"Impasse de Vieilleville","Code postal":44470,"Commune":"CARQUEFOU","Téléphone":"02 51 13 91 00","Site Internet":"www.pompiersdefrance.org","icon":"default"},"geometry":{"type":"Point","coordinates":[-1.47388394769838,47.2933499185985]}},{"type":"Feature","properties":{"title":"Police Municipale Sainte Luce sur Loire","Catégorie":"Police","Type":"Police municipale","Statut":null,"Adresse":"Mail de l'Europe","Code postal":44980,"Commune":"SAINTE-LUCE-SUR-LOIRE","Téléphone":"02 40 68 16 86","Site Internet":null,"icon":"default"},"geometry":{"type":"Point","coordinates":[-1.48375000976192,47.2488373712513]}},{"type":"Feature","properties":{"title":"Police Municipale Basse Goulaine","Catégorie":"Police","Type":"Police municipale","Statut":null,"Adresse":"Rue de la Poste","Code postal":44115,"Commune":"BASSE-GOULAINE","Téléphone":"02 40 54 52 07","Site Internet":null,"icon":"default"},"geometry":{"type":"Point","coordinates":[-1.46727007487008,47.2166324090175]}},{"type":"Feature","properties":{"title":"Police Municipale Saint Sébastien","Catégorie":"Police","Type":"Police municipale","Statut":"Public","Adresse":"Rue du Général De Gaulle","Code postal":44230,"Commune":"ST-SEBASTIEN","Téléphone":"02 40 80 50 81","Site Internet":null,"icon":"default"},"geometry":{"type":"Point","coordinates":[-1.50281186638497,47.2074588958979]}},{"type":"Feature","properties":{"title":"Police Municipale Carquefou","Catégorie":"Police","Type":"Police municipale","Statut":null,"Adresse":"Rue de l'Hôtel de Ville","Code postal":44470,"Commune":"CARQUEFOU","Téléphone":"02 40 68 49 44","Site Internet":null,"icon":"default"},"geometry":{"type":"Point","coordinates":[-1.49238828142583,47.2992533757388]}},{"type":"Feature","properties":{"title":"Gendarmerie Nationale Vertou","Catégorie":"Gendarmerie","Type":null,"Statut":null,"Adresse":"Rue de la Massonnière","Code postal":44120,"Commune":"VERTOU","Téléphone":"02 40 34 41 17","Site Internet":null,"icon":"default"},"geometry":{"type":"Point","coordinates":[-1.4638193968722,47.1693270538215]}},{"type":"Feature","properties":{"title":"Police Municipale la Chapelle sur Erdre","Catégorie":"Police","Type":"Police municipale","Statut":null,"Adresse":"16 Rue Olivier De Sesmaisons","Code postal":44240,"Commune":"LA-CHAPELLE-SUR-ERDRE","Téléphone":"02 51 81 87 17","Site Internet":null,"icon":"default"},"geometry":{"type":"Point","coordinates":[-1.55188025930472,47.2989958333825]}},{"type":"Feature","properties":{"title":"Gendarmerie Nationale Sautron","Catégorie":"Gendarmerie","Type":null,"Statut":null,"Adresse":"1 Rue de la Mairie","Code postal":44880,"Commune":"SAUTRON","Téléphone":"02 40 63 46 10","Site Internet":null,"icon":"default"},"geometry":{"type":"Point","coordinates":[-1.67271629597606,47.2633655034889]}},{"type":"Feature","properties":{"title":"Brigade territoriale autonome de gendarmerie de Basse-Goulaine","Catégorie":"Gendarmerie","Type":null,"Statut":null,"Adresse":"80 Rue de Goulaine","Code postal":44115,"Commune":"BASSE-GOULAINE","Téléphone":"02 40 80 56 93","Site Internet":null,"icon":"default"},"geometry":{"type":"Point","coordinates":[-1.46129821547674,47.2085058444167]}},{"type":"Feature","properties":{"title":"Direction Départementale Protection Judiciaire de la Jeunesse Nantes","Catégorie":"Justice","Type":null,"Statut":null,"Adresse":"69 Boulevard des Poilus","Code postal":44000,"Commune":"NANTES","Téléphone":"02 40 84 07 00","Site Internet":null,"icon":"default"},"geometry":{"type":"Point","coordinates":[-1.52979585325581,47.2307587426875]}},{"type":"Feature","properties":{"title":"Commissariat de Police Est Jacques Patissou","Catégorie":"Police","Type":"Police nationale","Statut":null,"Adresse":"2 Place Jacques Patissou","Code postal":44000,"Commune":"NANTES","Téléphone":"02 40 29 38 25","Site Internet":"www.interieur.gouv.fr/organisation","icon":"default"},"geometry":{"type":"Point","coordinates":[-1.53512925782168,47.2317952222612]}},{"type":"Feature","properties":{"title":"Police Municipale Couëon","Catégorie":"Police","Type":"Police municipale","Statut":null,"Adresse":"8 Place Charles De Gaulle","Code postal":44220,"Commune":"COUERON","Téléphone":"02 40 38 51 18","Site Internet":null,"icon":"default"},"geometry":{"type":"Point","coordinates":[-1.72773819091274,47.2117819739661]}},{"type":"Feature","properties":{"title":"Gendarmerie Nationale Doulon","Catégorie":"Gendarmerie","Type":null,"Statut":null,"Adresse":"18 Boulevard Ernest Dalby","Code postal":44000,"Commune":"NANTES","Téléphone":"02 40 49 75 24","Site Internet":"www.defense.gouv.fr/gendarmerie","icon":"default"},"geometry":{"type":"Point","coordinates":[-1.52819220144191,47.2273502656567]}},{"type":"Feature","properties":{"title":"Marine Nationale Bureau Info Carrières Marine Nantes","Catégorie":"Armée","Type":null,"Statut":null,"Adresse":"66 Rue de la Ville en Pierre","Code postal":44000,"Commune":"NANTES","Téléphone":"02 40 49 35 44","Site Internet":"www.defense.gouv.fr/marine","icon":"default"},"geometry":{"type":"Point","coordinates":[-1.5276930908864,47.2250272497669]}}]}