{"type":"FeatureCollection","features":[]}type":"Feature","properties":{"geo":{"name":"Parking ouvrage Médiathèque"},"_l":[47.2108708271003,-1.5623381759623],"LIBTHEME":"DEPLACEMENT","CODE_POSTAL":44000,"WEB":"www.parkings-nantes.fr","STATUT":null,"TELEPHONE":"02 51 84 94 51","THEME":10,"COMMUNE":"NANTES","LIBCATEGORIE":"Parking Ouvrage","ADRESSE":"Rue Neuve des Capucins","LIBTYPE":"Mixte","_IDOBJ":134,"TYPE":100103,"CATEGORIE":1001},"geometry":{"type":"Point","coordinates":[-1.5623381759623,47.2108708271003]}},{"type":"Feature","properties":{"geo":{"name":"Parking ouvrage Gare Nord"},"_l":[47.2166890401729,-1.54498433411572],"LIBTHEME":"DEPLACEMENT","CODE_POSTAL":44000,"WEB":"www.resaplace.com","STATUT":null,"TELEPHONE":"08 25 88 88 26","THEME":10,"COMMUNE":"NANTES","LIBCATEGORIE":"Parking Ouvrage","ADRESSE":"Cours John Kennedy","LIBTYPE":"Elévation","_IDOBJ":280,"TYPE":100102,"CATEGORIE":1001},"geometry":{"type":"Point","coordinates":[-1.54498433411572,47.2166890401729]}},{"type":"Feature","properties":{"geo":{"name":"Parking ouvrage Decré-Bouffay"},"_l":[47.2166626199643,-1.55400463227177],"LIBTHEME":"DEPLACEMENT","CODE_POSTAL":44000,"WEB":"www.parkings-nantes.fr","STATUT":null,"TELEPHONE":"02 51 84 94 51","THEME":10,"COMMUNE":"NANTES","LIBCATEGORIE":"Parking Ouvrage","ADRESSE":"18 Rue du Moulin","LIBTYPE":"Mixte","_IDOBJ":284,"TYPE":100103,"CATEGORIE":1001},"geometry":{"type":"Point","coordinates":[-1.55400463227177,47.2166626199643]}},{"type":"Feature","properties":{"geo":{"name":"Parking ouvrage Graslin"},"_l":[47.2143102105068,-1.56257181621741],"LIBTHEME":"DEPLACEMENT","CODE_POSTAL":44000,"WEB":"www.parkings-nantes.fr","STATUT":null,"TELEPHONE":"02 51 84 94 51","THEME":10,"COMMUNE":"NANTES","LIBCATEGORIE":"Parking Ouvrage","ADRESSE":"Rue Scribe","LIBTYPE":"Elévation","_IDOBJ":288,"TYPE":100102,"CATEGORIE":1001},"geometry":{"type":"Point","coordinates":[-1.56257181621741,47.2143102105068]}},{"type":"Feature","properties":{"geo":{"name":"Parking ouvrage Tour Bretagne"},"_l":[47.2178428948398,-1.55825001902681],"LIBTHEME":"DEPLACEMENT","CODE_POSTAL":44000,"WEB":"www.parkings-nantes.fr","STATUT":null,"TELEPHONE":"02 51 84 94 51","THEME":10,"COMMUNE":"NANTES","LIBCATEGORIE":"Parking Ouvrage","ADRESSE":"4 Place de Bretagne","LIBTYPE":"Mixte","_IDOBJ":299,"TYPE":100103,"CATEGORIE":1001},"geometry":{"type":"Point","coordinates":[-1.55825001902681,47.2178428948398]}},{"type":"Feature","properties":{"geo":{"name":"Parking ouvrage Commerce"},"_l":[47.2131202858024,-1.55771321969051],"LIBTHEME":"DEPLACEMENT","CODE_POSTAL":44000,"WEB":"www.parkings-nantes.fr","STATUT":null,"TELEPHONE":"02 51 84 94 51","THEME":10,"COMMUNE":"NANTES","LIBCATEGORIE":"Parking Ouvrage","ADRESSE":"Place du Commerce","LIBTYPE":"Souterrain","_IDOBJ":677,"TYPE":100101,"CATEGORIE":1001},"geometry":{"type":"Point","coordinates":[-1.55771321969051,47.2131202858024]}},{"type":"Feature","properties":{"geo":{"name":"Parking ouvrage Aristide Briand"},"_l":[47.2170936048579,-1.56293641808053],"LIBTHEME":"DEPLACEMENT","CODE_POSTAL":44000,"WEB":"www.vincipark.com","STATUT":null,"TELEPHONE":"08 10 26 30 00","THEME":10,"COMMUNE":"NANTES","LIBCATEGORIE":"Parking Ouvrage","ADRESSE":"Place Aristide Briand","LIBTYPE":"Souterrain","_IDOBJ":1043,"TYPE":100101,"CATEGORIE":1001},"geometry":{"type":"Point","coordinates":[-1.56293641808053,47.2170936048579]}},{"type":"Feature","properties":{"geo":{"name":"Parking ouvrage Cité des Congrès"},"_l":[47.2129016709023,-1.54397127716684],"LIBTHEME":"DEPLACEMENT","CODE_POSTAL":44000,"WEB":"www.parkings-nantes.fr","STATUT":null,"TELEPHONE":"02 51 84 94 51","THEME":10,"COMMUNE":"NANTES","LIBCATEGORIE":"Parking Ouvrage","ADRESSE":"Avenue Jean Claude Bonduelle","LIBTYPE":"Souterrain","_IDOBJ":1044,"TYPE":100101,"CATEGORIE":1001},"geometry":{"type":"Point","coordinates":[-1.54397127716684,47.2129016709023]}},{"type":"Feature","properties":{"geo":{"name":"Parking ouvrage Gare Sud 1"},"_l":[47.2161496359544,-1.54103682846398],"LIBTHEME":"DEPLACEMENT","CODE_POSTAL":44000,"WEB":"www.resaplace.com","STATUT":null,"TELEPHONE":"08 25 88 88 26","THEME":10,"COMMUNE":"NANTES","LIBCATEGORIE":"Parking Ouvrage","ADRESSE":"Rue de Lourmel","LIBTYPE":"Elévation","_IDOBJ":1045,"TYPE":100102,"CATEGORIE":1001},"geometry":{"type":"Point","coordinates":[-1.54103682846398,47.2161496359544]}},{"type":"Feature","properties":{"geo":{"name":"Parking ouvrage Talensac"},"_l":[47.2202559810468,-1.55835729990237],"LIBTHEME":"DEPLACEMENT","CODE_POSTAL":44000,"WEB":"www.parkings-nantes.fr","STATUT":null,"TELEPHONE":"02 51 84 94 51","THEME":10,"COMMUNE":"NANTES","LIBCATEGORIE":"Parking Ouvrage","ADRESSE":"Rue Le Nôtre","LIBTYPE":"Elévation","_IDOBJ":1046,"TYPE":100102,"CATEGORIE":1001},"geometry":{"type":"Point","coordinates":[-1.55835729990237,47.2202559810468]}},{"type":"Feature","properties":{"geo":{"name":"Parc relais tramway Recteur Schmitt 1"},"_l":[47.2517352538688,-1.55290310437924],"LIBTHEME":"DEPLACEMENT","CODE_POSTAL":44300,"WEB":"www.tan.fr","STATUT":null,"TELEPHONE":"02 40 44 44 44","THEME":10,"COMMUNE":"NANTES","LIBCATEGORIE":"Parc Relais","ADRESSE":"Rue Recteur Schmitt","LIBTYPE":"Ouvrage","_IDOBJ":1341,"TYPE":100201,"CATEGORIE":1002},"geometry":{"type":"Point","coordinates":[-1.55290310437924,47.2517352538688]}},{"type":"Feature","properties":{"geo":{"name":"Aéroport Nantes Atlantique"},"_l":[47.1575191481928,-1.60178206983725],"LIBTHEME":"DEPLACEMENT","CODE_POSTAL":44340,"WEB":"www.nantes.aeroport.fr","STATUT":"Public","TELEPHONE":"02 40 84 80 00","THEME":10,"COMMUNE":"BOUGUENAIS","LIBCATEGORIE":"Transport en commun","ADRESSE":"Rue Clément Ader","LIBTYPE":"Aérien","_IDOBJ":2109,"TYPE":100401,"CATEGORIE":1004},"geometry":{"type":"Point","coordinates":[-1.60178206983725,47.1575191481928]}},{"type":"Feature","properties":{"geo":{"name":"Parc relais tramway Le Cardo"},"_l":[47.2625020936155,-1.58451198079141],"LIBTHEME":"DEPLACEMENT","CODE_POSTAL":44700,"WEB":"www.tan.fr","STATUT":null,"TELEPHONE":"02 40 44 44 44","THEME":10,"COMMUNE":"ORVAULT","LIBCATEGORIE":"Parc Relais","ADRESSE":"Esplanade du Cardo","LIBTYPE":"Ouvrage","_IDOBJ":3189,"TYPE":100201,"CATEGORIE":1002},"geometry":{"type":"Point","coordinates":[-1.58451198079141,47.2625020936155]}},{"type":"Feature","properties":{"geo":{"name":"Parc relais tramway François Mitterrand"},"_l":[47.22170620087,-1.63948414305523],"LIBTHEME":"DEPLACEMENT","CODE_POSTAL":44800,"WEB":"www.tan.fr","STATUT":null,"TELEPHONE":"02 40 44 44 44","THEME":10,"COMMUNE":"ST-HERBLAIN","LIBCATEGORIE":"Parc Relais","ADRESSE":"Rue Virginia Woolf","LIBTYPE":"Ouvrage","_IDOBJ":3190,"TYPE":100201,"CATEGORIE":1002},"geometry":{"type":"Point","coordinates":[-1.63948414305523,47.22170620087]}},{"type":"Feature","properties":{"geo":{"name":"Parc relais tramway 8 Mai"},"_l":[47.1900337520995,-1.55143945054574],"LIBTHEME":"DEPLACEMENT","CODE_POSTAL":44400,"WEB":"www.tan.fr","STATUT":null,"TELEPHONE":"02 40 44 44 44","THEME":10,"COMMUNE":"REZE","LIBCATEGORIE":"Parc Relais","ADRESSE":"Avenue André Malraux","LIBTYPE":"Ouvrage","_IDOBJ":3194,"TYPE":100201,"CATEGORIE":1002},"geometry":{"type":"Point","coordinates":[-1.55143945054574,47.1900337520995]}},{"type":"Feature","properties":{"geo":{"name":"Parc en enclos Gloriette 1"},"_l":[47.2111796553233,-1.55843872950464],"LIBTHEME":"DEPLACEMENT","CODE_POSTAL":44000,"WEB":"www.parkings-nantes.fr","STATUT":null,"TELEPHONE":"02 51 84 94 51","THEME":10,"COMMUNE":"NANTES","LIBCATEGORIE":"Parc en Enclos","ADRESSE":"Allée de l'Ile Gloriette","LIBTYPE":null,"_IDOBJ":3549,"TYPE":null,"CATEGORIE":1005},"geometry":{"type":"Point","coordinates":[-1.55843872950464,47.2111796553233]}},{"type":"Feature","properties":{"geo":{"name":"Parc en enclos Hôtel Dieu"},"_l":[47.2110570860299,-1.55198311230427],"LIBTHEME":"DEPLACEMENT","CODE_POSTAL":44000,"WEB":"www.parkings-nantes.fr","STATUT":null,"TELEPHONE":"02 51 84 94 51","THEME":10,"COMMUNE":"NANTES","LIBCATEGORIE":"Parc en Enclos","ADRESSE":"Chaussée de la Madeleine","LIBTYPE":null,"_IDOBJ":3550,"TYPE":null,"CATEGORIE":1005},"geometry":{"type":"Point","coordinates":[-1.55198311230427,47.2110570860299]}},{"type":"Feature","properties":{"geo":{"name":"Parc en enclos Baco-LU 2 côté CHU"},"_l":[47.2131509800273,-1.55160425745185],"LIBTHEME":"DEPLACEMENT","CODE_POSTAL":44000,"WEB":"www.parkings-nantes.fr","STATUT":null,"TELEPHONE":"02 51 84 94 51","THEME":10,"COMMUNE":"NANTES","LIBCATEGORIE":"Parc en Enclos","ADRESSE":"Allée Baco","LIBTYPE":null,"_IDOBJ":3551,"TYPE":null,"CATEGORIE":1005},"geometry":{"type":"Point","coordinates":[-1.55160425745185,47.2131509800273]}},{"type":"Feature","properties":{"geo":{"name":"Parc en enclos Château"},"_l":[47.2169899609793,-1.54785044968527],"LIBTHEME":"DEPLACEMENT","CODE_POSTAL":44000,"WEB":"www.parkings-nantes.fr","STATUT":null,"TELEPHONE":"02 51 84 94 51","THEME":10,"COMMUNE":"NANTES","LIBCATEGORIE":"Parc en Enclos","ADRESSE":"Rue Henri IV","LIBTYPE":null,"_IDOBJ":3554,"TYPE":null,"CATEGORIE":1005},"geometry":{"type":"Point","coordinates":[-1.54785044968527,47.2169899609793]}},{"type":"Feature","properties":{"geo":{"name":"Parc en enclos Gare Sud 3"},"_l":[47.216135859474,-1.53789482834948],"LIBTHEME":"DEPLACEMENT","CODE_POSTAL":44000,"WEB":"www.resaplace.com","STATUT":null,"TELEPHONE":"08 25 88 88 26","THEME":10,"COMMUNE":"NANTES","LIBCATEGORIE":"Parc en Enclos","ADRESSE":"Rue Marcel Paul","LIBTYPE":null,"_IDOBJ":3555,"TYPE":null,"CATEGORIE":1005},"geometry":{"type":"Point","coordinates":[-1.53789482834948,47.216135859474]}},{"type":"Feature","properties":{"geo":{"name":"Parc en enclos Les Fonderies"},"_l":[47.2049704647258,-1.54433295436521],"LIBTHEME":"DEPLACEMENT","CODE_POSTAL":44200,"WEB":null,"STATUT":null,"TELEPHONE":null,"THEME":10,"COMMUNE":"NANTES","LIBCATEGORIE":"Parc en Enclos","ADRESSE":"Rue de la Porte Gellée","LIBTYPE":null,"_IDOBJ":4319,"TYPE":null,"CATEGORIE":1005},"geometry":{"type":"Point","coordinates":[-1.54433295436521,47.2049704647258]}},{"type":"Feature","properties":{"geo":{"name":"Parc relais tramway Orvault Morlière"},"_l":[47.2467766477065,-1.60304946676259],"LIBTHEME":"DEPLACEMENT","CODE_POSTAL":44700,"WEB":"www.tan.fr","STATUT":null,"TELEPHONE":"02 40 44 44 44","THEME":10,"COMMUNE":"ORVAULT","LIBCATEGORIE":"Parc Relais","ADRESSE":"Avenue de la Morlière","LIBTYPE":"Ouvrage","_IDOBJ":3584,"TYPE":100201,"CATEGORIE":1002},"geometry":{"type":"Point","coordinates":[-1.60304946676259,47.2467766477065]}},{"type":"Feature","properties":{"geo":{"name":"Parc en enclos Gare Sud 2"},"_l":[47.2142340366163,-1.54134337584288],"LIBTHEME":"DEPLACEMENT","CODE_POSTAL":44000,"WEB":"www.resaplace.com","STATUT":null,"TELEPHONE":"08 25 88 88 26","THEME":10,"COMMUNE":"NANTES","LIBCATEGORIE":"Parc en Enclos","ADRESSE":"Quai Malakoff","LIBTYPE":null,"_IDOBJ":3589,"TYPE":null,"CATEGORIE":1005},"geometry":{"type":"Point","coordinates":[-1.54134337584288,47.2142340366163]}},{"type":"Feature","properties":{"geo":{"name":"Parc en enclos Gare Sud 2 limité 1h"},"_l":[47.2152021232956,-1.54267513884661],"LIBTHEME":"DEPLACEMENT","CODE_POSTAL":44000,"WEB":"www.resaplace.com","STATUT":null,"TELEPHONE":"08 25 88 88 26","THEME":10,"COMMUNE":"NANTES","LIBCATEGORIE":"Parc en Enclos","ADRESSE":"Quai Malakoff","LIBTYPE":null,"_IDOBJ":3590,"TYPE":null,"CATEGORIE":1005},"geometry":{"type":"Point","coordinates":[-1.54267513884661,47.2152021232956]}},{"type":"Feature","properties":{"geo":{"name":"Parc en enclos Bellamy"},"_l":[47.2223604161017,-1.55769369256355],"LIBTHEME":"DEPLACEMENT","CODE_POSTAL":44000,"WEB":"www.parkings-nantes.fr","STATUT":null,"TELEPHONE":"02 51 84 94 51","THEME":10,"COMMUNE":"NANTES","LIBCATEGORIE":"Parc en Enclos","ADRESSE":"Impasse de la Courtine","LIBTYPE":null,"_IDOBJ":3650,"TYPE":null,"CATEGORIE":1005},"geometry":{"type":"Point","coordinates":[-1.55769369256355,47.2223604161017]}},{"type":"Feature","properties":{"geo":{"name":"Parc en enclos CHU"},"_l":[47.2093619715999,-1.55725023399242],"LIBTHEME":"DEPLACEMENT","CODE_POSTAL":44000,"WEB":"www.parkings-nantes.fr","STATUT":null,"TELEPHONE":"02 51 84 94 51","THEME":10,"COMMUNE":"NANTES","LIBCATEGORIE":"Parc en Enclos","ADRESSE":"Quai de Tourville","LIBTYPE":null,"_IDOBJ":3651,"TYPE":null,"CATEGORIE":1005},"geometry":{"type":"Point","coordinates":[-1.55725023399242,47.2093619715999]}},{"type":"Feature","properties":{"geo":{"name":"Parking ouvrage Cathédrale"},"_l":[47.2208133510721,-1.55105616832611],"LIBTHEME":"DEPLACEMENT","CODE_POSTAL":44000,"WEB":"www.parkings-nantes.fr","STATUT":null,"TELEPHONE":"02 51 84 94 51","THEME":10,"COMMUNE":"NANTES","LIBCATEGORIE":"Parking Ouvrage","ADRESSE":"Rue Sully","LIBTYPE":"Souterrain","_IDOBJ":3652,"TYPE":100101,"CATEGORIE":1001},"geometry":{"type":"Point","coordinates":[-1.55105616832611,47.2208133510721]}},{"type":"Feature","properties":{"geo":{"name":"Parc en enclos Courte Durée Gare Nord"},"_l":[47.2172647322169,-1.54347875084443],"LIBTHEME":"DEPLACEMENT","CODE_POSTAL":44000,"WEB":"www.resaplace.com","STATUT":null,"TELEPHONE":"08 25 88 88 26","THEME":10,"COMMUNE":"NANTES","LIBCATEGORIE":"Parc en Enclos","ADRESSE":"Cours John Kennedy","LIBTYPE":null,"_IDOBJ":3950,"TYPE":null,"CATEGORIE":1005},"geometry":{"type":"Point","coordinates":[-1.54347875084443,47.2172647322169]}},{"type":"Feature","properties":{"geo":{"name":"Parking ouvrage Les Machines"},"_l":[47.2059006220645,-1.56272779236372],"LIBTHEME":"DEPLACEMENT","CODE_POSTAL":44200,"WEB":"www.resaplace.com","STATUT":null,"TELEPHONE":"08 25 88 88 26","THEME":10,"COMMUNE":"NANTES","LIBCATEGORIE":"Parking Ouvrage","ADRESSE":"Rue Arthur III","LIBTYPE":"Elévation","_IDOBJ":3951,"TYPE":100102,"CATEGORIE":1001},"geometry":{"type":"Point","coordinates":[-1.56272779236372,47.2059006220645]}},{"type":"Feature","properties":{"geo":{"name":"Parking ouvrage Gare Sud 4"},"_l":[47.2151033663183,-1.53793389528195],"LIBTHEME":"DEPLACEMENT","CODE_POSTAL":44000,"WEB":"www.resaplace.com","STATUT":null,"TELEPHONE":"08 25 88 88 26","THEME":10,"COMMUNE":"NANTES","LIBCATEGORIE":"Parking Ouvrage","ADRESSE":"24 Mail Pablo Picasso","LIBTYPE":"Souterrain","_IDOBJ":3989,"TYPE":100101,"CATEGORIE":1001},"geometry":{"type":"Point","coordinates":[-1.53793389528195,47.2151033663183]}},{"type":"Feature","properties":{"geo":{"name":"Pac en enclos Viviani"},"_l":[47.2087756042897,-1.53619706978924],"LIBTHEME":"DEPLACEMENT","CODE_POSTAL":44200,"WEB":"www.parkings-nantes.fr","STATUT":null,"TELEPHONE":"02 51 84 94 51","THEME":10,"COMMUNE":"NANTES","LIBCATEGORIE":"Parc en Enclos","ADRESSE":"Rue René Viviani","LIBTYPE":null,"_IDOBJ":3990,"TYPE":null,"CATEGORIE":1005},"geometry":{"type":"Point","coordinates":[-1.53619706978924,47.2087756042897]}},{"type":"Feature","properties":{"geo":{"name":"Aire de covoiturage Piano'cktail"},"_l":[47.1743921106395,-1.60539271713277],"LIBTHEME":"DEPLACEMENT","CODE_POSTAL":44340,"WEB":"www.covoiturage-nantesmetropole.fr","STATUT":null,"TELEPHONE":"08 11 13 01 44","THEME":10,"COMMUNE":"BOUGUENAIS","LIBCATEGORIE":"Voiture partagée","ADRESSE":"Rue Ginsheim Gustavsburg","LIBTYPE":"Aire de covoiturage","_IDOBJ":4010,"TYPE":100301,"CATEGORIE":1003},"geometry":{"type":"Point","coordinates":[-1.60539271713277,47.1743921106395]}},{"type":"Feature","properties":{"geo":{"name":"Aire de covoiturage Le Paradis"},"_l":[47.2058433058368,-1.751615681513],"LIBTHEME":"DEPLACEMENT","CODE_POSTAL":44220,"WEB":"www.covoiturage-nantesmetropole.fr","STATUT":null,"TELEPHONE":"08 11 13 01 44","THEME":10,"COMMUNE":"COUERON","LIBCATEGORIE":"Voiture partagée","ADRESSE":"RD 91","LIBTYPE":"Aire de covoiturage","_IDOBJ":4011,"TYPE":100301,"CATEGORIE":1003},"geometry":{"type":"Point","coordinates":[-1.751615681513,47.2058433058368]}},{"type":"Feature","properties":{"geo":{"name":"Aire de covoiturage Le Vélodrôme"},"_l":[47.2114911474736,-1.73553587146421],"LIBTHEME":"DEPLACEMENT","CODE_POSTAL":44220,"WEB":"www.covoiturage-nantesmetropole.fr","STATUT":null,"TELEPHONE":"08 11 13 01 44","THEME":10,"COMMUNE":"COUERON","LIBCATEGORIE":"Voiture partagée","ADRESSE":"Boulevard Francois Blancho","LIBTYPE":"Aire de covoiturage","_IDOBJ":4012,"TYPE":100301,"CATEGORIE":1003},"geometry":{"type":"Point","coordinates":[-1.73553587146421,47.2114911474736]}},{"type":"Feature","properties":{"geo":{"name":"Aire de covoiturage Les Ormeaux"},"_l":[47.1558857839796,-1.68247122952125],"LIBTHEME":"DEPLACEMENT","CODE_POSTAL":44830,"WEB":"www.covoiturage-nantesmetropole.fr","STATUT":null,"TELEPHONE":"08 11 13 01 44","THEME":10,"COMMUNE":"BOUAYE","LIBCATEGORIE":"Voiture partagée","ADRESSE":"Esplanade de l'Edit de Nantes","LIBTYPE":"Aire de covoiturage","_IDOBJ":4013,"TYPE":100301,"CATEGORIE":1003},"geometry":{"type":"Point","coordinates":[-1.68247122952125,47.1558857839796]}},{"type":"Feature","properties":{"geo":{"name":"Aire de covoiturage Georges Brassens"},"_l":[47.1833082568459,-1.6759732987008],"LIBTHEME":"DEPLACEMENT","CODE_POSTAL":44620,"WEB":"www.covoiturage-nantesmetropole.fr","STATUT":null,"TELEPHONE":"08 11 13 01 44","THEME":10,"COMMUNE":"LA-MONTAGNE","LIBCATEGORIE":"Voiture partagée","ADRESSE":"Rue de la Gaudinière","LIBTYPE":"Aire de covoiturage","_IDOBJ":4014,"TYPE":100301,"CATEGORIE":1003},"geometry":{"type":"Point","coordinates":[-1.6759732987008,47.1833082568459]}},{"type":"Feature","properties":{"geo":{"name":"Aire de covoiturage La Herdrie"},"_l":[47.1981364148521,-1.4545741556611],"LIBTHEME":"DEPLACEMENT","CODE_POSTAL":44115,"WEB":"www.covoiturage-nantesmetropole.fr","STATUT":null,"TELEPHONE":"08 11 13 01 44","THEME":10,"COMMUNE":"BASSE-GOULAINE","LIBCATEGORIE":"Voiture partagée","ADRESSE":"Route du Loroux Bottereau","LIBTYPE":"Aire de covoiturage","_IDOBJ":4015,"TYPE":100301,"CATEGORIE":1003},"geometry":{"type":"Point","coordinates":[-1.4545741556611,47.1981364148521]}},{"type":"Feature","properties":{"geo":{"name":"Aire de covoiturage Pas Enchantés"},"_l":[47.2103889373405,-1.5039410584835],"LIBTHEME":"DEPLACEMENT","CODE_POSTAL":44230,"WEB":"www.covoiturage-nantesmetropole.fr","STATUT":null,"TELEPHONE":"08 11 13 01 44","THEME":10,"COMMUNE":"ST-SEBASTIEN","LIBCATEGORIE":"Voiture partagée","ADRESSE":"Boulevard des Pas Enchantés","LIBTYPE":"Aire de covoiturage","_IDOBJ":4016,"TYPE":100301,"CATEGORIE":1003},"geometry":{"type":"Point","coordinates":[-1.5039410584835,47.2103889373405]}},{"type":"Feature","properties":{"geo":{"name":"Aire de covoiturage Les 3 Brasseurs"},"_l":[47.1909311959939,-1.48944982933608],"LIBTHEME":"DEPLACEMENT","CODE_POSTAL":44230,"WEB":"www.covoiturage-nantesmetropole.fr","STATUT":null,"TELEPHONE":"08 11 13 01 44","THEME":10,"COMMUNE":"ST-SEBASTIEN","LIBCATEGORIE":"Voiture partagée","ADRESSE":"Rue Marie Curie","LIBTYPE":"Aire de covoiturage","_IDOBJ":4017,"TYPE":100301,"CATEGORIE":1003},"geometry":{"type":"Point","coordinates":[-1.48944982933608,47.1909311959939]}},{"type":"Feature","properties":{"geo":{"name":"Aire de covoiturage La Charmelière"},"_l":[47.2948276010662,-1.47381722266676],"LIBTHEME":"DEPLACEMENT","CODE_POSTAL":44470,"WEB":"www.covoiturage-nantesmetropole.fr","STATUT":null,"TELEPHONE":"08 11 13 01 44","THEME":10,"COMMUNE":"CARQUEFOU","LIBCATEGORIE":"Voiture partagée","ADRESSE":"RD 37","LIBTYPE":"Aire de covoiturage","_IDOBJ":4018,"TYPE":100301,"CATEGORIE":1003},"geometry":{"type":"Point","coordinates":[-1.47381722266676,47.2948276010662]}},{"type":"Feature","properties":{"geo":{"name":"Aire de covoiturage La Croix de Mauves"},"_l":[47.3002260614374,-1.39840430261237],"LIBTHEME":"DEPLACEMENT","CODE_POSTAL":44470,"WEB":"www.covoiturage-nantesmetropole.fr","STATUT":null,"TELEPHONE":"08 11 13 01 44","THEME":10,"COMMUNE":"MAUVES-SUR-LOIRE","LIBCATEGORIE":"Voiture partagée","ADRESSE":"RD 31","LIBTYPE":"Aire de covoiturage","_IDOBJ":4019,"TYPE":100301,"CATEGORIE":1003},"geometry":{"type":"Point","coordinates":[-1.39840430261237,47.3002260614374]}},{"type":"Feature","properties":{"geo":{"name":"Aire de covoiturage Sautron"},"_l":[47.2680407186535,-1.67112545623475],"LIBTHEME":"DEPLACEMENT","CODE_POSTAL":44880,"WEB":"www.covoiturage-nantesmetropole.fr","STATUT":null,"TELEPHONE":"08 11 13 01 44","THEME":10,"COMMUNE":"SAUTRON","LIBCATEGORIE":"Voiture partagée","ADRESSE":"51 Rue de la Vallée","LIBTYPE":"Aire de covoiturage","_IDOBJ":4071,"TYPE":100301,"CATEGORIE":1003},"geometry":{"type":"Point","coordinates":[-1.67112545623475,47.2680407186535]}},{"type":"Feature","properties":{"geo":{"name":"Parc en enclos Chantiers Navals"},"_l":[47.2082893195233,-1.56891560955727],"LIBTHEME":"DEPLACEMENT","CODE_POSTAL":44100,"WEB":"www.parkings-nantes.fr","STATUT":null,"TELEPHONE":"02 51 84 94 51","THEME":10,"COMMUNE":"NANTES","LIBCATEGORIE":"Parc en Enclos","ADRESSE":"Quai de la Fosse","LIBTYPE":null,"_IDOBJ":4072,"TYPE":null,"CATEGORIE":1005},"geometry":{"type":"Point","coordinates":[-1.56891560955727,47.2082893195233]}},{"type":"Feature","properties":{"geo":{"name":"Parc en enclos Gloriette 2"},"_l":[47.2102736871054,-1.56028436884679],"LIBTHEME":"DEPLACEMENT","CODE_POSTAL":44000,"WEB":"www.parkings-nantes.fr","STATUT":null,"TELEPHONE":"02 51 84 94 51","THEME":10,"COMMUNE":"NANTES","LIBCATEGORIE":"Parc en Enclos","ADRESSE":"Rue Albert de Mun","LIBTYPE":null,"_IDOBJ":4073,"TYPE":null,"CATEGORIE":1005},"geometry":{"type":"Point","coordinates":[-1.56028436884679,47.2102736871054]}},{"type":"Feature","properties":{"geo":{"name":"Aire de covoiturage La Métaierie Rouge"},"_l":[47.2744422259447,-1.54638397050348],"LIBTHEME":"DEPLACEMENT","CODE_POSTAL":44240,"WEB":"www.covoiturage-nantesmetropole.fr","STATUT":null,"TELEPHONE":"08 11 13 01 44","THEME":10,"COMMUNE":"LA-CHAPELLE-SUR-ERDRE","LIBCATEGORIE":"Voiture partagée","ADRESSE":"VC 5","LIBTYPE":"Aire de covoiturage","_IDOBJ":4083,"TYPE":100301,"CATEGORIE":1003},"geometry":{"type":"Point","coordinates":[-1.54638397050348,47.2744422259447]}},{"type":"Feature","properties":{"geo":{"name":"Aire de covoiturage Norauto Atlantis"},"_l":[47.2257239248911,-1.62624641113902],"LIBTHEME":"DEPLACEMENT","CODE_POSTAL":44800,"WEB":"www.covoiturage-nantesmetropole.fr","STATUT":null,"TELEPHONE":"08 11 13 01 44","THEME":10,"COMMUNE":"ST-HERBLAIN","LIBCATEGORIE":"Voiture partagée","ADRESSE":"Rue Océane","LIBTYPE":"Aire de covoiturage","_IDOBJ":4084,"TYPE":100301,"CATEGORIE":1003},"geometry":{"type":"Point","coordinates":[-1.62624641113902,47.2257239248911]}},{"type":"Feature","properties":{"geo":{"name":"Aire de covoiturage Carrefour Beaujoire"},"_l":[47.2578779098455,-1.50983215080644],"LIBTHEME":"DEPLACEMENT","CODE_POSTAL":44300,"WEB":"www.covoiturage-nantesmetropole.fr","STATUT":null,"TELEPHONE":"08 11 13 01 44","THEME":10,"COMMUNE":"NANTES","LIBCATEGORIE":"Voiture partagée","ADRESSE":"1 Avenue Flora Tristan","LIBTYPE":"Aire de covoiturage","_IDOBJ":4099,"TYPE":100301,"CATEGORIE":1003},"geometry":{"type":"Point","coordinates":[-1.50983215080644,47.2578779098455]}},{"type":"Feature","properties":{"geo":{"name":"Parc en enclos Baco-LU 1 côté gare"},"_l":[47.2143324211276,-1.54898882844897],"LIBTHEME":"DEPLACEMENT","CODE_POSTAL":44000,"WEB":"www.parkings-nantes.fr","STATUT":null,"TELEPHONE":"02 51 84 94 51","THEME":10,"COMMUNE":"NANTES","LIBCATEGORIE":"Parc en Enclos","ADRESSE":"Allée Baco","LIBTYPE":null,"_IDOBJ":4142,"TYPE":null,"CATEGORIE":1005},"geometry":{"type":"Point","coordinates":[-1.54898882844897,47.2143324211276]}},{"type":"Feature","properties":{"geo":{"name":"Aire de covoiturage de la Mairie de Saint-Léger-Les-Vignes"},"_l":[47.1367028327517,-1.72710127303152],"LIBTHEME":"DEPLACEMENT","CODE_POSTAL":44710,"WEB":null,"STATUT":null,"TELEPHONE":null,"THEME":10,"COMMUNE":"SAINT-LEGER-LES-VIGNES","LIBCATEGORIE":"Voiture partagée","ADRESSE":"Rue de Nantes","LIBTYPE":"Aire de covoiturage","_IDOBJ":4315,"TYPE":100301,"CATEGORIE":1003},"geometry":{"type":"Point","coordinates":[-1.72710127303152,47.1367028327517]}},{"type":"Feature","properties":{"geo":{"name":"Aire de covoiturage Frachon"},"_l":[47.2184797159027,-1.62157240555264],"LIBTHEME":"DEPLACEMENT","CODE_POSTAL":44800,"WEB":null,"STATUT":null,"TELEPHONE":null,"THEME":10,"COMMUNE":"ST-HERBLAIN","LIBCATEGORIE":"Voiture partagée","ADRESSE":"Boulevard Salvador Allende","LIBTYPE":"Aire de covoiturage","_IDOBJ":4316,"TYPE":100301,"CATEGORIE":1003},"geometry":{"type":"Point","coordinates":[-1.62157240555264,47.2184797159027]}},{"type":"Feature","properties":{"geo":{"name":"Aire de covoiturage de la Planchonnais"},"_l":[47.2529809902532,-1.47507408048735],"LIBTHEME":"DEPLACEMENT","CODE_POSTAL":44980,"WEB":null,"STATUT":null,"TELEPHONE":null,"THEME":10,"COMMUNE":"SAINTE-LUCE-SUR-LOIRE","LIBCATEGORIE":"Voiture partagée","ADRESSE":"Rue de la Planchonnais","LIBTYPE":"Aire de covoiturage","_IDOBJ":4317,"TYPE":100301,"CATEGORIE":1003},"geometry":{"type":"Point","coordinates":[-1.47507408048735,47.2529809902532]}},{"type":"Feature","properties":{"geo":{"name":"Aire de covoiturage Mendès France"},"_l":[47.1771971887698,-1.52992740329385],"LIBTHEME":"DEPLACEMENT","CODE_POSTAL":44400,"WEB":null,"STATUT":null,"TELEPHONE":null,"THEME":10,"COMMUNE":"REZE","LIBCATEGORIE":"Voiture partagée","ADRESSE":"Boulevard Mendès France","LIBTYPE":"Aire de covoiturage","_IDOBJ":4318,"TYPE":100301,"CATEGORIE":1003},"geometry":{"type":"Point","coordinates":[-1.52992740329385,47.1771971887698]}},{"type":"Feature","properties":{"geo":{"name":"Parking ouvrage Feydeau"},"_l":[47.2140752998708,-1.55255878352104],"LIBTHEME":"DEPLACEMENT","CODE_POSTAL":44000,"WEB":null,"STATUT":null,"TELEPHONE":null,"THEME":10,"COMMUNE":"NANTES","LIBCATEGORIE":"Parking Ouvrage","ADRESSE":"Parvis Neptune","LIBTYPE":"Souterrain","_IDOBJ":4320,"TYPE":100101,"CATEGORIE":1001},"geometry":{"type":"Point","coordinates":[-1.55255878352104,47.2140752998708]}},{"type":"Feature","properties":{"geo":{"name":"Pirmil (consigne)"},"_l":[47.1957981746053,-1.54346489622615],"LIBTHEME":"DEPLACEMENT","CODE_POSTAL":44200,"WEB":null,"STATUT":null,"TELEPHONE":null,"THEME":10,"COMMUNE":"NANTES","LIBCATEGORIE":"Vélo","ADRESSE":"Rue Esnoult des Châtelets","LIBTYPE":"Stationnement vélo","_IDOBJ":4610,"TYPE":100603,"CATEGORIE":1006},"geometry":{"type":"Point","coordinates":[-1.54346489622615,47.1957981746053]}},{"type":"Feature","properties":{"geo":{"name":"Pont Rousseau (collectif sécurisé)"},"_l":[47.1925455277881,-1.54875232924884],"LIBTHEME":"DEPLACEMENT","CODE_POSTAL":44400,"WEB":null,"STATUT":null,"TELEPHONE":null,"THEME":10,"COMMUNE":"REZE","LIBCATEGORIE":"Vélo","ADRESSE":"Rue de la Gare","LIBTYPE":"Stationnement vélo","_IDOBJ":4611,"TYPE":100603,"CATEGORIE":1006},"geometry":{"type":"Point","coordinates":[-1.54875232924884,47.1925455277881]}},{"type":"Feature","properties":{"geo":{"name":"8 Mai (collectif abrité)"},"_l":[47.1892249669309,-1.55184420816495],"LIBTHEME":"DEPLACEMENT","CODE_POSTAL":44400,"WEB":null,"STATUT":null,"TELEPHONE":null,"THEME":10,"COMMUNE":"REZE","LIBCATEGORIE":"Vélo","ADRESSE":"Place du 8 Mai 1945","LIBTYPE":"Stationnement vélo","_IDOBJ":4612,"TYPE":100603,"CATEGORIE":1006},"geometry":{"type":"Point","coordinates":[-1.55184420816495,47.1892249669309]}},{"type":"Feature","properties":{"geo":{"name":"Trocardière (consigne)"},"_l":[47.1833772889033,-1.57029190539333],"LIBTHEME":"DEPLACEMENT","CODE_POSTAL":44400,"WEB":null,"STATUT":null,"TELEPHONE":null,"THEME":10,"COMMUNE":"REZE","LIBCATEGORIE":"Vélo","ADRESSE":"Rue de la Trocardière","LIBTYPE":"Stationnement vélo","_IDOBJ":4613,"TYPE":100603,"CATEGORIE":1006},"geometry":{"type":"Point","coordinates":[-1.57029190539333,47.1833772889033]}},{"type":"Feature","properties":{"geo":{"name":"Grande ouche (consigne)"},"_l":[47.1817223736954,-1.57958857608825],"LIBTHEME":"DEPLACEMENT","CODE_POSTAL":44340,"WEB":null,"STATUT":null,"TELEPHONE":null,"THEME":10,"COMMUNE":"BOUGUENAIS","LIBCATEGORIE":"Vélo","ADRESSE":"Rue de la Grande Ouche","LIBTYPE":"Stationnement vélo","_IDOBJ":4614,"TYPE":100603,"CATEGORIE":1006},"geometry":{"type":"Point","coordinates":[-1.57958857608825,47.1817223736954]}},{"type":"Feature","properties":{"geo":{"name":"Neustrie (consigne)"},"_l":[47.1768126188673,-1.59310087276357],"LIBTHEME":"DEPLACEMENT","CODE_POSTAL":44340,"WEB":null,"STATUT":null,"TELEPHONE":null,"THEME":10,"COMMUNE":"BOUGUENAIS","LIBCATEGORIE":"Vélo","ADRESSE":"Rue Christophe Colomb","LIBTYPE":"Stationnement vélo","_IDOBJ":4615,"TYPE":100603,"CATEGORIE":1006},"geometry":{"type":"Point","coordinates":[-1.59310087276357,47.1768126188673]}},{"type":"Feature","properties":{"geo":{"name":"Gare Bouaye (consigne)"},"_l":[47.1382329203029,-1.68128808708343],"LIBTHEME":"DEPLACEMENT","CODE_POSTAL":44830,"WEB":null,"STATUT":null,"TELEPHONE":null,"THEME":10,"COMMUNE":"BOUAYE","LIBCATEGORIE":"Vélo","ADRESSE":"Allée Louis Armand","LIBTYPE":"Stationnement vélo","_IDOBJ":4616,"TYPE":100603,"CATEGORIE":1006},"geometry":{"type":"Point","coordinates":[-1.68128808708343,47.1382329203029]}},{"type":"Feature","properties":{"geo":{"name":"Gréneraie (collectif abrité)"},"_l":[47.1996720650986,-1.53310758222232],"LIBTHEME":"DEPLACEMENT","CODE_POSTAL":44200,"WEB":null,"STATUT":null,"TELEPHONE":null,"THEME":10,"COMMUNE":"NANTES","LIBCATEGORIE":"Vélo","ADRESSE":"Route de Saint Sébastien","LIBTYPE":"Stationnement vélo","_IDOBJ":4617,"TYPE":100603,"CATEGORIE":1006},"geometry":{"type":"Point","coordinates":[-1.53310758222232,47.1996720650986]}},{"type":"Feature","properties":{"geo":{"name":"Gréneraie (collectif sécurisé)"},"_l":[47.1997403128977,-1.53317264504497],"LIBTHEME":"DEPLACEMENT","CODE_POSTAL":44200,"WEB":null,"STATUT":null,"TELEPHONE":null,"THEME":10,"COMMUNE":"NANTES","LIBCATEGORIE":"Vélo","ADRESSE":"Route de Saint Sébastien","LIBTYPE":"Stationnement vélo","_IDOBJ":4618,"TYPE":100603,"CATEGORIE":1006},"geometry":{"type":"Point","coordinates":[-1.53317264504497,47.1997403128977]}},{"type":"Feature","properties":{"geo":{"name":"Mauvoisins (consigne)"},"_l":[47.1902113576369,-1.52540142790408],"LIBTHEME":"DEPLACEMENT","CODE_POSTAL":44200,"WEB":null,"STATUT":null,"TELEPHONE":null,"THEME":10,"COMMUNE":"NANTES","LIBCATEGORIE":"Vélo","ADRESSE":"Rue de la Gilarderie","LIBTYPE":"Stationnement vélo","_IDOBJ":4619,"TYPE":100603,"CATEGORIE":1006},"geometry":{"type":"Point","coordinates":[-1.52540142790408,47.1902113576369]}},{"type":"Feature","properties":{"geo":{"name":"Bourdonnière (collectif abrité)"},"_l":[47.1865473532912,-1.52140876908587],"LIBTHEME":"DEPLACEMENT","CODE_POSTAL":44200,"WEB":null,"STATUT":null,"TELEPHONE":null,"THEME":10,"COMMUNE":"NANTES","LIBCATEGORIE":"Vélo","ADRESSE":"Rue des Bourdonnières","LIBTYPE":"Stationnement vélo","_IDOBJ":4620,"TYPE":100603,"CATEGORIE":1006},"geometry":{"type":"Point","coordinates":[-1.52140876908587,47.1865473532912]}},{"type":"Feature","properties":{"geo":{"name":"Bourdonnière (collectif sécurisé)"},"_l":[47.1865465126961,-1.52134780254749],"LIBTHEME":"DEPLACEMENT","CODE_POSTAL":44200,"WEB":null,"STATUT":null,"TELEPHONE":null,"THEME":10,"COMMUNE":"NANTES","LIBCATEGORIE":"Vélo","ADRESSE":"Rue des Bourdonnières","LIBTYPE":"Stationnement vélo","_IDOBJ":4621,"TYPE":100603,"CATEGORIE":1006},"geometry":{"type":"Point","coordinates":[-1.52134780254749,47.1865465126961]}},{"type":"Feature","properties":{"geo":{"name":"Porte de Vertou (consigne)"},"_l":[47.1806310732837,-1.50530476926916],"LIBTHEME":"DEPLACEMENT","CODE_POSTAL":44120,"WEB":null,"STATUT":null,"TELEPHONE":null,"THEME":10,"COMMUNE":"VERTOU","LIBCATEGORIE":"Vélo","ADRESSE":"Boulevard Auguste Priou","LIBTYPE":"Stationnement vélo","_IDOBJ":4622,"TYPE":100603,"CATEGORIE":1006},"geometry":{"type":"Point","coordinates":[-1.50530476926916,47.1806310732837]}},{"type":"Feature","properties":{"geo":{"name":"Pas Enchantés (collectif abrité)"},"_l":[47.2069030184953,-1.5112538842536],"LIBTHEME":"DEPLACEMENT","CODE_POSTAL":44230,"WEB":null,"STATUT":null,"TELEPHONE":null,"THEME":10,"COMMUNE":"ST-SEBASTIEN","LIBCATEGORIE":"Vélo","ADRESSE":"Rue de la Boulogne","LIBTYPE":"Stationnement vélo","_IDOBJ":4623,"TYPE":100603,"CATEGORIE":1006},"geometry":{"type":"Point","coordinates":[-1.5112538842536,47.2069030184953]}},{"type":"Feature","properties":{"geo":{"name":"Pas enchantés abrité (collectif abrité)"},"_l":[47.2066446600389,-1.51055928386024],"LIBTHEME":"DEPLACEMENT","CODE_POSTAL":44230,"WEB":null,"STATUT":null,"TELEPHONE":null,"THEME":10,"COMMUNE":"ST-SEBASTIEN","LIBCATEGORIE":"Vélo","ADRESSE":"Rue du Docteur Paul Michaux","LIBTYPE":"Stationnement vélo","_IDOBJ":4624,"TYPE":100603,"CATEGORIE":1006},"geometry":{"type":"Point","coordinates":[-1.51055928386024,47.2066446600389]}},{"type":"Feature","properties":{"geo":{"name":"Fresne Rond (collectif sécurisé)"},"_l":[47.1903041814266,-1.49603983660328],"LIBTHEME":"DEPLACEMENT","CODE_POSTAL":44230,"WEB":null,"STATUT":null,"TELEPHONE":null,"THEME":10,"COMMUNE":"ST-SEBASTIEN","LIBCATEGORIE":"Vélo","ADRESSE":"Rue de la Jaunaie","LIBTYPE":"Stationnement vélo","_IDOBJ":4625,"TYPE":100603,"CATEGORIE":1006},"geometry":{"type":"Point","coordinates":[-1.49603983660328,47.1903041814266]}},{"type":"Feature","properties":{"geo":{"name":"Fresne Rond (collectif abrité)"},"_l":[47.1903642806595,-1.49588744088622],"LIBTHEME":"DEPLACEMENT","CODE_POSTAL":44230,"WEB":null,"STATUT":null,"TELEPHONE":null,"THEME":10,"COMMUNE":"ST-SEBASTIEN","LIBCATEGORIE":"Vélo","ADRESSE":"Rue de la Jaunaie","LIBTYPE":"Stationnement vélo","_IDOBJ":4626,"TYPE":100603,"CATEGORIE":1006},"geometry":{"type":"Point","coordinates":[-1.49588744088622,47.1903642806595]}},{"type":"Feature","properties":{"geo":{"name":"Gare de Vertou (collectif abrité)"},"_l":[47.1862775643044,-1.47798363700849],"LIBTHEME":"DEPLACEMENT","CODE_POSTAL":44120,"WEB":null,"STATUT":null,"TELEPHONE":null,"THEME":10,"COMMUNE":"VERTOU","LIBCATEGORIE":"Vélo","ADRESSE":"Impasse de la Gare","LIBTYPE":"Stationnement vélo","_IDOBJ":4627,"TYPE":100603,"CATEGORIE":1006},"geometry":{"type":"Point","coordinates":[-1.47798363700849,47.1862775643044]}},{"type":"Feature","properties":{"geo":{"name":"Gare de Vertou (collectif sécurisé)"},"_l":[47.1858485633002,-1.47801423897547],"LIBTHEME":"DEPLACEMENT","CODE_POSTAL":44120,"WEB":null,"STATUT":null,"TELEPHONE":null,"THEME":10,"COMMUNE":"VERTOU","LIBCATEGORIE":"Vélo","ADRESSE":"Rue du Bois Rigaud","LIBTYPE":"Stationnement vélo","_IDOBJ":4628,"TYPE":100603,"CATEGORIE":1006},"geometry":{"type":"Point","coordinates":[-1.47801423897547,47.1858485633002]}},{"type":"Feature","properties":{"geo":{"name":"Gare Sud (collectif abrité)"},"_l":[47.2161546501301,-1.54186762001945],"LIBTHEME":"DEPLACEMENT","CODE_POSTAL":44000,"WEB":null,"STATUT":null,"TELEPHONE":null,"THEME":10,"COMMUNE":"NANTES","LIBCATEGORIE":"Vélo","ADRESSE":"Rue de Lourmel","LIBTYPE":"Stationnement vélo","_IDOBJ":4629,"TYPE":100603,"CATEGORIE":1006},"geometry":{"type":"Point","coordinates":[-1.54186762001945,47.2161546501301]}},{"type":"Feature","properties":{"geo":{"name":"Gare Sud (collectif sécurisé)"},"_l":[47.2161850343243,-1.54167126990616],"LIBTHEME":"DEPLACEMENT","CODE_POSTAL":44000,"WEB":null,"STATUT":null,"TELEPHONE":null,"THEME":10,"COMMUNE":"NANTES","LIBCATEGORIE":"Vélo","ADRESSE":"Rue de Lourmel","LIBTYPE":"Stationnement vélo","_IDOBJ":4630,"TYPE":100603,"CATEGORIE":1006},"geometry":{"type":"Point","coordinates":[-1.54167126990616,47.2161850343243]}},{"type":"Feature","properties":{"geo":{"name":"Gare nord (collectif abrité)"},"_l":[47.2173064334307,-1.54344396660319],"LIBTHEME":"DEPLACEMENT","CODE_POSTAL":44000,"WEB":null,"STATUT":null,"TELEPHONE":null,"THEME":10,"COMMUNE":"NANTES","LIBCATEGORIE":"Vélo","ADRESSE":"Cours John Kennedy","LIBTYPE":"Stationnement vélo","_IDOBJ":4631,"TYPE":100603,"CATEGORIE":1006},"geometry":{"type":"Point","coordinates":[-1.54344396660319,47.2173064334307]}},{"type":"Feature","properties":{"geo":{"name":"Beaujoire (consigne)"},"_l":[47.259187277673,-1.52566317911064],"LIBTHEME":"DEPLACEMENT","CODE_POSTAL":44300,"WEB":null,"STATUT":null,"TELEPHONE":null,"THEME":10,"COMMUNE":"NANTES","LIBCATEGORIE":"Vélo","ADRESSE":"Boulevard de la Beaujoire","LIBTYPE":"Stationnement vélo","_IDOBJ":4632,"TYPE":100603,"CATEGORIE":1006},"geometry":{"type":"Point","coordinates":[-1.52566317911064,47.259187277673]}},{"type":"Feature","properties":{"geo":{"name":"Gare de Mauves (consigne)"},"_l":[47.2930095075134,-1.38964150683711],"LIBTHEME":"DEPLACEMENT","CODE_POSTAL":44470,"WEB":null,"STATUT":null,"TELEPHONE":null,"THEME":10,"COMMUNE":"MAUVES-SUR-LOIRE","LIBCATEGORIE":"Vélo","ADRESSE":"Place de la Gare","LIBTYPE":"Stationnement vélo","_IDOBJ":4633,"TYPE":100603,"CATEGORIE":1006},"geometry":{"type":"Point","coordinates":[-1.38964150683711,47.2930095075134]}},{"type":"Feature","properties":{"geo":{"name":"Recteur Schmitt (consigne)"},"_l":[47.2520617543628,-1.55248886690146],"LIBTHEME":"DEPLACEMENT","CODE_POSTAL":44300,"WEB":null,"STATUT":null,"TELEPHONE":null,"THEME":10,"COMMUNE":"NANTES","LIBCATEGORIE":"Vélo","ADRESSE":"Rue Recteur Schmitt","LIBTYPE":"Stationnement vélo","_IDOBJ":4634,"TYPE":100603,"CATEGORIE":1006},"geometry":{"type":"Point","coordinates":[-1.55248886690146,47.2520617543628]}},{"type":"Feature","properties":{"geo":{"name":"Grand Val (consigne)"},"_l":[47.2618808709343,-1.5920230802473],"LIBTHEME":"DEPLACEMENT","CODE_POSTAL":44700,"WEB":null,"STATUT":null,"TELEPHONE":null,"THEME":10,"COMMUNE":"ORVAULT","LIBCATEGORIE":"Vélo","ADRESSE":"Boulevard Mendès France","LIBTYPE":"Stationnement vélo","_IDOBJ":4635,"TYPE":100603,"CATEGORIE":1006},"geometry":{"type":"Point","coordinates":[-1.5920230802473,47.2618808709343]}},{"type":"Feature","properties":{"geo":{"name":"Morlière Paquelais (consigne)"},"_l":[47.2477519931616,-1.60278903485486],"LIBTHEME":"DEPLACEMENT","CODE_POSTAL":44700,"WEB":null,"STATUT":null,"TELEPHONE":null,"THEME":10,"COMMUNE":"ORVAULT","LIBCATEGORIE":"Vélo","ADRESSE":"Avenue de la Morlière","LIBTYPE":"Stationnement vélo","_IDOBJ":4636,"TYPE":100603,"CATEGORIE":1006},"geometry":{"type":"Point","coordinates":[-1.60278903485486,47.2477519931616]}},{"type":"Feature","properties":{"geo":{"name":"Marcel Paul (collectif abrité)"},"_l":[47.2456958650382,-1.61758050075146],"LIBTHEME":"DEPLACEMENT","CODE_POSTAL":44800,"WEB":null,"STATUT":null,"TELEPHONE":null,"THEME":10,"COMMUNE":"ST-HERBLAIN","LIBCATEGORIE":"Vélo","ADRESSE":"Boulevard Marcel Paul","LIBTYPE":"Stationnement vélo","_IDOBJ":4637,"TYPE":100603,"CATEGORIE":1006},"geometry":{"type":"Point","coordinates":[-1.61758050075146,47.2456958650382]}},{"type":"Feature","properties":{"geo":{"name":"Bignon (consigne)"},"_l":[47.2489560952294,-1.5978903457391],"LIBTHEME":"DEPLACEMENT","CODE_POSTAL":44700,"WEB":null,"STATUT":null,"TELEPHONE":null,"THEME":10,"COMMUNE":"ORVAULT","LIBCATEGORIE":"Vélo","ADRESSE":"Rue des Verts Prés","LIBTYPE":"Stationnement vélo","_IDOBJ":4638,"TYPE":100603,"CATEGORIE":1006},"geometry":{"type":"Point","coordinates":[-1.5978903457391,47.2489560952294]}},{"type":"Feature","properties":{"geo":{"name":"Plaisance (collectif abrité)"},"_l":[47.2408711985673,-1.59305566366749],"LIBTHEME":"DEPLACEMENT","CODE_POSTAL":44800,"WEB":null,"STATUT":null,"TELEPHONE":null,"THEME":10,"COMMUNE":"ST-HERBLAIN","LIBCATEGORIE":"Vélo","ADRESSE":"Route de Vannes","LIBTYPE":"Stationnement vélo","_IDOBJ":4639,"TYPE":100603,"CATEGORIE":1006},"geometry":{"type":"Point","coordinates":[-1.59305566366749,47.2408711985673]}},{"type":"Feature","properties":{"geo":{"name":"Neruda (consigne)"},"_l":[47.2179397943275,-1.6142614951031],"LIBTHEME":"DEPLACEMENT","CODE_POSTAL":44800,"WEB":null,"STATUT":null,"TELEPHONE":null,"THEME":10,"COMMUNE":"ST-HERBLAIN","LIBCATEGORIE":"Vélo","ADRESSE":"Boulevard Salvador Allende","LIBTYPE":"Stationnement vélo","_IDOBJ":4640,"TYPE":100603,"CATEGORIE":1006},"geometry":{"type":"Point","coordinates":[-1.6142614951031,47.2179397943275]}},{"type":"Feature","properties":{"geo":{"name":"Mitterrand (consigne)"},"_l":[47.2220041796063,-1.63924595395762],"LIBTHEME":"DEPLACEMENT","CODE_POSTAL":44800,"WEB":null,"STATUT":null,"TELEPHONE":null,"THEME":10,"COMMUNE":"ST-HERBLAIN","LIBCATEGORIE":"Vélo","ADRESSE":"Boulevard François Mitterrand","LIBTYPE":"Stationnement vélo","_IDOBJ":4641,"TYPE":100603,"CATEGORIE":1006},"geometry":{"type":"Point","coordinates":[-1.63924595395762,47.2220041796063]}},{"type":"Feature","properties":{"geo":{"name":"Place du vieux cimetiere (consigne)"},"_l":[47.296766258262,-1.49175134677826],"LIBTHEME":"DEPLACEMENT","CODE_POSTAL":44470,"WEB":null,"STATUT":null,"TELEPHONE":null,"THEME":10,"COMMUNE":"CARQUEFOU","LIBCATEGORIE":"Vélo","ADRESSE":"Place de la Poste","LIBTYPE":"Stationnement vélo","_IDOBJ":4642,"TYPE":100603,"CATEGORIE":1006},"geometry":{"type":"Point","coordinates":[-1.49175134677826,47.296766258262]}},{"type":"Feature","properties":{"geo":{"name":"Hangar à bananes (consigne)"},"_l":[47.1998976565815,-1.57282043522859],"LIBTHEME":"DEPLACEMENT","CODE_POSTAL":44200,"WEB":null,"STATUT":null,"TELEPHONE":null,"THEME":10,"COMMUNE":"NANTES","LIBCATEGORIE":"Vélo","ADRESSE":"Boulevard des Antilles","LIBTYPE":"Stationnement vélo","_IDOBJ":4643,"TYPE":100603,"CATEGORIE":1006},"geometry":{"type":"Point","coordinates":[-1.57282043522859,47.1998976565815]}},{"type":"Feature","properties":{"geo":{"name":"Pirmil (collectif sécurisé)"},"_l":[47.19643496899,-1.54289738351578],"LIBTHEME":"DEPLACEMENT","CODE_POSTAL":44200,"WEB":null,"STATUT":null,"TELEPHONE":null,"THEME":10,"COMMUNE":"NANTES","LIBCATEGORIE":"Vélo","ADRESSE":"Rue Esnoult des Châtelets","LIBTYPE":"Stationnement vélo","_IDOBJ":4644,"TYPE":100603,"CATEGORIE":1006},"geometry":{"type":"Point","coordinates":[-1.54289738351578,47.19643496899]}},{"type":"Feature","properties":{"geo":{"name":"Pirmil (collectif abrité)"},"_l":[47.1965912137759,-1.54258773105948],"LIBTHEME":"DEPLACEMENT","CODE_POSTAL":44200,"WEB":null,"STATUT":null,"TELEPHONE":null,"THEME":10,"COMMUNE":"NANTES","LIBCATEGORIE":"Vélo","ADRESSE":"Rue Esnoult des Châtelets","LIBTYPE":"Stationnement vélo","_IDOBJ":4645,"TYPE":100603,"CATEGORIE":1006},"geometry":{"type":"Point","coordinates":[-1.54258773105948,47.1965912137759]}},{"type":"Feature","properties":{"geo":{"name":"Maraicher (consigne)"},"_l":[47.1850493577924,-1.5106947981432],"LIBTHEME":"DEPLACEMENT","CODE_POSTAL":44120,"WEB":null,"STATUT":null,"TELEPHONE":null,"THEME":10,"COMMUNE":"VERTOU","LIBCATEGORIE":"Vélo","ADRESSE":"Rue de la Grand' Maison","LIBTYPE":"Stationnement vélo","_IDOBJ":4646,"TYPE":100603,"CATEGORIE":1006},"geometry":{"type":"Point","coordinates":[-1.5106947981432,47.1850493577924]}},{"type":"Feature","properties":{"geo":{"name":"Vertou gare routière (consigne)"},"_l":[47.168887571532,-1.47124094524049],"LIBTHEME":"DEPLACEMENT","CODE_POSTAL":44120,"WEB":null,"STATUT":null,"TELEPHONE":null,"THEME":10,"COMMUNE":"VERTOU","LIBCATEGORIE":"Vélo","ADRESSE":"Rue de l'Hôpital","LIBTYPE":"Stationnement vélo","_IDOBJ":4647,"TYPE":100603,"CATEGORIE":1006},"geometry":{"type":"Point","coordinates":[-1.47124094524049,47.168887571532]}},{"type":"Feature","properties":{"geo":{"name":"3 Moulins (consigne)"},"_l":[47.1782613214724,-1.54414757085278],"LIBTHEME":"DEPLACEMENT","CODE_POSTAL":44400,"WEB":null,"STATUT":null,"TELEPHONE":null,"THEME":10,"COMMUNE":"REZE","LIBCATEGORIE":"Vélo","ADRESSE":"Rue Jules Laisné","LIBTYPE":"Stationnement vélo","_IDOBJ":4648,"TYPE":100603,"CATEGORIE":1006},"geometry":{"type":"Point","coordinates":[-1.54414757085278,47.1782613214724]}},{"type":"Feature","properties":{"geo":{"name":"Place de la Mairie (consigne)"},"_l":[47.148577159754,-1.53119246068493],"LIBTHEME":"DEPLACEMENT","CODE_POSTAL":44840,"WEB":null,"STATUT":null,"TELEPHONE":null,"THEME":10,"COMMUNE":"LES-SORINIERES","LIBCATEGORIE":"Vélo","ADRESSE":"Rue Georges Clemenceau","LIBTYPE":"Stationnement vélo","_IDOBJ":4649,"TYPE":100603,"CATEGORIE":1006},"geometry":{"type":"Point","coordinates":[-1.53119246068493,47.148577159754]}},{"type":"Feature","properties":{"geo":{"name":"Diderot (consigne)"},"_l":[47.1842394225963,-1.56267840330244],"LIBTHEME":"DEPLACEMENT","CODE_POSTAL":44400,"WEB":null,"STATUT":null,"TELEPHONE":null,"THEME":10,"COMMUNE":"REZE","LIBCATEGORIE":"Vélo","ADRESSE":"Avenue de la Vendée","LIBTYPE":"Stationnement vélo","_IDOBJ":4650,"TYPE":100603,"CATEGORIE":1006},"geometry":{"type":"Point","coordinates":[-1.56267840330244,47.1842394225963]}},{"type":"Feature","properties":{"geo":{"name":"Gare de Thouaré (collectif abrité)"},"_l":[47.265075184061,-1.4407738737368],"LIBTHEME":"DEPLACEMENT","CODE_POSTAL":44470,"WEB":null,"STATUT":null,"TELEPHONE":null,"THEME":10,"COMMUNE":"THOUARE-SUR-LOIRE","LIBCATEGORIE":"Vélo","ADRESSE":"Rue des Ponts","LIBTYPE":"Stationnement vélo","_IDOBJ":4651,"TYPE":100603,"CATEGORIE":1006},"geometry":{"type":"Point","coordinates":[-1.4407738737368,47.265075184061]}},{"type":"Feature","properties":{"geo":{"name":"Haluchère (collectif sécurisé)"},"_l":[47.2499301821665,-1.52329496712317],"LIBTHEME":"DEPLACEMENT","CODE_POSTAL":44300,"WEB":null,"STATUT":null,"TELEPHONE":null,"THEME":10,"COMMUNE":"NANTES","LIBCATEGORIE":"Vélo","ADRESSE":"Rue de la Petite Baratte","LIBTYPE":"Stationnement vélo","_IDOBJ":4652,"TYPE":100603,"CATEGORIE":1006},"geometry":{"type":"Point","coordinates":[-1.52329496712317,47.2499301821665]}},{"type":"Feature","properties":{"geo":{"name":"Haluchère (collectif abrité)"},"_l":[47.2493238043208,-1.52351733617212],"LIBTHEME":"DEPLACEMENT","CODE_POSTAL":44300,"WEB":null,"STATUT":null,"TELEPHONE":null,"THEME":10,"COMMUNE":"NANTES","LIBCATEGORIE":"Vélo","ADRESSE":"Rue du Ranzai","LIBTYPE":"Stationnement vélo","_IDOBJ":4653,"TYPE":100603,"CATEGORIE":1006},"geometry":{"type":"Point","coordinates":[-1.52351733617212,47.2493238043208]}},{"type":"Feature","properties":{"geo":{"name":"Ranzay (collectif sécurisé)"},"_l":[47.2530223101536,-1.53010640990383],"LIBTHEME":"DEPLACEMENT","CODE_POSTAL":44300,"WEB":null,"STATUT":null,"TELEPHONE":null,"THEME":10,"COMMUNE":"NANTES","LIBCATEGORIE":"Vélo","ADRESSE":"Rue du Port Durand","LIBTYPE":"Stationnement vélo","_IDOBJ":4654,"TYPE":100603,"CATEGORIE":1006},"geometry":{"type":"Point","coordinates":[-1.53010640990383,47.2530223101536]}},{"type":"Feature","properties":{"geo":{"name":"Babinière (collectif sécurisé)"},"_l":[47.2591209564933,-1.54570443679286],"LIBTHEME":"DEPLACEMENT","CODE_POSTAL":44240,"WEB":null,"STATUT":null,"TELEPHONE":null,"THEME":10,"COMMUNE":"LA-CHAPELLE-SUR-ERDRE","LIBCATEGORIE":"Vélo","ADRESSE":"Avenue de la Babinière","LIBTYPE":"Stationnement vélo","_IDOBJ":4655,"TYPE":100603,"CATEGORIE":1006},"geometry":{"type":"Point","coordinates":[-1.54570443679286,47.2591209564933]}},{"type":"Feature","properties":{"geo":{"name":"Erdre Active (collectif sécurisé)"},"_l":[47.2832867757051,-1.54488773912603],"LIBTHEME":"DEPLACEMENT","CODE_POSTAL":44240,"WEB":null,"STATUT":null,"TELEPHONE":null,"THEME":10,"COMMUNE":"LA-CHAPELLE-SUR-ERDRE","LIBCATEGORIE":"Vélo","ADRESSE":"Rue de la Bérangerais","LIBTYPE":"Stationnement vélo","_IDOBJ":4656,"TYPE":100603,"CATEGORIE":1006},"geometry":{"type":"Point","coordinates":[-1.54488773912603,47.2832867757051]}},{"type":"Feature","properties":{"geo":{"name":"Port aux Cerises (collectif sécurisé)"},"_l":[47.3062509011566,-1.54347359361035],"LIBTHEME":"DEPLACEMENT","CODE_POSTAL":44240,"WEB":null,"STATUT":null,"TELEPHONE":null,"THEME":10,"COMMUNE":"LA-CHAPELLE-SUR-ERDRE","LIBCATEGORIE":"Vélo","ADRESSE":"Avenue de la Gandonnière","LIBTYPE":"Stationnement vélo","_IDOBJ":4657,"TYPE":100603,"CATEGORIE":1006},"geometry":{"type":"Point","coordinates":[-1.54347359361035,47.3062509011566]}},{"type":"Feature","properties":{"geo":{"name":"La Chapelle centre (collectif sécurisé)"},"_l":[47.297400528273,-1.54805677691002],"LIBTHEME":"DEPLACEMENT","CODE_POSTAL":44240,"WEB":null,"STATUT":null,"TELEPHONE":null,"THEME":10,"COMMUNE":"LA-CHAPELLE-SUR-ERDRE","LIBCATEGORIE":"Vélo","ADRESSE":"Rue de l'Erdre","LIBTYPE":"Stationnement vélo","_IDOBJ":4658,"TYPE":100603,"CATEGORIE":1006},"geometry":{"type":"Point","coordinates":[-1.54805677691002,47.297400528273]}},{"type":"Feature","properties":{"geo":{"name":"René Cassin (consigne)"},"_l":[47.2641310470309,-1.57525334895343],"LIBTHEME":"DEPLACEMENT","CODE_POSTAL":44300,"WEB":null,"STATUT":null,"TELEPHONE":null,"THEME":10,"COMMUNE":"NANTES","LIBCATEGORIE":"Vélo","ADRESSE":"Boulevard René Cassin","LIBTYPE":"Stationnement vélo","_IDOBJ":4659,"TYPE":100603,"CATEGORIE":1006},"geometry":{"type":"Point","coordinates":[-1.57525334895343,47.2641310470309]}},{"type":"Feature","properties":{"geo":{"name":"Bout des Pavés (consigne)"},"_l":[47.2531588402103,-1.57648890806529],"LIBTHEME":"DEPLACEMENT","CODE_POSTAL":44700,"WEB":null,"STATUT":null,"TELEPHONE":null,"THEME":10,"COMMUNE":"ORVAULT","LIBCATEGORIE":"Vélo","ADRESSE":"Rue Alberto Giacometti","LIBTYPE":"Stationnement vélo","_IDOBJ":4660,"TYPE":100603,"CATEGORIE":1006},"geometry":{"type":"Point","coordinates":[-1.57648890806529,47.2531588402103]}},{"type":"Feature","properties":{"geo":{"name":"Pont du Cens (consigne)"},"_l":[47.2487487442748,-1.57694786773576],"LIBTHEME":"DEPLACEMENT","CODE_POSTAL":44300,"WEB":null,"STATUT":null,"TELEPHONE":null,"THEME":10,"COMMUNE":"NANTES","LIBCATEGORIE":"Vélo","ADRESSE":"Rue Chanoine Poupard","LIBTYPE":"Stationnement vélo","_IDOBJ":4661,"TYPE":100603,"CATEGORIE":1006},"geometry":{"type":"Point","coordinates":[-1.57694786773576,47.2487487442748]}},{"type":"Feature","properties":{"geo":{"name":"Place Eglise (consigne)"},"_l":[47.2709528330289,-1.62362612028793],"LIBTHEME":"DEPLACEMENT","CODE_POSTAL":44700,"WEB":null,"STATUT":null,"TELEPHONE":null,"THEME":10,"COMMUNE":"ORVAULT","LIBCATEGORIE":"Vélo","ADRESSE":"Rue Marcel Deniau","LIBTYPE":"Stationnement vélo","_IDOBJ":4662,"TYPE":100603,"CATEGORIE":1006},"geometry":{"type":"Point","coordinates":[-1.62362612028793,47.2709528330289]}},{"type":"Feature","properties":{"geo":{"name":"Sautron terminus (consigne)"},"_l":[47.2643013045783,-1.67954132186688],"LIBTHEME":"DEPLACEMENT","CODE_POSTAL":44880,"WEB":null,"STATUT":null,"TELEPHONE":null,"THEME":10,"COMMUNE":"SAUTRON","LIBCATEGORIE":"Vélo","ADRESSE":"Rue de la Ferme","LIBTYPE":"Stationnement vélo","_IDOBJ":4663,"TYPE":100603,"CATEGORIE":1006},"geometry":{"type":"Point","coordinates":[-1.67954132186688,47.2643013045783]}},{"type":"Feature","properties":{"geo":{"name":"Rue du Grignon (consigne)"},"_l":[47.2165826086764,-1.46662847481612],"LIBTHEME":"DEPLACEMENT","CODE_POSTAL":44115,"WEB":null,"STATUT":null,"TELEPHONE":null,"THEME":10,"COMMUNE":"BASSE-GOULAINE","LIBCATEGORIE":"Vélo","ADRESSE":"Rue de la Poste","LIBTYPE":"Stationnement vélo","_IDOBJ":4664,"TYPE":100603,"CATEGORIE":1006},"geometry":{"type":"Point","coordinates":[-1.46662847481612,47.2165826086764]}},{"type":"Feature","properties":{"geo":{"name":"Le Pellerin terminus ligne express (consigne)"},"_l":[47.2016906204319,-1.75914765630664],"LIBTHEME":"DEPLACEMENT","CODE_POSTAL":44640,"WEB":null,"STATUT":null,"TELEPHONE":null,"THEME":10,"COMMUNE":"LE-PELLERIN","LIBCATEGORIE":"Vélo","ADRESSE":"Place du Champ de Foire","LIBTYPE":"Stationnement vélo","_IDOBJ":4665,"TYPE":100603,"CATEGORIE":1006},"geometry":{"type":"Point","coordinates":[-1.75914765630664,47.2016906204319]}},{"type":"Feature","properties":{"geo":{"name":"Bois Raguenet (consigne)"},"_l":[47.2666841537853,-1.60019286196922],"LIBTHEME":"DEPLACEMENT","CODE_POSTAL":44700,"WEB":null,"STATUT":null,"TELEPHONE":null,"THEME":10,"COMMUNE":"ORVAULT","LIBCATEGORIE":"Vélo","ADRESSE":"RD 42","LIBTYPE":"Stationnement vélo","_IDOBJ":4666,"TYPE":100603,"CATEGORIE":1006},"geometry":{"type":"Point","coordinates":[-1.60019286196922,47.2666841537853]}},{"type":"Feature","properties":{"geo":{"name":"Mairie Doulon (consigne)"},"_l":[47.2272623959969,-1.51864649049279],"LIBTHEME":"DEPLACEMENT","CODE_POSTAL":44300,"WEB":null,"STATUT":null,"TELEPHONE":null,"THEME":10,"COMMUNE":"NANTES","LIBCATEGORIE":"Vélo","ADRESSE":"Boulevard Louis Millet","LIBTYPE":"Stationnement vélo","_IDOBJ":4667,"TYPE":100603,"CATEGORIE":1006},"geometry":{"type":"Point","coordinates":[-1.51864649049279,47.2272623959969]}},{"type":"Feature","properties":{"geo":{"name":"Clos Toreau (consigne)"},"_l":[47.1940516169258,-1.52885900806199],"LIBTHEME":"DEPLACEMENT","CODE_POSTAL":44200,"WEB":null,"STATUT":null,"TELEPHONE":null,"THEME":10,"COMMUNE":"NANTES","LIBCATEGORIE":"Vélo","ADRESSE":"Boulevard Emile Gabory","LIBTYPE":"Stationnement vélo","_IDOBJ":4668,"TYPE":100603,"CATEGORIE":1006},"geometry":{"type":"Point","coordinates":[-1.52885900806199,47.1940516169258]}},{"type":"Feature","properties":{"geo":{"name":"Landreau (consigne)"},"_l":[47.2319371786797,-1.51567406613419],"LIBTHEME":"DEPLACEMENT","CODE_POSTAL":44300,"WEB":null,"STATUT":null,"TELEPHONE":null,"THEME":10,"COMMUNE":"NANTES","LIBCATEGORIE":"Vélo","ADRESSE":"Rue du Landreau","LIBTYPE":"Stationnement vélo","_IDOBJ":4669,"TYPE":100603,"CATEGORIE":1006},"geometry":{"type":"Point","coordinates":[-1.51567406613419,47.2319371786797]}},{"type":"Feature","properties":{"geo":{"name":"Santos Dumont (consigne)"},"_l":[47.2593409223094,-1.56817518277345],"LIBTHEME":"DEPLACEMENT","CODE_POSTAL":44300,"WEB":null,"STATUT":null,"TELEPHONE":null,"THEME":10,"COMMUNE":"NANTES","LIBCATEGORIE":"Vélo","ADRESSE":"Rue des Renards","LIBTYPE":"Stationnement vélo","_IDOBJ":4670,"TYPE":100603,"CATEGORIE":1006},"geometry":{"type":"Point","coordinates":[-1.56817518277345,47.2593409223094]}},{"type":"Feature","properties":{"geo":{"name":"Joliverie (consigne)"},"_l":[47.1894640076848,-1.51713731231873],"LIBTHEME":"DEPLACEMENT","CODE_POSTAL":44200,"WEB":null,"STATUT":null,"TELEPHONE":null,"THEME":10,"COMMUNE":"NANTES","LIBCATEGORIE":"Vélo","ADRESSE":"Route de Clisson","LIBTYPE":"Stationnement vélo","_IDOBJ":4671,"TYPE":100603,"CATEGORIE":1006},"geometry":{"type":"Point","coordinates":[-1.51713731231873,47.1894640076848]}},{"type":"Feature","properties":{"geo":{"name":"Gare de Chantenay (consigne)"},"_l":[47.1974776824377,-1.59432064444371],"LIBTHEME":"DEPLACEMENT","CODE_POSTAL":44100,"WEB":null,"STATUT":null,"TELEPHONE":null,"THEME":10,"COMMUNE":"NANTES","LIBCATEGORIE":"Vélo","ADRESSE":"Rue de la Gare de Chantenay","LIBTYPE":"Stationnement vélo","_IDOBJ":4672,"TYPE":100603,"CATEGORIE":1006},"geometry":{"type":"Point","coordinates":[-1.59432064444371,47.1974776824377]}},{"type":"Feature","properties":{"geo":{"name":"Croix bonneau (sécurisé)"},"_l":[47.2093793060207,-1.59590574852204],"LIBTHEME":"DEPLACEMENT","CODE_POSTAL":44100,"WEB":null,"STATUT":null,"TELEPHONE":null,"THEME":10,"COMMUNE":"NANTES","LIBCATEGORIE":"Vélo","ADRESSE":"Place de la Croix Bonneau","LIBTYPE":"Stationnement vélo","_IDOBJ":4673,"TYPE":100603,"CATEGORIE":1006},"geometry":{"type":"Point","coordinates":[-1.59590574852204,47.2093793060207]}},{"type":"Feature","properties":{"geo":{"name":"Egalité (sécurisé)"},"_l":[47.2096388936158,-1.58893567488989],"LIBTHEME":"DEPLACEMENT","CODE_POSTAL":44100,"WEB":null,"STATUT":null,"TELEPHONE":null,"THEME":10,"COMMUNE":"NANTES","LIBCATEGORIE":"Vélo","ADRESSE":"Boulevard Léon Jouhaux","LIBTYPE":"Stationnement vélo","_IDOBJ":4674,"TYPE":100603,"CATEGORIE":1006},"geometry":{"type":"Point","coordinates":[-1.58893567488989,47.2096388936158]}},{"type":"Feature","properties":{"geo":{"name":"Grammoire (consigne)"},"_l":[47.1648832031388,-1.48057265753418],"LIBTHEME":"DEPLACEMENT","CODE_POSTAL":44120,"WEB":null,"STATUT":null,"TELEPHONE":null,"THEME":10,"COMMUNE":"VERTOU","LIBCATEGORIE":"Vélo","ADRESSE":"Rue Charles Chollet","LIBTYPE":"Stationnement vélo","_IDOBJ":4675,"TYPE":100603,"CATEGORIE":1006},"geometry":{"type":"Point","coordinates":[-1.48057265753418,47.1648832031388]}},{"type":"Feature","properties":{"geo":{"name":"Croix Jeanette (consigne)"},"_l":[47.1753881988944,-1.62381734883414],"LIBTHEME":"DEPLACEMENT","CODE_POSTAL":44340,"WEB":null,"STATUT":null,"TELEPHONE":null,"THEME":10,"COMMUNE":"BOUGUENAIS","LIBCATEGORIE":"Vélo","ADRESSE":"Rue Eugène Pottier","LIBTYPE":"Stationnement vélo","_IDOBJ":4676,"TYPE":100603,"CATEGORIE":1006},"geometry":{"type":"Point","coordinates":[-1.62381734883414,47.1753881988944]}},{"type":"Feature","properties":{"geo":{"name":"Les Couets (consigne)"},"_l":[47.1810398624057,-1.58619217039791],"LIBTHEME":"DEPLACEMENT","CODE_POSTAL":44340,"WEB":null,"STATUT":null,"TELEPHONE":null,"THEME":10,"COMMUNE":"BOUGUENAIS","LIBCATEGORIE":"Vélo","ADRESSE":"Rue de la Chapelle","LIBTYPE":"Stationnement vélo","_IDOBJ":4677,"TYPE":100603,"CATEGORIE":1006},"geometry":{"type":"Point","coordinates":[-1.58619217039791,47.1810398624057]}},{"type":"Feature","properties":{"geo":{"name":"Quai Provost (consigne)"},"_l":[47.1977788354025,-1.67371315521538],"LIBTHEME":"DEPLACEMENT","CODE_POSTAL":44610,"WEB":null,"STATUT":null,"TELEPHONE":null,"THEME":10,"COMMUNE":"INDRE","LIBCATEGORIE":"Vélo","ADRESSE":"Esplanade Lucien Le Loir","LIBTYPE":"Stationnement vélo","_IDOBJ":4678,"TYPE":100603,"CATEGORIE":1006},"geometry":{"type":"Point","coordinates":[-1.67371315521538,47.1977788354025]}},{"type":"Feature","properties":{"geo":{"name":"Durantière piscine (consigne)"},"_l":[47.2130698340315,-1.59874322411545],"LIBTHEME":"DEPLACEMENT","CODE_POSTAL":44100,"WEB":null,"STATUT":null,"TELEPHONE":null,"THEME":10,"COMMUNE":"NANTES","LIBCATEGORIE":"Vélo","ADRESSE":"Rue de la Durantière","LIBTYPE":"Stationnement vélo","_IDOBJ":4679,"TYPE":100603,"CATEGORIE":1006},"geometry":{"type":"Point","coordinates":[-1.59874322411545,47.2130698340315]}},{"type":"Feature","properties":{"geo":{"name":"La Montagne Pompiers (consigne)"},"_l":[47.1884394201389,-1.68921544482741],"LIBTHEME":"DEPLACEMENT","CODE_POSTAL":44620,"WEB":null,"STATUT":null,"TELEPHONE":null,"THEME":10,"COMMUNE":"LA-MONTAGNE","LIBCATEGORIE":"Vélo","ADRESSE":"Rue de la Courante","LIBTYPE":"Stationnement vélo","_IDOBJ":4680,"TYPE":100603,"CATEGORIE":1006},"geometry":{"type":"Point","coordinates":[-1.68921544482741,47.1884394201389]}},{"type":"Feature","properties":{"geo":{"name":"rte des Sorinières (consigne)"},"_l":[47.1650542227278,-1.48807925089679],"LIBTHEME":"DEPLACEMENT","CODE_POSTAL":44120,"WEB":null,"STATUT":null,"TELEPHONE":null,"THEME":10,"COMMUNE":"VERTOU","LIBCATEGORIE":"Vélo","ADRESSE":"Route des Sorinières","LIBTYPE":"Stationnement vélo","_IDOBJ":4681,"TYPE":100603,"CATEGORIE":1006},"geometry":{"type":"Point","coordinates":[-1.48807925089679,47.1650542227278]}},{"type":"Feature","properties":{"geo":{"name":"Zola (consigne)"},"_l":[47.2139678449895,-1.58630587536017],"LIBTHEME":"DEPLACEMENT","CODE_POSTAL":44100,"WEB":null,"STATUT":null,"TELEPHONE":null,"THEME":10,"COMMUNE":"NANTES","LIBCATEGORIE":"Vélo","ADRESSE":"Rue des Renardières","LIBTYPE":"Stationnement vélo","_IDOBJ":4682,"TYPE":100603,"CATEGORIE":1006},"geometry":{"type":"Point","coordinates":[-1.58630587536017,47.2139678449895]}},{"type":"Feature","properties":{"geo":{"name":"Sainte Luce De Gaulle (consigne)"},"_l":[47.2501416083484,-1.48494815620147],"LIBTHEME":"DEPLACEMENT","CODE_POSTAL":44980,"WEB":null,"STATUT":null,"TELEPHONE":null,"THEME":10,"COMMUNE":"SAINTE-LUCE-SUR-LOIRE","LIBCATEGORIE":"Vélo","ADRESSE":"Allée des Nations Unies","LIBTYPE":"Stationnement vélo","_IDOBJ":4683,"TYPE":100603,"CATEGORIE":1006},"geometry":{"type":"Point","coordinates":[-1.48494815620147,47.2501416083484]}},{"type":"Feature","properties":{"geo":{"name":"Neustrie (consigne)"},"_l":[47.1768261386391,-1.59299763887125],"LIBTHEME":"DEPLACEMENT","CODE_POSTAL":44340,"WEB":null,"STATUT":null,"TELEPHONE":null,"THEME":10,"COMMUNE":"BOUGUENAIS","LIBCATEGORIE":"Vélo","ADRESSE":"Rue Christophe Colomb","LIBTYPE":"Stationnement vélo","_IDOBJ":4684,"TYPE":100603,"CATEGORIE":1006},"geometry":{"type":"Point","coordinates":[-1.59299763887125,47.1768261386391]}},{"type":"Feature","properties":{"geo":{"name":"Mitterrand (consigne)"},"_l":[47.2220008415411,-1.63953075892652],"LIBTHEME":"DEPLACEMENT","CODE_POSTAL":44800,"WEB":null,"STATUT":null,"TELEPHONE":null,"THEME":10,"COMMUNE":"ST-HERBLAIN","LIBCATEGORIE":"Vélo","ADRESSE":"Boulevard François Mitterrand","LIBTYPE":"Stationnement vélo","_IDOBJ":4685,"TYPE":100603,"CATEGORIE":1006},"geometry":{"type":"Point","coordinates":[-1.63953075892652,47.2220008415411]}},{"type":"Feature","properties":{"geo":{"name":"Gare de Mauves (consigne)"},"_l":[47.2930302010769,-1.38965327436549],"LIBTHEME":"DEPLACEMENT","CODE_POSTAL":44470,"WEB":null,"STATUT":null,"TELEPHONE":null,"THEME":10,"COMMUNE":"MAUVES-SUR-LOIRE","LIBCATEGORIE":"Vélo","ADRESSE":"Place de la Gare","LIBTYPE":"Stationnement vélo","_IDOBJ":4686,"TYPE":100603,"CATEGORIE":1006},"geometry":{"type":"Point","coordinates":[-1.38965327436549,47.2930302010769]}},{"type":"Feature","properties":{"geo":{"name":"Chapeau vernis (consigne)"},"_l":[47.189347335877,-1.51129606262763],"LIBTHEME":"DEPLACEMENT","CODE_POSTAL":44230,"WEB":null,"STATUT":null,"TELEPHONE":null,"THEME":10,"COMMUNE":"ST-SEBASTIEN","LIBCATEGORIE":"Vélo","ADRESSE":"Rue des Ecobuts","LIBTYPE":"Stationnement vélo","_IDOBJ":4687,"TYPE":100603,"CATEGORIE":1006},"geometry":{"type":"Point","coordinates":[-1.51129606262763,47.189347335877]}},{"type":"Feature","properties":{"geo":{"name":"Beausejour (consigne)"},"_l":[47.2385865683461,-1.5875971384072],"LIBTHEME":"DEPLACEMENT","CODE_POSTAL":44100,"WEB":null,"STATUT":null,"TELEPHONE":null,"THEME":10,"COMMUNE":"NANTES","LIBCATEGORIE":"Vélo","ADRESSE":"Rue du Chêne Vert","LIBTYPE":"Stationnement vélo","_IDOBJ":4688,"TYPE":100603,"CATEGORIE":1006},"geometry":{"type":"Point","coordinates":[-1.5875971384072,47.2385865683461]}},{"type":"Feature","properties":{"geo":{"name":"St Félix (consigne)"},"_l":[47.2309462592658,-1.5567462861965],"LIBTHEME":"DEPLACEMENT","CODE_POSTAL":44000,"WEB":null,"STATUT":null,"TELEPHONE":null,"THEME":10,"COMMUNE":"NANTES","LIBCATEGORIE":"Vélo","ADRESSE":"Rue François Bruneau","LIBTYPE":"Stationnement vélo","_IDOBJ":4689,"TYPE":100603,"CATEGORIE":1006},"geometry":{"type":"Point","coordinates":[-1.5567462861965,47.2309462592658]}},{"type":"Feature","properties":{"geo":{"name":"Médiathèque nord (consigne)"},"_l":[47.261381994538,-1.57324745325673],"LIBTHEME":"DEPLACEMENT","CODE_POSTAL":44300,"WEB":null,"STATUT":null,"TELEPHONE":null,"THEME":10,"COMMUNE":"NANTES","LIBCATEGORIE":"Vélo","ADRESSE":"Rue Eugène Thomas","LIBTYPE":"Stationnement vélo","_IDOBJ":4690,"TYPE":100603,"CATEGORIE":1006},"geometry":{"type":"Point","coordinates":[-1.57324745325673,47.261381994538]}},{"type":"Feature","properties":{"geo":{"name":"Michelet (consigne)"},"_l":[47.234739677265,-1.55679331148077],"LIBTHEME":"DEPLACEMENT","CODE_POSTAL":44300,"WEB":null,"STATUT":null,"TELEPHONE":null,"THEME":10,"COMMUNE":"NANTES","LIBCATEGORIE":"Vélo","ADRESSE":"Rue de la Lombarderie","LIBTYPE":"Stationnement vélo","_IDOBJ":4691,"TYPE":100603,"CATEGORIE":1006},"geometry":{"type":"Point","coordinates":[-1.55679331148077,47.234739677265]}},{"type":"Feature","properties":{"geo":{"name":"Piscine (consigne)"},"_l":[47.1657567082232,-1.4684785700828],"LIBTHEME":"DEPLACEMENT","CODE_POSTAL":44120,"WEB":null,"STATUT":null,"TELEPHONE":null,"THEME":10,"COMMUNE":"VERTOU","LIBCATEGORIE":"Vélo","ADRESSE":"Boulevard des Sports","LIBTYPE":"Stationnement vélo","_IDOBJ":4692,"TYPE":100603,"CATEGORIE":1006},"geometry":{"type":"Point","coordinates":[-1.4684785700828,47.1657567082232]}},{"type":"Feature","properties":{"geo":{"name":"Ragon (consigne)"},"_l":[47.165370765273,-1.54222052093205],"LIBTHEME":"DEPLACEMENT","CODE_POSTAL":44400,"WEB":null,"STATUT":null,"TELEPHONE":null,"THEME":10,"COMMUNE":"REZE","LIBCATEGORIE":"Vélo","ADRESSE":"Place du champ de foire du Ragon","LIBTYPE":"Stationnement vélo","_IDOBJ":4693,"TYPE":100603,"CATEGORIE":1006},"geometry":{"type":"Point","coordinates":[-1.54222052093205,47.165370765273]}},{"type":"Feature","properties":{"geo":{"name":"Papotière (consigne)"},"_l":[47.2532938084695,-1.47486330373227],"LIBTHEME":"DEPLACEMENT","CODE_POSTAL":44980,"WEB":null,"STATUT":null,"TELEPHONE":null,"THEME":10,"COMMUNE":"SAINTE-LUCE-SUR-LOIRE","LIBCATEGORIE":"Vélo","ADRESSE":"Rue de la Planchonnais","LIBTYPE":"Stationnement vélo","_IDOBJ":4694,"TYPE":100603,"CATEGORIE":1006},"geometry":{"type":"Point","coordinates":[-1.47486330373227,47.2532938084695]}},{"type":"Feature","properties":{"geo":{"name":"La Minais (consigne)"},"_l":[47.256650430995,-1.46822874468732],"LIBTHEME":"DEPLACEMENT","CODE_POSTAL":44980,"WEB":null,"STATUT":null,"TELEPHONE":null,"THEME":10,"COMMUNE":"SAINTE-LUCE-SUR-LOIRE","LIBCATEGORIE":"Vélo","ADRESSE":"Route de Thouaré","LIBTYPE":"Stationnement vélo","_IDOBJ":4695,"TYPE":100603,"CATEGORIE":1006},"geometry":{"type":"Point","coordinates":[-1.46822874468732,47.256650430995]}},{"type":"Feature","properties":{"geo":{"name":"Place du Vieux Doulon (consigne)"},"_l":[47.2352385611695,-1.50293546936691],"LIBTHEME":"DEPLACEMENT","CODE_POSTAL":44300,"WEB":null,"STATUT":null,"TELEPHONE":null,"THEME":10,"COMMUNE":"NANTES","LIBCATEGORIE":"Vélo","ADRESSE":"Place du Vieux Doulon","LIBTYPE":"Stationnement vélo","_IDOBJ":4696,"TYPE":100603,"CATEGORIE":1006},"geometry":{"type":"Point","coordinates":[-1.50293546936691,47.2352385611695]}},{"type":"Feature","properties":{"geo":{"name":"Gare de Chantenay (consigne)"},"_l":[47.1976766950814,-1.5943298425406],"LIBTHEME":"DEPLACEMENT","CODE_POSTAL":44100,"WEB":null,"STATUT":null,"TELEPHONE":null,"THEME":10,"COMMUNE":"NANTES","LIBCATEGORIE":"Vélo","ADRESSE":"Rue de la Gare de Chantenay","LIBTYPE":"Stationnement vélo","_IDOBJ":4697,"TYPE":100603,"CATEGORIE":1006},"geometry":{"type":"Point","coordinates":[-1.5943298425406,47.1976766950814]}},{"type":"Feature","properties":{"geo":{"name":"Rue du Prieuré (consigne)"},"_l":[47.1956612294567,-1.72505654870234],"LIBTHEME":"DEPLACEMENT","CODE_POSTAL":44640,"WEB":null,"STATUT":null,"TELEPHONE":null,"THEME":10,"COMMUNE":"SAINT-JEAN-DE-BOISEAU","LIBCATEGORIE":"Vélo","ADRESSE":"Rue des Frères Gohaud","LIBTYPE":"Stationnement vélo","_IDOBJ":4698,"TYPE":100603,"CATEGORIE":1006},"geometry":{"type":"Point","coordinates":[-1.72505654870234,47.1956612294567]}},{"type":"Feature","properties":{"geo":{"name":"Maillardière (consigne)"},"_l":[47.1571883814583,-1.52299322796899],"LIBTHEME":"DEPLACEMENT","CODE_POSTAL":44840,"WEB":null,"STATUT":null,"TELEPHONE":null,"THEME":10,"COMMUNE":"LES-SORINIERES","LIBCATEGORIE":"Vélo","ADRESSE":"Rue de la Maillardière","LIBTYPE":"Stationnement vélo","_IDOBJ":4699,"TYPE":100603,"CATEGORIE":1006},"geometry":{"type":"Point","coordinates":[-1.52299322796899,47.1571883814583]}},{"type":"Feature","properties":{"geo":{"name":"Papillon (consigne)"},"_l":[47.1461522444446,-1.518490776824],"LIBTHEME":"DEPLACEMENT","CODE_POSTAL":44840,"WEB":null,"STATUT":null,"TELEPHONE":null,"THEME":10,"COMMUNE":"LES-SORINIERES","LIBCATEGORIE":"Vélo","ADRESSE":"Rue des Arrentés","LIBTYPE":"Stationnement vélo","_IDOBJ":4700,"TYPE":100603,"CATEGORIE":1006},"geometry":{"type":"Point","coordinates":[-1.518490776824,47.1461522444446]}},{"type":"Feature","properties":{"geo":{"name":"Herdrie (consigne)"},"_l":[47.1983035462172,-1.45439425839726],"LIBTHEME":"DEPLACEMENT","CODE_POSTAL":44115,"WEB":null,"STATUT":null,"TELEPHONE":null,"THEME":10,"COMMUNE":"BASSE-GOULAINE","LIBCATEGORIE":"Vélo","ADRESSE":"Rue de la Chesnaie","LIBTYPE":"Stationnement vélo","_IDOBJ":4701,"TYPE":100603,"CATEGORIE":1006},"geometry":{"type":"Point","coordinates":[-1.45439425839726,47.1983035462172]}},{"type":"Feature","properties":{"geo":{"name":"La Chantrerie (abrité)"},"_l":[47.2822590665995,-1.51786707198478],"LIBTHEME":"DEPLACEMENT","CODE_POSTAL":44300,"WEB":null,"STATUT":null,"TELEPHONE":null,"THEME":10,"COMMUNE":"NANTES","LIBCATEGORIE":"Vélo","ADRESSE":"Route de Gachet","LIBTYPE":"Stationnement vélo","_IDOBJ":4702,"TYPE":100603,"CATEGORIE":1006},"geometry":{"type":"Point","coordinates":[-1.51786707198478,47.2822590665995]}},{"type":"Feature","properties":{"geo":{"name":"La Chantrerie (sécurisé)"},"_l":[47.2821196424734,-1.51767304799494],"LIBTHEME":"DEPLACEMENT","CODE_POSTAL":44300,"WEB":null,"STATUT":null,"TELEPHONE":null,"THEME":10,"COMMUNE":"NANTES","LIBCATEGORIE":"Vélo","ADRESSE":"Route de Gachet","LIBTYPE":"Stationnement vélo","_IDOBJ":4703,"TYPE":100603,"CATEGORIE":1006},"geometry":{"type":"Point","coordinates":[-1.51767304799494,47.2821196424734]}},{"type":"Feature","properties":{"geo":{"name":"Gare Bouaye (abri plus sécurisé)"},"_l":[47.1381998229963,-1.68130210658714],"LIBTHEME":"DEPLACEMENT","CODE_POSTAL":44830,"WEB":null,"STATUT":null,"TELEPHONE":null,"THEME":10,"COMMUNE":"BOUAYE","LIBCATEGORIE":"Vélo","ADRESSE":"Allée Louis Armand","LIBTYPE":"Stationnement vélo","_IDOBJ":4704,"TYPE":100603,"CATEGORIE":1006},"geometry":{"type":"Point","coordinates":[-1.68130210658714,47.1381998229963]}},{"type":"Feature","properties":{"geo":{"name":"Gare de Basse Indre (projet)"},"_l":[47.2042837854099,-1.66031684455267],"LIBTHEME":"DEPLACEMENT","CODE_POSTAL":44800,"WEB":null,"STATUT":null,"TELEPHONE":null,"THEME":10,"COMMUNE":"ST-HERBLAIN","LIBCATEGORIE":"Vélo","ADRESSE":"Rue de la Gare","LIBTYPE":"Stationnement vélo","_IDOBJ":4705,"TYPE":100603,"CATEGORIE":1006},"geometry":{"type":"Point","coordinates":[-1.66031684455267,47.2042837854099]}},{"type":"Feature","properties":{"geo":{"name":"Gare de Coueron (abri plus sécurisé)"},"_l":[47.2217728703532,-1.7235454142234],"LIBTHEME":"DEPLACEMENT","CODE_POSTAL":44220,"WEB":null,"STATUT":null,"TELEPHONE":null,"THEME":10,"COMMUNE":"COUERON","LIBCATEGORIE":"Vélo","ADRESSE":"Rue de la Gare","LIBTYPE":"Stationnement vélo","_IDOBJ":4706,"TYPE":100603,"CATEGORIE":1006},"geometry":{"type":"Point","coordinates":[-1.7235454142234,47.2217728703532]}},{"type":"Feature","properties":{"geo":{"name":"Gare maritime (consigne)"},"_l":[47.2062719751404,-1.57271646451042],"LIBTHEME":"DEPLACEMENT","CODE_POSTAL":44100,"WEB":null,"STATUT":null,"TELEPHONE":null,"THEME":10,"COMMUNE":"NANTES","LIBCATEGORIE":"Vélo","ADRESSE":"Quai Ernest Renaud","LIBTYPE":"Stationnement vélo","_IDOBJ":4707,"TYPE":100603,"CATEGORIE":1006},"geometry":{"type":"Point","coordinates":[-1.57271646451042,47.2062719751404]}},{"type":"Feature","properties":{"geo":{"name":"Gare nord parking (sécurisé)"},"_l":[47.2170735573853,-1.54387627842632],"LIBTHEME":"DEPLACEMENT","CODE_POSTAL":44000,"WEB":null,"STATUT":null,"TELEPHONE":null,"THEME":10,"COMMUNE":"NANTES","LIBCATEGORIE":"Vélo","ADRESSE":"Cours John Kennedy","LIBTYPE":"Stationnement vélo","_IDOBJ":4708,"TYPE":100603,"CATEGORIE":1006},"geometry":{"type":"Point","coordinates":[-1.54387627842632,47.2170735573853]}},{"type":"Feature","properties":{"geo":{"name":"Gare nord parking (abrité)"},"_l":[47.2171385191864,-1.54391839978149],"LIBTHEME":"DEPLACEMENT","CODE_POSTAL":44000,"WEB":null,"STATUT":null,"TELEPHONE":null,"THEME":10,"COMMUNE":"NANTES","LIBCATEGORIE":"Vélo","ADRESSE":"Cours John Kennedy","LIBTYPE":"Stationnement vélo","_IDOBJ":4709,"TYPE":100603,"CATEGORIE":1006},"geometry":{"type":"Point","coordinates":[-1.54391839978149,47.2171385191864]}},{"type":"Feature","properties":{"geo":{"name":"Saint Jean de Boiseau (consigne)"},"_l":[47.1913349733155,-1.71207075561716],"LIBTHEME":"DEPLACEMENT","CODE_POSTAL":44640,"WEB":null,"STATUT":null,"TELEPHONE":null,"THEME":10,"COMMUNE":"SAINT-JEAN-DE-BOISEAU","LIBCATEGORIE":"Vélo","ADRESSE":"Rue de la Croix Truin","LIBTYPE":"Stationnement vélo","_IDOBJ":4710,"TYPE":100603,"CATEGORIE":1006},"geometry":{"type":"Point","coordinates":[-1.71207075561716,47.1913349733155]}},{"type":"Feature","properties":{"geo":{"name":"Souillarderie (consigne)"},"_l":[47.2379873688937,-1.51609083959552],"LIBTHEME":"DEPLACEMENT","CODE_POSTAL":44300,"WEB":null,"STATUT":null,"TELEPHONE":null,"THEME":10,"COMMUNE":"NANTES","LIBCATEGORIE":"Vélo","ADRESSE":"Rue des Tamaris","LIBTYPE":"Stationnement vélo","_IDOBJ":4711,"TYPE":100603,"CATEGORIE":1006},"geometry":{"type":"Point","coordinates":[-1.51609083959552,47.2379873688937]}},{"type":"Feature","properties":{"geo":{"name":"Bout des Pavés (consigne)"},"_l":[47.2531822038242,-1.57599666234132],"LIBTHEME":"DEPLACEMENT","CODE_POSTAL":44300,"WEB":null,"STATUT":null,"TELEPHONE":null,"THEME":10,"COMMUNE":"NANTES","LIBCATEGORIE":"Vélo","ADRESSE":"Boulevard de la Chauvinière","LIBTYPE":"Stationnement vélo","_IDOBJ":4712,"TYPE":100603,"CATEGORIE":1006},"geometry":{"type":"Point","coordinates":[-1.57599666234132,47.2531822038242]}},{"type":"Feature","properties":{"geo":{"name":"Pont Rousseau (consigne)"},"_l":[47.1931315247372,-1.54879737366258],"LIBTHEME":"DEPLACEMENT","CODE_POSTAL":44400,"WEB":null,"STATUT":null,"TELEPHONE":null,"THEME":10,"COMMUNE":"REZE","LIBCATEGORIE":"Vélo","ADRESSE":"Rue de la Gare","LIBTYPE":"Stationnement vélo","_IDOBJ":4713,"TYPE":100603,"CATEGORIE":1006},"geometry":{"type":"Point","coordinates":[-1.54879737366258,47.1931315247372]}},{"type":"Feature","properties":{"geo":{"name":"Durantière (consigne)"},"_l":[47.2131821023372,-1.60022961829846],"LIBTHEME":"DEPLACEMENT","CODE_POSTAL":44100,"WEB":null,"STATUT":null,"TELEPHONE":null,"THEME":10,"COMMUNE":"NANTES","LIBCATEGORIE":"Vélo","ADRESSE":"Rue de la Durantière","LIBTYPE":"Stationnement vélo","_IDOBJ":4714,"TYPE":100603,"CATEGORIE":1006},"geometry":{"type":"Point","coordinates":[-1.60022961829846,47.2131821023372]}},{"type":"Feature","properties":{"geo":{"name":"Coueron Even (consigne)"},"_l":[47.2120549891611,-1.72697210155762],"LIBTHEME":"DEPLACEMENT","CODE_POSTAL":44220,"WEB":null,"STATUT":null,"TELEPHONE":null,"THEME":10,"COMMUNE":"COUERON","LIBCATEGORIE":"Vélo","ADRESSE":"Rue Joséphine Even","LIBTYPE":"Stationnement vélo","_IDOBJ":4715,"TYPE":100603,"CATEGORIE":1006},"geometry":{"type":"Point","coordinates":[-1.72697210155762,47.2120549891611]}},{"type":"Feature","properties":{"geo":{"name":"Trentmoult Roquios (collectif abrité)"},"_l":[47.1952588177616,-1.57811263716694],"LIBTHEME":"DEPLACEMENT","CODE_POSTAL":44400,"WEB":null,"STATUT":null,"TELEPHONE":null,"THEME":10,"COMMUNE":"REZE","LIBCATEGORIE":"Vélo","ADRESSE":"Allée Claude Choëmet","LIBTYPE":"Stationnement vélo","_IDOBJ":4716,"TYPE":100603,"CATEGORIE":1006},"geometry":{"type":"Point","coordinates":[-1.57811263716694,47.1952588177616]}},{"type":"Feature","properties":{"geo":{"name":"Frachon (collectif abrité)"},"_l":[47.2188916275261,-1.6202838660535],"LIBTHEME":"DEPLACEMENT","CODE_POSTAL":44800,"WEB":null,"STATUT":null,"TELEPHONE":null,"THEME":10,"COMMUNE":"ST-HERBLAIN","LIBCATEGORIE":"Vélo","ADRESSE":"Boulevard Salvador Allende","LIBTYPE":"Stationnement vélo","_IDOBJ":4717,"TYPE":100603,"CATEGORIE":1006},"geometry":{"type":"Point","coordinates":[-1.6202838660535,47.2188916275261]}},{"type":"Feature","properties":{"geo":{"name":"Neruda (collectif abrité)"},"_l":[47.217858407968,-1.61402386984358],"LIBTHEME":"DEPLACEMENT","CODE_POSTAL":44800,"WEB":null,"STATUT":null,"TELEPHONE":null,"THEME":10,"COMMUNE":"ST-HERBLAIN","LIBCATEGORIE":"Vélo","ADRESSE":"Boulevard Salvador Allende","LIBTYPE":"Stationnement vélo","_IDOBJ":4718,"TYPE":100603,"CATEGORIE":1006},"geometry":{"type":"Point","coordinates":[-1.61402386984358,47.217858407968]}},{"type":"Feature","properties":{"geo":{"name":"Tertre (collectif abrité)"},"_l":[47.21431687346,-1.60795999529969],"LIBTHEME":"DEPLACEMENT","CODE_POSTAL":44800,"WEB":null,"STATUT":null,"TELEPHONE":null,"THEME":10,"COMMUNE":"ST-HERBLAIN","LIBCATEGORIE":"Vélo","ADRESSE":"Boulevard Salvador Allende","LIBTYPE":"Stationnement vélo","_IDOBJ":4719,"TYPE":100603,"CATEGORIE":1006},"geometry":{"type":"Point","coordinates":[-1.60795999529969,47.21431687346]}},{"type":"Feature","properties":{"geo":{"name":"Gare de Basse Indre (collectif abrité)"},"_l":[47.2042882753782,-1.66033541953291],"LIBTHEME":"DEPLACEMENT","CODE_POSTAL":44800,"WEB":null,"STATUT":null,"TELEPHONE":null,"THEME":10,"COMMUNE":"ST-HERBLAIN","LIBCATEGORIE":"Vélo","ADRESSE":"Rue de la Gare","LIBTYPE":"Stationnement vélo","_IDOBJ":4720,"TYPE":100603,"CATEGORIE":1006},"geometry":{"type":"Point","coordinates":[-1.66033541953291,47.2042882753782]}},{"type":"Feature","properties":{"geo":{"name":"Gare de Bouaye (collectif abrité)"},"_l":[47.1381893242158,-1.68120547935829],"LIBTHEME":"DEPLACEMENT","CODE_POSTAL":44830,"WEB":null,"STATUT":null,"TELEPHONE":null,"THEME":10,"COMMUNE":"BOUAYE","LIBCATEGORIE":"Vélo","ADRESSE":"Allée Louis Armand","LIBTYPE":"Stationnement vélo","_IDOBJ":4721,"TYPE":100603,"CATEGORIE":1006},"geometry":{"type":"Point","coordinates":[-1.68120547935829,47.1381893242158]}},{"type":"Feature","properties":{"geo":{"name":"Gare de Coueron (collectif abrité)"},"_l":[47.2217826034187,-1.72352737769722],"LIBTHEME":"DEPLACEMENT","CODE_POSTAL":44220,"WEB":null,"STATUT":null,"TELEPHONE":null,"THEME":10,"COMMUNE":"COUERON","LIBCATEGORIE":"Vélo","ADRESSE":"Rue de la Gare","LIBTYPE":"Stationnement vélo","_IDOBJ":4722,"TYPE":100603,"CATEGORIE":1006},"geometry":{"type":"Point","coordinates":[-1.72352737769722,47.2217826034187]}},{"type":"Feature","properties":{"geo":{"name":"Gare de Thouaré (collectif abrité)"},"_l":[47.264990123961,-1.44112177559474],"LIBTHEME":"DEPLACEMENT","CODE_POSTAL":44470,"WEB":null,"STATUT":null,"TELEPHONE":null,"THEME":10,"COMMUNE":"THOUARE-SUR-LOIRE","LIBCATEGORIE":"Vélo","ADRESSE":"Rue des Ponts","LIBTYPE":"Stationnement vélo","_IDOBJ":4723,"TYPE":100603,"CATEGORIE":1006},"geometry":{"type":"Point","coordinates":[-1.44112177559474,47.264990123961]}},{"type":"Feature","properties":{"geo":{"name":"Gare de Vertou (collectif abrité)"},"_l":[47.185862956777,-1.47804195086816],"LIBTHEME":"DEPLACEMENT","CODE_POSTAL":44120,"WEB":null,"STATUT":null,"TELEPHONE":null,"THEME":10,"COMMUNE":"VERTOU","LIBCATEGORIE":"Vélo","ADRESSE":"Rue du Bois Rigaud","LIBTYPE":"Stationnement vélo","_IDOBJ":4724,"TYPE":100603,"CATEGORIE":1006},"geometry":{"type":"Point","coordinates":[-1.47804195086816,47.185862956777]}},{"type":"Feature","properties":{"geo":{"name":"Pas enchantés abrité (collectif abrité)"},"_l":[47.2066731263519,-1.51061578215125],"LIBTHEME":"DEPLACEMENT","CODE_POSTAL":44230,"WEB":null,"STATUT":null,"TELEPHONE":null,"THEME":10,"COMMUNE":"ST-SEBASTIEN","LIBCATEGORIE":"Vélo","ADRESSE":"Rue du Docteur Paul Michaux","LIBTYPE":"Stationnement vélo","_IDOBJ":4725,"TYPE":100603,"CATEGORIE":1006},"geometry":{"type":"Point","coordinates":[-1.51061578215125,47.2066731263519]}},{"type":"Feature","properties":{"geo":{"name":"Goudy (collectif abrité)"},"_l":[47.1956815426243,-1.54079167962344],"LIBTHEME":"DEPLACEMENT","CODE_POSTAL":44200,"WEB":null,"STATUT":null,"TELEPHONE":null,"THEME":10,"COMMUNE":"NANTES","LIBCATEGORIE":"Vélo","ADRESSE":"Rue Gabriel Goudy","LIBTYPE":"Stationnement vélo","_IDOBJ":4726,"TYPE":100603,"CATEGORIE":1006},"geometry":{"type":"Point","coordinates":[-1.54079167962344,47.1956815426243]}},{"type":"Feature","properties":{"geo":{"name":"Gare de Chantenay (collectif abrité)"},"_l":[47.1972833040936,-1.59460859492635],"LIBTHEME":"DEPLACEMENT","CODE_POSTAL":44100,"WEB":null,"STATUT":null,"TELEPHONE":null,"THEME":10,"COMMUNE":"NANTES","LIBCATEGORIE":"Vélo","ADRESSE":"Rue de la Gare de Chantenay","LIBTYPE":"Stationnement vélo","_IDOBJ":4727,"TYPE":100603,"CATEGORIE":1006},"geometry":{"type":"Point","coordinates":[-1.59460859492635,47.1972833040936]}},{"type":"Feature","properties":{"geo":{"name":"Gare sud 4 (collectif sécurisé)"},"_l":[47.2150965053519,-1.53799063632782],"LIBTHEME":"DEPLACEMENT","CODE_POSTAL":44000,"WEB":null,"STATUT":null,"TELEPHONE":null,"THEME":10,"COMMUNE":"NANTES","LIBCATEGORIE":"Vélo","ADRESSE":"Rue Marcel Paul","LIBTYPE":"Stationnement vélo","_IDOBJ":4728,"TYPE":100603,"CATEGORIE":1006},"geometry":{"type":"Point","coordinates":[-1.53799063632782,47.2150965053519]}},{"type":"Feature","properties":{"geo":{"name":"Le Cardo (collectif sécurisé)"},"_l":[47.2623914543365,-1.58440437097679],"LIBTHEME":"DEPLACEMENT","CODE_POSTAL":44700,"WEB":null,"STATUT":null,"TELEPHONE":null,"THEME":10,"COMMUNE":"ORVAULT","LIBCATEGORIE":"Vélo","ADRESSE":"Rue du Wattman","LIBTYPE":"Stationnement vélo","_IDOBJ":4729,"TYPE":100603,"CATEGORIE":1006},"geometry":{"type":"Point","coordinates":[-1.58440437097679,47.2623914543365]}},{"type":"Feature","properties":{"geo":{"name":"Mitterrand (collectif sécurisé)"},"_l":[47.221943737127,-1.63953854745182],"LIBTHEME":"DEPLACEMENT","CODE_POSTAL":44800,"WEB":null,"STATUT":null,"TELEPHONE":null,"THEME":10,"COMMUNE":"ST-HERBLAIN","LIBCATEGORIE":"Vélo","ADRESSE":"Boulevard François Mitterrand","LIBTYPE":"Stationnement vélo","_IDOBJ":4730,"TYPE":100603,"CATEGORIE":1006},"geometry":{"type":"Point","coordinates":[-1.63953854745182,47.221943737127]}},{"type":"Feature","properties":{"geo":{"name":"Cité des Congrès (collectif sécurisé)"},"_l":[47.2136446365615,-1.54408370542533],"LIBTHEME":"DEPLACEMENT","CODE_POSTAL":44000,"WEB":null,"STATUT":null,"TELEPHONE":null,"THEME":10,"COMMUNE":"NANTES","LIBCATEGORIE":"Vélo","ADRESSE":"Rue de Valmy","LIBTYPE":"Stationnement vélo","_IDOBJ":4731,"TYPE":100603,"CATEGORIE":1006},"geometry":{"type":"Point","coordinates":[-1.54408370542533,47.2136446365615]}},{"type":"Feature","properties":{"geo":{"name":"Commerce (collectif sécurisé)"},"_l":[47.2133194962897,-1.55780980234499],"LIBTHEME":"DEPLACEMENT","CODE_POSTAL":44000,"WEB":null,"STATUT":null,"TELEPHONE":null,"THEME":10,"COMMUNE":"NANTES","LIBCATEGORIE":"Vélo","ADRESSE":"Place du Commerce","LIBTYPE":"Stationnement vélo","_IDOBJ":4732,"TYPE":100603,"CATEGORIE":1006},"geometry":{"type":"Point","coordinates":[-1.55780980234499,47.2133194962897]}},{"type":"Feature","properties":{"geo":{"name":"Decré / Bouffay (collectif sécurisé)"},"_l":[47.2166660527285,-1.55423648573523],"LIBTHEME":"DEPLACEMENT","CODE_POSTAL":44000,"WEB":null,"STATUT":null,"TELEPHONE":null,"THEME":10,"COMMUNE":"NANTES","LIBCATEGORIE":"Vélo","ADRESSE":"Rue du Moulin","LIBTYPE":"Stationnement vélo","_IDOBJ":4733,"TYPE":100603,"CATEGORIE":1006},"geometry":{"type":"Point","coordinates":[-1.55423648573523,47.2166660527285]}},{"type":"Feature","properties":{"geo":{"name":"Foch Cathédrale (collectif sécurisé)"},"_l":[47.2210180982701,-1.55126379714879],"LIBTHEME":"DEPLACEMENT","CODE_POSTAL":44000,"WEB":null,"STATUT":null,"TELEPHONE":null,"THEME":10,"COMMUNE":"NANTES","LIBCATEGORIE":"Vélo","ADRESSE":"Cours Saint André","LIBTYPE":"Stationnement vélo","_IDOBJ":4734,"TYPE":100603,"CATEGORIE":1006},"geometry":{"type":"Point","coordinates":[-1.55126379714879,47.2210180982701]}},{"type":"Feature","properties":{"geo":{"name":"Graslin (collectif sécurisé)"},"_l":[47.2145970301062,-1.56229634339863],"LIBTHEME":"DEPLACEMENT","CODE_POSTAL":44000,"WEB":null,"STATUT":null,"TELEPHONE":null,"THEME":10,"COMMUNE":"NANTES","LIBCATEGORIE":"Vélo","ADRESSE":"Rue du Chapeau Rouge","LIBTYPE":"Stationnement vélo","_IDOBJ":4735,"TYPE":100603,"CATEGORIE":1006},"geometry":{"type":"Point","coordinates":[-1.56229634339863,47.2145970301062]}},{"type":"Feature","properties":{"geo":{"name":"Machines (collectif sécurisé)"},"_l":[47.2058257915273,-1.56258620817132],"LIBTHEME":"DEPLACEMENT","CODE_POSTAL":44200,"WEB":null,"STATUT":null,"TELEPHONE":null,"THEME":10,"COMMUNE":"NANTES","LIBCATEGORIE":"Vélo","ADRESSE":"Rue la Tour d'Auvergne","LIBTYPE":"Stationnement vélo","_IDOBJ":4736,"TYPE":100603,"CATEGORIE":1006},"geometry":{"type":"Point","coordinates":[-1.56258620817132,47.2058257915273]}},{"type":"Feature","properties":{"geo":{"name":"Médiathèque (collectif sécurisé)"},"_l":[47.2108425003292,-1.56230756152206],"LIBTHEME":"DEPLACEMENT","CODE_POSTAL":44000,"WEB":null,"STATUT":null,"TELEPHONE":null,"THEME":10,"COMMUNE":"NANTES","LIBCATEGORIE":"Vélo","ADRESSE":"Quai de la Fosse","LIBTYPE":"Stationnement vélo","_IDOBJ":4737,"TYPE":100603,"CATEGORIE":1006},"geometry":{"type":"Point","coordinates":[-1.56230756152206,47.2108425003292]}},{"type":"Feature","properties":{"geo":{"name":"Talensac (collectif sécurisé)"},"_l":[47.2199027391761,-1.55769331688577],"LIBTHEME":"DEPLACEMENT","CODE_POSTAL":44000,"WEB":null,"STATUT":null,"TELEPHONE":null,"THEME":10,"COMMUNE":"NANTES","LIBCATEGORIE":"Vélo","ADRESSE":"Rue Le Nôtre","LIBTYPE":"Stationnement vélo","_IDOBJ":4738,"TYPE":100603,"CATEGORIE":1006},"geometry":{"type":"Point","coordinates":[-1.55769331688577,47.2199027391761]}},{"type":"Feature","properties":{"geo":{"name":"Bretagne (collectif sécurisé)"},"_l":[47.2178042795128,-1.55831595116776],"LIBTHEME":"DEPLACEMENT","CODE_POSTAL":44000,"WEB":null,"STATUT":null,"TELEPHONE":null,"THEME":10,"COMMUNE":"NANTES","LIBCATEGORIE":"Vélo","ADRESSE":"Rue de l'Abreuvoir","LIBTYPE":"Stationnement vélo","_IDOBJ":4739,"TYPE":100603,"CATEGORIE":1006},"geometry":{"type":"Point","coordinates":[-1.55831595116776,47.2178042795128]}},{"type":"Feature","properties":{"geo":{"name":"Haluchère (collectif abrité)"},"_l":[47.2498994338929,-1.52325028828019],"LIBTHEME":"DEPLACEMENT","CODE_POSTAL":44300,"WEB":null,"STATUT":null,"TELEPHONE":null,"THEME":10,"COMMUNE":"NANTES","LIBCATEGORIE":"Vélo","ADRESSE":"Rue de la Petite Baratte","LIBTYPE":"Stationnement vélo","_IDOBJ":4740,"TYPE":100603,"CATEGORIE":1006},"geometry":{"type":"Point","coordinates":[-1.52325028828019,47.2498994338929]}},{"type":"Feature","properties":{"geo":{"name":"Haluchère (collectif asécurisé)"},"_l":[47.2492933098569,-1.52349198770571],"LIBTHEME":"DEPLACEMENT","CODE_POSTAL":44300,"WEB":null,"STATUT":null,"TELEPHONE":null,"THEME":10,"COMMUNE":"NANTES","LIBCATEGORIE":"Vélo","ADRESSE":"Rue du Ranzai","LIBTYPE":"Stationnement vélo","_IDOBJ":4741,"TYPE":100603,"CATEGORIE":1006},"geometry":{"type":"Point","coordinates":[-1.52349198770571,47.2492933098569]}},{"type":"Feature","properties":{"geo":{"name":"Ranzay (collectif abrité)"},"_l":[47.2530662115111,-1.53019927103207],"LIBTHEME":"DEPLACEMENT","CODE_POSTAL":44300,"WEB":null,"STATUT":null,"TELEPHONE":null,"THEME":10,"COMMUNE":"NANTES","LIBCATEGORIE":"Vélo","ADRESSE":"Rue du Port Durand","LIBTYPE":"Stationnement vélo","_IDOBJ":4742,"TYPE":100603,"CATEGORIE":1006},"geometry":{"type":"Point","coordinates":[-1.53019927103207,47.2530662115111]}},{"type":"Feature","properties":{"geo":{"name":"Marcel Paul (collectif sécurisé)"},"_l":[47.2457700226023,-1.6175244770897],"LIBTHEME":"DEPLACEMENT","CODE_POSTAL":44800,"WEB":null,"STATUT":null,"TELEPHONE":null,"THEME":10,"COMMUNE":"ST-HERBLAIN","LIBCATEGORIE":"Vélo","ADRESSE":"Boulevard Marcel Paul","LIBTYPE":"Stationnement vélo","_IDOBJ":4743,"TYPE":100603,"CATEGORIE":1006},"geometry":{"type":"Point","coordinates":[-1.6175244770897,47.2457700226023]}},{"type":"Feature","properties":{"geo":{"name":"Neustrie (appui-vélo)"},"_l":[47.1770829434896,-1.59312665701531],"LIBTHEME":"DEPLACEMENT","CODE_POSTAL":44340,"WEB":null,"STATUT":null,"TELEPHONE":null,"THEME":10,"COMMUNE":"BOUGUENAIS","LIBCATEGORIE":"Vélo","ADRESSE":"Rue Christophe Colomb","LIBTYPE":"Stationnement vélo","_IDOBJ":4744,"TYPE":100603,"CATEGORIE":1006},"geometry":{"type":"Point","coordinates":[-1.59312665701531,47.1770829434896]}},{"type":"Feature","properties":{"geo":{"name":"Beauséjour (appui-vélo)"},"_l":[47.2380680494216,-1.5865089094778],"LIBTHEME":"DEPLACEMENT","CODE_POSTAL":44100,"WEB":null,"STATUT":null,"TELEPHONE":null,"THEME":10,"COMMUNE":"NANTES","LIBCATEGORIE":"Vélo","ADRESSE":"Rue du Chêne Vert","LIBTYPE":"Stationnement vélo","_IDOBJ":4745,"TYPE":100603,"CATEGORIE":1006},"geometry":{"type":"Point","coordinates":[-1.5865089094778,47.2380680494216]}},{"type":"Feature","properties":{"geo":{"name":"Corbinerie (consigne)"},"_l":[47.1617797634634,-1.54191715193937],"LIBTHEME":"DEPLACEMENT","CODE_POSTAL":44400,"WEB":null,"STATUT":null,"TELEPHONE":null,"THEME":10,"COMMUNE":"REZE","LIBCATEGORIE":"Vélo","ADRESSE":"Rue Ernest Sauvestre","LIBTYPE":"Stationnement vélo","_IDOBJ":4746,"TYPE":100603,"CATEGORIE":1006},"geometry":{"type":"Point","coordinates":[-1.54191715193937,47.1617797634634]}},{"type":"Feature","properties":{"geo":{"name":"Rouet (consigne)"},"_l":[47.1477593780569,-1.52095771557258],"LIBTHEME":"DEPLACEMENT","CODE_POSTAL":44840,"WEB":null,"STATUT":null,"TELEPHONE":null,"THEME":10,"COMMUNE":"LES-SORINIERES","LIBCATEGORIE":"Vélo","ADRESSE":"Rue des Papillons","LIBTYPE":"Stationnement vélo","_IDOBJ":4747,"TYPE":100603,"CATEGORIE":1006},"geometry":{"type":"Point","coordinates":[-1.52095771557258,47.1477593780569]}},{"type":"Feature","properties":{"geo":{"name":"Rue des prés (consigne)"},"_l":[47.1694366374064,-1.72293208387035],"LIBTHEME":"DEPLACEMENT","CODE_POSTAL":44830,"WEB":null,"STATUT":null,"TELEPHONE":null,"THEME":10,"COMMUNE":"BRAINS","LIBCATEGORIE":"Vélo","ADRESSE":"Rue des Prés","LIBTYPE":"Stationnement vélo","_IDOBJ":4748,"TYPE":100603,"CATEGORIE":1006},"geometry":{"type":"Point","coordinates":[-1.72293208387035,47.1694366374064]}},{"type":"Feature","properties":{"geo":{"name":"Saint Herblain (consigne)"},"_l":[47.2222061302278,-1.60636612247471],"LIBTHEME":"DEPLACEMENT","CODE_POSTAL":44800,"WEB":null,"STATUT":null,"TELEPHONE":null,"THEME":10,"COMMUNE":"ST-HERBLAIN","LIBCATEGORIE":"Vélo","ADRESSE":"Boulevard de la Baule","LIBTYPE":"Stationnement vélo","_IDOBJ":4749,"TYPE":100603,"CATEGORIE":1006},"geometry":{"type":"Point","coordinates":[-1.60636612247471,47.2222061302278]}},{"type":"Feature","properties":{"geo":{"name":"Neptune (collectif sécurisé)"},"_l":[47.2140710364384,-1.55261306714375],"LIBTHEME":"DEPLACEMENT","CODE_POSTAL":44000,"WEB":null,"STATUT":null,"TELEPHONE":null,"THEME":10,"COMMUNE":"NANTES","LIBCATEGORIE":"Vélo","ADRESSE":"Parvis Neptune","LIBTYPE":"Stationnement vélo","_IDOBJ":4750,"TYPE":100603,"CATEGORIE":1006},"geometry":{"type":"Point","coordinates":[-1.55261306714375,47.2140710364384]}},{"type":"Feature","properties":{"geo":{"name":"Locations vélos Commerce"},"_l":[47.2132213753839,-1.5579201758517],"LIBTHEME":"DEPLACEMENT","CODE_POSTAL":44000,"WEB":null,"STATUT":null,"TELEPHONE":null,"THEME":10,"COMMUNE":"NANTES","LIBCATEGORIE":"Vélo","ADRESSE":"Place du Commerce","LIBTYPE":"Location vélo","_IDOBJ":4751,"TYPE":100602,"CATEGORIE":1006},"geometry":{"type":"Point","coordinates":[-1.5579201758517,47.2132213753839]}},{"type":"Feature","properties":{"geo":{"name":"Locations vélos Gare Nord"},"_l":[47.2169551727437,-1.54411278187315],"LIBTHEME":"DEPLACEMENT","CODE_POSTAL":44000,"WEB":null,"STATUT":null,"TELEPHONE":null,"THEME":10,"COMMUNE":"NANTES","LIBCATEGORIE":"Vélo","ADRESSE":"Cours John Kennedy","LIBTYPE":"Location vélo","_IDOBJ":4752,"TYPE":100602,"CATEGORIE":1006},"geometry":{"type":"Point","coordinates":[-1.54411278187315,47.2169551727437]}}]}