{"type":"FeatureCollection","features":[{"type":"Feature","properties":{"DISQUE_LIVRAISON":"Oui","QUARTIER":1,"geo":{"name":"295"},"IRIS2008":"441090105","_l":[47.2173864991113,-1.56021748381441],"LQUARTIER":"Centre Ville","LONGUEUR":6,"ADRESSE":"en face le 6 rue mercoeur","LARGEUR":1.85},"geometry":{"type":"Point","coordinates":[-1.56021748381441,47.2173864991113]}},{"type":"Feature","properties":{"DISQUE_LIVRAISON":"Oui","QUARTIER":1,"geo":{"name":"296"},"IRIS2008":"441090104","_l":[47.2173019850918,-1.56515630064038],"LQUARTIER":"Centre Ville","LONGUEUR":12,"ADRESSE":"15 rue deshoulieres","LARGEUR":1.85},"geometry":{"type":"Point","coordinates":[-1.56515630064038,47.2173019850918]}},{"type":"Feature","properties":{"DISQUE_LIVRAISON":"Oui","QUARTIER":4,"geo":{"name":"297"},"IRIS2008":"441090403","_l":[47.2186835725077,-1.5620794437586],"LQUARTIER":"Hauts Pavés - Saint Félix","LONGUEUR":10,"ADRESSE":"10 rue d erlon","LARGEUR":1.9},"geometry":{"type":"Point","coordinates":[-1.5620794437586,47.2186835725077]}},{"type":"Feature","properties":{"DISQUE_LIVRAISON":"Oui","QUARTIER":1,"geo":{"name":"298"},"IRIS2008":"441090105","_l":[47.2208602596413,-1.55650967036287],"LQUARTIER":"Centre Ville","LONGUEUR":5.1,"ADRESSE":"3 rue jeanne d arc","LARGEUR":2.3},"geometry":{"type":"Point","coordinates":[-1.55650967036287,47.2208602596413]}},{"type":"Feature","properties":{"DISQUE_LIVRAISON":"Non","QUARTIER":4,"geo":{"name":"299"},"IRIS2008":"441090404","_l":[47.2219242543281,-1.55934679807535],"LQUARTIER":"Hauts Pavés - Saint Félix","LONGUEUR":7.1,"ADRESSE":"rue yves bodiguel [angle rue de bel aire]","LARGEUR":1.9},"geometry":{"type":"Point","coordinates":[-1.55934679807535,47.2219242543281]}},{"type":"Feature","properties":{"DISQUE_LIVRAISON":"Non","QUARTIER":4,"geo":{"name":"300"},"IRIS2008":"441090404","_l":[47.2217386824751,-1.5592196879628],"LQUARTIER":"Hauts Pavés - Saint Félix","LONGUEUR":13.3,"ADRESSE":"19-21 rue bel air","LARGEUR":2},"geometry":{"type":"Point","coordinates":[-1.5592196879628,47.2217386824751]}},{"type":"Feature","properties":{"DISQUE_LIVRAISON":"Oui","QUARTIER":1,"geo":{"name":"301"},"IRIS2008":"441090101","_l":[47.2142603916104,-1.56898270452008],"LQUARTIER":"Centre Ville","LONGUEUR":5,"ADRESSE":"rue de gigant à coté du 1 rue huchette","LARGEUR":2.5},"geometry":{"type":"Point","coordinates":[-1.56898270452008,47.2142603916104]}},{"type":"Feature","properties":{"DISQUE_LIVRAISON":"Oui","QUARTIER":4,"geo":{"name":"302"},"IRIS2008":"441090403","_l":[47.2198852530032,-1.56264257823823],"LQUARTIER":"Hauts Pavés - Saint Félix","LONGUEUR":5.2,"ADRESSE":"1 rue joseph caille","LARGEUR":1.95},"geometry":{"type":"Point","coordinates":[-1.56264257823823,47.2198852530032]}},{"type":"Feature","properties":{"DISQUE_LIVRAISON":"Non","QUARTIER":1,"geo":{"name":"303"},"IRIS2008":"441090108","_l":[47.210755625772,-1.54939626999027],"LQUARTIER":"Centre Ville","LONGUEUR":10.5,"ADRESSE":"24 rue des olivettes","LARGEUR":1.75},"geometry":{"type":"Point","coordinates":[-1.54939626999027,47.210755625772]}},{"type":"Feature","properties":{"DISQUE_LIVRAISON":"Non","QUARTIER":1,"geo":{"name":"304"},"IRIS2008":"441090108","_l":[47.2121029111975,-1.55008015594297],"LQUARTIER":"Centre Ville","LONGUEUR":7,"ADRESSE":"4 rue des olivettes","LARGEUR":1.9},"geometry":{"type":"Point","coordinates":[-1.55008015594297,47.2121029111975]}},{"type":"Feature","properties":{"DISQUE_LIVRAISON":"Oui","QUARTIER":1,"geo":{"name":"305"},"IRIS2008":"441090102","_l":[47.2121033922267,-1.55257437774323],"LQUARTIER":"Centre Ville","LONGUEUR":8.5,"ADRESSE":"2 chausse de la madeleine","LARGEUR":2.45},"geometry":{"type":"Point","coordinates":[-1.55257437774323,47.2121033922267]}},{"type":"Feature","properties":{"DISQUE_LIVRAISON":"Oui","QUARTIER":1,"geo":{"name":"306"},"IRIS2008":"441090102","_l":[47.2119639297439,-1.55245672279722],"LQUARTIER":"Centre Ville","LONGUEUR":14.5,"ADRESSE":"2 chausse de la madeleine","LARGEUR":2.45},"geometry":{"type":"Point","coordinates":[-1.55245672279722,47.2119639297439]}},{"type":"Feature","properties":{"DISQUE_LIVRAISON":"Non","QUARTIER":1,"geo":{"name":"307"},"IRIS2008":"441090108","_l":[47.212453302814,-1.5480732902693],"LQUARTIER":"Centre Ville","LONGUEUR":5.9,"ADRESSE":"2 rue laennec","LARGEUR":1.8},"geometry":{"type":"Point","coordinates":[-1.5480732902693,47.212453302814]}},{"type":"Feature","properties":{"DISQUE_LIVRAISON":"Oui","QUARTIER":1,"geo":{"name":"310"},"IRIS2008":"441090101","_l":[47.2144773234321,-1.56736139852014],"LQUARTIER":"Centre Ville","LONGUEUR":7,"ADRESSE":"1 place de l'édit de NANTES","LARGEUR":2.35},"geometry":{"type":"Point","coordinates":[-1.56736139852014,47.2144773234321]}},{"type":"Feature","properties":{"DISQUE_LIVRAISON":"Oui","QUARTIER":1,"geo":{"name":"311"},"IRIS2008":"441090101","_l":[47.2144562467438,-1.56621644156866],"LQUARTIER":"Centre Ville","LONGUEUR":8.1,"ADRESSE":"11 rue Kleber","LARGEUR":2.1},"geometry":{"type":"Point","coordinates":[-1.56621644156866,47.2144562467438]}},{"type":"Feature","properties":{"DISQUE_LIVRAISON":"Oui","QUARTIER":1,"geo":{"name":"312"},"IRIS2008":"441090104","_l":[47.2145063914625,-1.56580210631791],"LQUARTIER":"Centre Ville","LONGUEUR":13,"ADRESSE":"25 rue racine (devant cave vino vini)","LARGEUR":2},"geometry":{"type":"Point","coordinates":[-1.56580210631791,47.2145063914625]}},{"type":"Feature","properties":{"DISQUE_LIVRAISON":"Oui","QUARTIER":1,"geo":{"name":"313"},"IRIS2008":"441090103","_l":[47.2128786054817,-1.56465815910943],"LQUARTIER":"Centre Ville","LONGUEUR":6.5,"ADRESSE":"en face le 1 place de la monnaie","LARGEUR":1.85},"geometry":{"type":"Point","coordinates":[-1.56465815910943,47.2128786054817]}},{"type":"Feature","properties":{"DISQUE_LIVRAISON":"Oui","QUARTIER":1,"geo":{"name":"314"},"IRIS2008":"441090103","_l":[47.2135897201157,-1.56441013579279],"LQUARTIER":"Centre Ville","LONGUEUR":11,"ADRESSE":"3 place Paul-Emile Ladmirault","LARGEUR":2.1},"geometry":{"type":"Point","coordinates":[-1.56441013579279,47.2135897201157]}},{"type":"Feature","properties":{"DISQUE_LIVRAISON":"Oui","QUARTIER":1,"geo":{"name":"315"},"IRIS2008":"441090103","_l":[47.2122393604021,-1.56500833639173],"LQUARTIER":"Centre Ville","LONGUEUR":5.5,"ADRESSE":"14 rue Voltaire","LARGEUR":2},"geometry":{"type":"Point","coordinates":[-1.56500833639173,47.2122393604021]}},{"type":"Feature","properties":{"DISQUE_LIVRAISON":"Oui","QUARTIER":1,"geo":{"name":"316"},"IRIS2008":"441090103","_l":[47.2127141437106,-1.56524890724008],"LQUARTIER":"Centre Ville","LONGUEUR":7.1,"ADRESSE":"en face le 6 rue Athénas","LARGEUR":1.95},"geometry":{"type":"Point","coordinates":[-1.56524890724008,47.2127141437106]}},{"type":"Feature","properties":{"DISQUE_LIVRAISON":"Oui","QUARTIER":1,"geo":{"name":"317"},"IRIS2008":"441090103","_l":[47.2120971521897,-1.56545986026426],"LQUARTIER":"Centre Ville","LONGUEUR":10.4,"ADRESSE":"En face le 15 rue Voltaire","LARGEUR":2.6},"geometry":{"type":"Point","coordinates":[-1.56545986026426,47.2120971521897]}},{"type":"Feature","properties":{"DISQUE_LIVRAISON":"Oui","QUARTIER":1,"geo":{"name":"318"},"IRIS2008":"441090101","_l":[47.2131436672257,-1.56612526994654],"LQUARTIER":"Centre Ville","LONGUEUR":6.05,"ADRESSE":"En face le 2 rue Urvoy de Saint-Bedan","LARGEUR":2},"geometry":{"type":"Point","coordinates":[-1.56612526994654,47.2131436672257]}},{"type":"Feature","properties":{"DISQUE_LIVRAISON":"Oui","QUARTIER":1,"geo":{"name":"319"},"IRIS2008":"441090103","_l":[47.2120027472886,-1.56422480579611],"LQUARTIER":"Centre Ville","LONGUEUR":7.9,"ADRESSE":"13 rue gresset","LARGEUR":2},"geometry":{"type":"Point","coordinates":[-1.56422480579611,47.2120027472886]}},{"type":"Feature","properties":{"DISQUE_LIVRAISON":"Oui","QUARTIER":1,"geo":{"name":"320"},"IRIS2008":"441090103","_l":[47.213773711875,-1.56394346878731],"LQUARTIER":"Centre Ville","LONGUEUR":9.7,"ADRESSE":"face 8 rue racine","LARGEUR":2.05},"geometry":{"type":"Point","coordinates":[-1.56394346878731,47.213773711875]}},{"type":"Feature","properties":{"DISQUE_LIVRAISON":"Oui","QUARTIER":1,"geo":{"name":"321"},"IRIS2008":"441090103","_l":[47.2142305349217,-1.56511108854808],"LQUARTIER":"Centre Ville","LONGUEUR":10,"ADRESSE":"21 rue racine","LARGEUR":2.05},"geometry":{"type":"Point","coordinates":[-1.56511108854808,47.2142305349217]}},{"type":"Feature","properties":{"DISQUE_LIVRAISON":"Oui","QUARTIER":1,"geo":{"name":"322"},"IRIS2008":"441090104","_l":[47.2147032686155,-1.5668750759113],"LQUARTIER":"Centre Ville","LONGUEUR":8.4,"ADRESSE":"5ème At rue Sévigné","LARGEUR":1.85},"geometry":{"type":"Point","coordinates":[-1.5668750759113,47.2147032686155]}},{"type":"Feature","properties":{"DISQUE_LIVRAISON":"Oui","QUARTIER":1,"geo":{"name":"323"},"IRIS2008":"441090103","_l":[47.2147944346393,-1.56500529477067],"LQUARTIER":"Centre Ville","LONGUEUR":15,"ADRESSE":"5 rue copernic","LARGEUR":2.4},"geometry":{"type":"Point","coordinates":[-1.56500529477067,47.2147944346393]}},{"type":"Feature","properties":{"DISQUE_LIVRAISON":"Oui","QUARTIER":1,"geo":{"name":"324"},"IRIS2008":"441090103","_l":[47.2149609864072,-1.56365138028095],"LQUARTIER":"Centre Ville","LONGUEUR":7.65,"ADRESSE":"5ème AT place Delorme","LARGEUR":1.95},"geometry":{"type":"Point","coordinates":[-1.56365138028095,47.2149609864072]}},{"type":"Feature","properties":{"DISQUE_LIVRAISON":"Oui","QUARTIER":1,"geo":{"name":"325"},"IRIS2008":"441090104","_l":[47.2152813124463,-1.56254037691441],"LQUARTIER":"Centre Ville","LONGUEUR":5.3,"ADRESSE":"24 rue du calvaire","LARGEUR":3.15},"geometry":{"type":"Point","coordinates":[-1.56254037691441,47.2152813124463]}},{"type":"Feature","properties":{"DISQUE_LIVRAISON":"Oui","QUARTIER":1,"geo":{"name":"326"},"IRIS2008":"441090103","_l":[47.2151897217366,-1.56241103119584],"LQUARTIER":"Centre Ville","LONGUEUR":5.4,"ADRESSE":"25 rue du calvaire","LARGEUR":3.7},"geometry":{"type":"Point","coordinates":[-1.56241103119584,47.2151897217366]}},{"type":"Feature","properties":{"DISQUE_LIVRAISON":"Oui","QUARTIER":4,"geo":{"name":"329"},"IRIS2008":"441090403","_l":[47.2201305797137,-1.56322995061018],"LQUARTIER":"Hauts Pavés - Saint Félix","LONGUEUR":6.1,"ADRESSE":"3 rue Menou","LARGEUR":2.05},"geometry":{"type":"Point","coordinates":[-1.56322995061018,47.2201305797137]}},{"type":"Feature","properties":{"DISQUE_LIVRAISON":"Oui","QUARTIER":4,"geo":{"name":"330"},"IRIS2008":"441090403","_l":[47.2199587921746,-1.56348854767261],"LQUARTIER":"Hauts Pavés - Saint Félix","LONGUEUR":6.5,"ADRESSE":"12 rue ménou (en face le 7)","LARGEUR":2.1},"geometry":{"type":"Point","coordinates":[-1.56348854767261,47.2199587921746]}},{"type":"Feature","properties":{"DISQUE_LIVRAISON":"Oui","QUARTIER":4,"geo":{"name":"331"},"IRIS2008":"441090403","_l":[47.2192894054947,-1.56344885116921],"LQUARTIER":"Hauts Pavés - Saint Félix","LONGUEUR":8.7,"ADRESSE":"10 place Edouard Normand","LARGEUR":2},"geometry":{"type":"Point","coordinates":[-1.56344885116921,47.2192894054947]}},{"type":"Feature","properties":{"DISQUE_LIVRAISON":"Non","QUARTIER":4,"geo":{"name":"332"},"IRIS2008":"441090402","_l":[47.2185868996984,-1.56633896430181],"LQUARTIER":"Hauts Pavés - Saint Félix","LONGUEUR":5.5,"ADRESSE":"En face le 15 rue de la bastille(entre 30-32)","LARGEUR":1.4},"geometry":{"type":"Point","coordinates":[-1.56633896430181,47.2185868996984]}},{"type":"Feature","properties":{"DISQUE_LIVRAISON":"Non","QUARTIER":4,"geo":{"name":"333"},"IRIS2008":"441090402","_l":[47.216777790183,-1.56762462732189],"LQUARTIER":"Hauts Pavés - Saint Félix","LONGUEUR":10,"ADRESSE":"2 rue marie anne du bocage","LARGEUR":1.85},"geometry":{"type":"Point","coordinates":[-1.56762462732189,47.216777790183]}},{"type":"Feature","properties":{"DISQUE_LIVRAISON":"Oui","QUARTIER":1,"geo":{"name":"334"},"IRIS2008":"441090104","_l":[47.2160943904994,-1.56150462822783],"LQUARTIER":"Centre Ville","LONGUEUR":15.3,"ADRESSE":"En face le 8 rue lafayette (BNP Paribas)","LARGEUR":1.9},"geometry":{"type":"Point","coordinates":[-1.56150462822783,47.2160943904994]}},{"type":"Feature","properties":{"DISQUE_LIVRAISON":"Oui","QUARTIER":1,"geo":{"name":"335"},"IRIS2008":"441090104","_l":[47.2157727315158,-1.5611298367896],"LQUARTIER":"Centre Ville","LONGUEUR":11.75,"ADRESSE":"En face le 6 rue de la fayette","LARGEUR":1.9},"geometry":{"type":"Point","coordinates":[-1.5611298367896,47.2157727315158]}},{"type":"Feature","properties":{"DISQUE_LIVRAISON":"Oui","QUARTIER":1,"geo":{"name":"336"},"IRIS2008":"441090105","_l":[47.2160167546685,-1.56059633058021],"LQUARTIER":"Centre Ville","LONGUEUR":12,"ADRESSE":"1 rue de budapest","LARGEUR":2},"geometry":{"type":"Point","coordinates":[-1.56059633058021,47.2160167546685]}},{"type":"Feature","properties":{"DISQUE_LIVRAISON":"Oui","QUARTIER":1,"geo":{"name":"337"},"IRIS2008":"441090105","_l":[47.2165283923737,-1.56002172439215],"LQUARTIER":"Centre Ville","LONGUEUR":10,"ADRESSE":"En face le 7 rue de Budapest","LARGEUR":2.05},"geometry":{"type":"Point","coordinates":[-1.56002172439215,47.2165283923737]}},{"type":"Feature","properties":{"DISQUE_LIVRAISON":"Oui","QUARTIER":1,"geo":{"name":"338"},"IRIS2008":"441090104","_l":[47.2166738625811,-1.56215870227215],"LQUARTIER":"Centre Ville","LONGUEUR":15.5,"ADRESSE":"11 rue de la fayette","LARGEUR":1.95},"geometry":{"type":"Point","coordinates":[-1.56215870227215,47.2166738625811]}},{"type":"Feature","properties":{"DISQUE_LIVRAISON":"Oui","QUARTIER":1,"geo":{"name":"339"},"IRIS2008":"441090105","_l":[47.2182000961816,-1.56188216370368],"LQUARTIER":"Centre Ville","LONGUEUR":7,"ADRESSE":"29 rue Jean Jaurès","LARGEUR":1.95},"geometry":{"type":"Point","coordinates":[-1.56188216370368,47.2182000961816]}},{"type":"Feature","properties":{"DISQUE_LIVRAISON":"Oui","QUARTIER":1,"geo":{"name":"340"},"IRIS2008":"441090105","_l":[47.2185251740016,-1.56090471243265],"LQUARTIER":"Centre Ville","LONGUEUR":6.5,"ADRESSE":"En face le 1 rue de l'industrie (à gauche du 2)","LARGEUR":1.85},"geometry":{"type":"Point","coordinates":[-1.56090471243265,47.2185251740016]}},{"type":"Feature","properties":{"DISQUE_LIVRAISON":"Oui","QUARTIER":1,"geo":{"name":"341"},"IRIS2008":"441090105","_l":[47.2182479679524,-1.56129042702991],"LQUARTIER":"Centre Ville","LONGUEUR":10.5,"ADRESSE":"En face le 7 rue de l'industrie","LARGEUR":1.8},"geometry":{"type":"Point","coordinates":[-1.56129042702991,47.2182479679524]}},{"type":"Feature","properties":{"DISQUE_LIVRAISON":"Oui","QUARTIER":1,"geo":{"name":"342"},"IRIS2008":"441090105","_l":[47.2185693947276,-1.5601461028146],"LQUARTIER":"Centre Ville","LONGUEUR":5.25,"ADRESSE":"4 rue du du président herriot","LARGEUR":2},"geometry":{"type":"Point","coordinates":[-1.5601461028146,47.2185693947276]}},{"type":"Feature","properties":{"DISQUE_LIVRAISON":"Oui","QUARTIER":1,"geo":{"name":"343"},"IRIS2008":"441090105","_l":[47.2192187535636,-1.56035090416818],"LQUARTIER":"Centre Ville","LONGUEUR":5.9,"ADRESSE":"en face le 12 rue Jean Jaurès","LARGEUR":1.95},"geometry":{"type":"Point","coordinates":[-1.56035090416818,47.2192187535636]}},{"type":"Feature","properties":{"DISQUE_LIVRAISON":"Oui","QUARTIER":4,"geo":{"name":"344"},"IRIS2008":"441090404","_l":[47.2206753310129,-1.55755494240007],"LQUARTIER":"Hauts Pavés - Saint Félix","LONGUEUR":7,"ADRESSE":"4 rue Jeanne d'arc (en face 25-27)","LARGEUR":2},"geometry":{"type":"Point","coordinates":[-1.55755494240007,47.2206753310129]}},{"type":"Feature","properties":{"DISQUE_LIVRAISON":"Oui","QUARTIER":1,"geo":{"name":"345"},"IRIS2008":"441090105","_l":[47.2162229989901,-1.55834110525193],"LQUARTIER":"Centre Ville","LONGUEUR":21,"ADRESSE":"10 bis rue de l'arche sêche","LARGEUR":2},"geometry":{"type":"Point","coordinates":[-1.55834110525193,47.2162229989901]}},{"type":"Feature","properties":{"DISQUE_LIVRAISON":"Oui","QUARTIER":1,"geo":{"name":"346"},"IRIS2008":"441090105","_l":[47.2166612930853,-1.55834877160846],"LQUARTIER":"Centre Ville","LONGUEUR":15.6,"ADRESSE":"en face le 13 rue de l'arche sêche","LARGEUR":1.9},"geometry":{"type":"Point","coordinates":[-1.55834877160846,47.2166612930853]}},{"type":"Feature","properties":{"DISQUE_LIVRAISON":"Oui","QUARTIER":1,"geo":{"name":"347"},"IRIS2008":"441090105","_l":[47.2170670727777,-1.55840253661221],"LQUARTIER":"Centre Ville","LONGUEUR":5.1,"ADRESSE":"A droite du 15 rue l'arche sêche (en dessous le po","LARGEUR":2.1},"geometry":{"type":"Point","coordinates":[-1.55840253661221,47.2170670727777]}},{"type":"Feature","properties":{"DISQUE_LIVRAISON":"Oui","QUARTIER":1,"geo":{"name":"348"},"IRIS2008":"441090106","_l":[47.2188657818462,-1.55041987135868],"LQUARTIER":"Centre Ville","LONGUEUR":10.5,"ADRESSE":"en face le 2 rue de l'évêché","LARGEUR":2.65},"geometry":{"type":"Point","coordinates":[-1.55041987135868,47.2188657818462]}},{"type":"Feature","properties":{"DISQUE_LIVRAISON":"Oui","QUARTIER":1,"geo":{"name":"349"},"IRIS2008":"441090106","_l":[47.2199364616985,-1.55229850364292],"LQUARTIER":"Centre Ville","LONGUEUR":8.3,"ADRESSE":"16 rue du roi albert","LARGEUR":1.8},"geometry":{"type":"Point","coordinates":[-1.55229850364292,47.2199364616985]}},{"type":"Feature","properties":{"DISQUE_LIVRAISON":"Oui","QUARTIER":1,"geo":{"name":"350"},"IRIS2008":"441090106","_l":[47.2193741453501,-1.55312246995068],"LQUARTIER":"Centre Ville","LONGUEUR":9.2,"ADRESSE":"1 rue d'aguesseau","LARGEUR":2},"geometry":{"type":"Point","coordinates":[-1.55312246995068,47.2193741453501]}},{"type":"Feature","properties":{"DISQUE_LIVRAISON":"Oui","QUARTIER":1,"geo":{"name":"351"},"IRIS2008":"441090106","_l":[47.2174385846083,-1.55250319547917],"LQUARTIER":"Centre Ville","LONGUEUR":6.1,"ADRESSE":"Après le 23 rue de strasbourg","LARGEUR":1.9},"geometry":{"type":"Point","coordinates":[-1.55250319547917,47.2174385846083]}},{"type":"Feature","properties":{"DISQUE_LIVRAISON":"Oui","QUARTIER":1,"geo":{"name":"352"},"IRIS2008":"441090106","_l":[47.2188454701818,-1.55374439761532],"LQUARTIER":"Centre Ville","LONGUEUR":12.5,"ADRESSE":"29 rue de strasbourg","LARGEUR":2.9},"geometry":{"type":"Point","coordinates":[-1.55374439761532,47.2188454701818]}},{"type":"Feature","properties":{"DISQUE_LIVRAISON":"Oui","QUARTIER":1,"geo":{"name":"353"},"IRIS2008":"441090106","_l":[47.2186278074604,-1.55520982270825],"LQUARTIER":"Centre Ville","LONGUEUR":10.7,"ADRESSE":"32 rue saint léonard","LARGEUR":2.05},"geometry":{"type":"Point","coordinates":[-1.55520982270825,47.2186278074604]}},{"type":"Feature","properties":{"DISQUE_LIVRAISON":"Oui","QUARTIER":1,"geo":{"name":"354"},"IRIS2008":"441090106","_l":[47.2186944878348,-1.55332600252043],"LQUARTIER":"Centre Ville","LONGUEUR":6.5,"ADRESSE":"En face le 8 rue saint jean","LARGEUR":1.85},"geometry":{"type":"Point","coordinates":[-1.55332600252043,47.2186944878348]}},{"type":"Feature","properties":{"DISQUE_LIVRAISON":"Oui","QUARTIER":1,"geo":{"name":"355"},"IRIS2008":"441090106","_l":[47.2180720436514,-1.55412739346937],"LQUARTIER":"Centre Ville","LONGUEUR":11.55,"ADRESSE":"7 rue de la commune","LARGEUR":1.85},"geometry":{"type":"Point","coordinates":[-1.55412739346937,47.2180720436514]}},{"type":"Feature","properties":{"DISQUE_LIVRAISON":"Oui","QUARTIER":1,"geo":{"name":"356"},"IRIS2008":"441090106","_l":[47.2176569638131,-1.55633570971221],"LQUARTIER":"Centre Ville","LONGUEUR":8.25,"ADRESSE":"9 rue armand brossard","LARGEUR":2.05},"geometry":{"type":"Point","coordinates":[-1.55633570971221,47.2176569638131]}},{"type":"Feature","properties":{"DISQUE_LIVRAISON":"Oui","QUARTIER":1,"geo":{"name":"357"},"IRIS2008":"441090106","_l":[47.2172255930442,-1.55165927094181],"LQUARTIER":"Centre Ville","LONGUEUR":12.8,"ADRESSE":"En face le 16 rue des carmélites","LARGEUR":1.8},"geometry":{"type":"Point","coordinates":[-1.55165927094181,47.2172255930442]}},{"type":"Feature","properties":{"DISQUE_LIVRAISON":"Oui","QUARTIER":1,"geo":{"name":"358"},"IRIS2008":"441090106","_l":[47.2177283297117,-1.55168368134889],"LQUARTIER":"Centre Ville","LONGUEUR":11,"ADRESSE":"3 rue de verdun","LARGEUR":2},"geometry":{"type":"Point","coordinates":[-1.55168368134889,47.2177283297117]}},{"type":"Feature","properties":{"DISQUE_LIVRAISON":"Oui","QUARTIER":5,"geo":{"name":"359"},"IRIS2008":"441090508","_l":[47.2205993718057,-1.54861313863712],"LQUARTIER":"Malakoff - Saint-Donatien","LONGUEUR":12,"ADRESSE":"75 rue du maréchal joffre","LARGEUR":2},"geometry":{"type":"Point","coordinates":[-1.54861313863712,47.2205993718057]}},{"type":"Feature","properties":{"DISQUE_LIVRAISON":"Oui","QUARTIER":5,"geo":{"name":"360"},"IRIS2008":"441090508","_l":[47.2210639882995,-1.54811523570065],"LQUARTIER":"Malakoff - Saint-Donatien","LONGUEUR":5.2,"ADRESSE":"53 rue du maréchal joffre","LARGEUR":1.9},"geometry":{"type":"Point","coordinates":[-1.54811523570065,47.2210639882995]}},{"type":"Feature","properties":{"DISQUE_LIVRAISON":"Oui","QUARTIER":5,"geo":{"name":"361"},"IRIS2008":"441090508","_l":[47.2212701288644,-1.5478772559681],"LQUARTIER":"Malakoff - Saint-Donatien","LONGUEUR":15.1,"ADRESSE":"47 rue du maréchal joffre","LARGEUR":1.9},"geometry":{"type":"Point","coordinates":[-1.5478772559681,47.2212701288644]}},{"type":"Feature","properties":{"DISQUE_LIVRAISON":"Oui","QUARTIER":5,"geo":{"name":"362"},"IRIS2008":"441090508","_l":[47.219977943968,-1.54757898739637],"LQUARTIER":"Malakoff - Saint-Donatien","LONGUEUR":14.2,"ADRESSE":"En face le 108 rue gambetta","LARGEUR":3.05},"geometry":{"type":"Point","coordinates":[-1.54757898739637,47.219977943968]}},{"type":"Feature","properties":{"DISQUE_LIVRAISON":"Oui","QUARTIER":5,"geo":{"name":"363"},"IRIS2008":"441090508","_l":[47.2198462570196,-1.54790415510371],"LQUARTIER":"Malakoff - Saint-Donatien","LONGUEUR":10.5,"ADRESSE":"rue gambetta(en face la rue dugart-matifeux)","LARGEUR":2.1},"geometry":{"type":"Point","coordinates":[-1.54790415510371,47.2198462570196]}},{"type":"Feature","properties":{"DISQUE_LIVRAISON":"Oui","QUARTIER":5,"geo":{"name":"364"},"IRIS2008":"441090508","_l":[47.2182761748179,-1.54341768125942],"LQUARTIER":"Malakoff - Saint-Donatien","LONGUEUR":9.6,"ADRESSE":"En face le 1 stanislas baudry","LARGEUR":2.3},"geometry":{"type":"Point","coordinates":[-1.54341768125942,47.2182761748179]}},{"type":"Feature","properties":{"DISQUE_LIVRAISON":"Oui","QUARTIER":4,"geo":{"name":"365"},"IRIS2008":"441090404","_l":[47.2213860833819,-1.55594206544268],"LQUARTIER":"Hauts Pavés - Saint Félix","LONGUEUR":12.5,"ADRESSE":"9 rue Paul Bellamy","LARGEUR":2.5},"geometry":{"type":"Point","coordinates":[-1.55594206544268,47.2213860833819]}},{"type":"Feature","properties":{"DISQUE_LIVRAISON":"Oui","QUARTIER":4,"geo":{"name":"366"},"IRIS2008":"441090404","_l":[47.221978249032,-1.55625172153373],"LQUARTIER":"Hauts Pavés - Saint Félix","LONGUEUR":8.2,"ADRESSE":"22 rue paul bellamy","LARGEUR":2.5},"geometry":{"type":"Point","coordinates":[-1.55625172153373,47.221978249032]}},{"type":"Feature","properties":{"DISQUE_LIVRAISON":"Oui","QUARTIER":4,"geo":{"name":"367"},"IRIS2008":"441090404","_l":[47.2236047619866,-1.55789384970308],"LQUARTIER":"Hauts Pavés - Saint Félix","LONGUEUR":5,"ADRESSE":"29 rue paul bellamy","LARGEUR":2},"geometry":{"type":"Point","coordinates":[-1.55789384970308,47.2236047619866]}},{"type":"Feature","properties":{"DISQUE_LIVRAISON":"Oui","QUARTIER":4,"geo":{"name":"368"},"IRIS2008":"441090408","_l":[47.2250694710836,-1.55888810058802],"LQUARTIER":"Hauts Pavés - Saint Félix","LONGUEUR":8.7,"ADRESSE":"72 rue Paul Bellamy","LARGEUR":2},"geometry":{"type":"Point","coordinates":[-1.55888810058802,47.2250694710836]}},{"type":"Feature","properties":{"DISQUE_LIVRAISON":"Oui","QUARTIER":4,"geo":{"name":"369"},"IRIS2008":"441090408","_l":[47.2259389949571,-1.5596315397614],"LQUARTIER":"Hauts Pavés - Saint Félix","LONGUEUR":6.3,"ADRESSE":"En face le 81 rue paul bellamy","LARGEUR":2.5},"geometry":{"type":"Point","coordinates":[-1.5596315397614,47.2259389949571]}},{"type":"Feature","properties":{"DISQUE_LIVRAISON":"Oui","QUARTIER":4,"geo":{"name":"370"},"IRIS2008":"441090408","_l":[47.2269924882819,-1.56070196789184],"LQUARTIER":"Hauts Pavés - Saint Félix","LONGUEUR":8.3,"ADRESSE":"109 rue Paul Bellamy","LARGEUR":2.1},"geometry":{"type":"Point","coordinates":[-1.56070196789184,47.2269924882819]}},{"type":"Feature","properties":{"DISQUE_LIVRAISON":"Oui","QUARTIER":4,"geo":{"name":"371"},"IRIS2008":"441090408","_l":[47.2282170406494,-1.56174854566289],"LQUARTIER":"Hauts Pavés - Saint Félix","LONGUEUR":5.8,"ADRESSE":"127 rue Paul Bellamy","LARGEUR":1.85},"geometry":{"type":"Point","coordinates":[-1.56174854566289,47.2282170406494]}},{"type":"Feature","properties":{"DISQUE_LIVRAISON":"Oui","QUARTIER":4,"geo":{"name":"372"},"IRIS2008":"441090407","_l":[47.2304842967984,-1.56345137659463],"LQUARTIER":"Hauts Pavés - Saint Félix","LONGUEUR":7.1,"ADRESSE":"172 rue Paul Bellamy","LARGEUR":2.25},"geometry":{"type":"Point","coordinates":[-1.56345137659463,47.2304842967984]}},{"type":"Feature","properties":{"DISQUE_LIVRAISON":"Oui","QUARTIER":4,"geo":{"name":"373"},"IRIS2008":"441090407","_l":[47.2313194494374,-1.56414246804978],"LQUARTIER":"Hauts Pavés - Saint Félix","LONGUEUR":6.2,"ADRESSE":"192 rue Paul Bellamy","LARGEUR":2.5},"geometry":{"type":"Point","coordinates":[-1.56414246804978,47.2313194494374]}},{"type":"Feature","properties":{"DISQUE_LIVRAISON":"Oui","QUARTIER":4,"geo":{"name":"374"},"IRIS2008":"441090407","_l":[47.2328224885749,-1.56558826577347],"LQUARTIER":"Hauts Pavés - Saint Félix","LONGUEUR":15.3,"ADRESSE":"219 rue Paul Bellamy","LARGEUR":2.15},"geometry":{"type":"Point","coordinates":[-1.56558826577347,47.2328224885749]}},{"type":"Feature","properties":{"DISQUE_LIVRAISON":"Non","QUARTIER":3,"geo":{"name":"375"},"IRIS2008":"441090308","_l":[47.2143480789541,-1.57224065673237],"LQUARTIER":"Dervallières - Zola","LONGUEUR":13.2,"ADRESSE":"43 rue lamoricière","LARGEUR":2},"geometry":{"type":"Point","coordinates":[-1.57224065673237,47.2143480789541]}},{"type":"Feature","properties":{"DISQUE_LIVRAISON":"Non","QUARTIER":3,"geo":{"name":"376"},"IRIS2008":"441090308","_l":[47.2147118994107,-1.57435266266879],"LQUARTIER":"Dervallières - Zola","LONGUEUR":12,"ADRESSE":"2 place canclaux","LARGEUR":2},"geometry":{"type":"Point","coordinates":[-1.57435266266879,47.2147118994107]}},{"type":"Feature","properties":{"DISQUE_LIVRAISON":"Oui","QUARTIER":4,"geo":{"name":"377"},"IRIS2008":"441090403","_l":[47.219252070158,-1.56122725013335],"LQUARTIER":"Hauts Pavés - Saint Félix","LONGUEUR":4.9,"ADRESSE":"2 rue porte neuve","LARGEUR":1.9},"geometry":{"type":"Point","coordinates":[-1.56122725013335,47.219252070158]}},{"type":"Feature","properties":{"DISQUE_LIVRAISON":"Oui","QUARTIER":1,"geo":{"name":"378"},"IRIS2008":"441090105","_l":[47.2185740693538,-1.56132023748968],"LQUARTIER":"Centre Ville","LONGUEUR":10,"ADRESSE":"23 bis rue Jean Jaurès","LARGEUR":2.1},"geometry":{"type":"Point","coordinates":[-1.56132023748968,47.2185740693538]}},{"type":"Feature","properties":{"DISQUE_LIVRAISON":"Oui","QUARTIER":4,"geo":{"name":"379"},"IRIS2008":"441090404","_l":[47.2213274439934,-1.55657849550833],"LQUARTIER":"Hauts Pavés - Saint Félix","LONGUEUR":4.15,"ADRESSE":"6 rue Talensac","LARGEUR":2.05},"geometry":{"type":"Point","coordinates":[-1.55657849550833,47.2213274439934]}},{"type":"Feature","properties":{"DISQUE_LIVRAISON":"Oui","QUARTIER":5,"geo":{"name":"381"},"IRIS2008":"441090508","_l":[47.2200997146105,-1.54914029547082],"LQUARTIER":"Malakoff - Saint-Donatien","LONGUEUR":10,"ADRESSE":"91 rue du maréchal joffre","LARGEUR":1.9},"geometry":{"type":"Point","coordinates":[-1.54914029547082,47.2200997146105]}},{"type":"Feature","properties":{"DISQUE_LIVRAISON":"Oui","QUARTIER":5,"geo":{"name":"382"},"IRIS2008":"441090508","_l":[47.220783653156,-1.54841144144294],"LQUARTIER":"Malakoff - Saint-Donatien","LONGUEUR":7,"ADRESSE":"65 rue du maréchal joffre","LARGEUR":1.95},"geometry":{"type":"Point","coordinates":[-1.54841144144294,47.220783653156]}},{"type":"Feature","properties":{"DISQUE_LIVRAISON":"Oui","QUARTIER":5,"geo":{"name":"383"},"IRIS2008":"441090508","_l":[47.2219630916022,-1.5472171850345],"LQUARTIER":"Malakoff - Saint-Donatien","LONGUEUR":5,"ADRESSE":"26 rue du maréchal joffre","LARGEUR":1.95},"geometry":{"type":"Point","coordinates":[-1.5472171850345,47.2219630916022]}},{"type":"Feature","properties":{"DISQUE_LIVRAISON":"Oui","QUARTIER":5,"geo":{"name":"384"},"IRIS2008":"441090505","_l":[47.2202370186517,-1.54524863712419],"LQUARTIER":"Malakoff - Saint-Donatien","LONGUEUR":5.95,"ADRESSE":"13 place trébuchet","LARGEUR":1.95},"geometry":{"type":"Point","coordinates":[-1.54524863712419,47.2202370186517]}},{"type":"Feature","properties":{"DISQUE_LIVRAISON":"Oui","QUARTIER":5,"geo":{"name":"385"},"IRIS2008":"441090508","_l":[47.2200091413939,-1.54916401082968],"LQUARTIER":"Malakoff - Saint-Donatien","LONGUEUR":7.2,"ADRESSE":"5 rue labouchère","LARGEUR":1.9},"geometry":{"type":"Point","coordinates":[-1.54916401082968,47.2200091413939]}},{"type":"Feature","properties":{"DISQUE_LIVRAISON":"Oui","QUARTIER":1,"geo":{"name":"387"},"IRIS2008":"441090103","_l":[47.2146967438178,-1.56337920755711],"LQUARTIER":"Centre Ville","LONGUEUR":9,"ADRESSE":"18 rue franklin","LARGEUR":2.3},"geometry":{"type":"Point","coordinates":[-1.56337920755711,47.2146967438178]}},{"type":"Feature","properties":{"DISQUE_LIVRAISON":"Oui","QUARTIER":1,"geo":{"name":"388"},"IRIS2008":"441090103","_l":[47.2145798554007,-1.56357059902113],"LQUARTIER":"Centre Ville","LONGUEUR":8.7,"ADRESSE":"1 rue buffon","LARGEUR":2},"geometry":{"type":"Point","coordinates":[-1.56357059902113,47.2145798554007]}},{"type":"Feature","properties":{"DISQUE_LIVRAISON":"Oui","QUARTIER":1,"geo":{"name":"389"},"IRIS2008":"441090103","_l":[47.2147978897184,-1.56411049461535],"LQUARTIER":"Centre Ville","LONGUEUR":9.8,"ADRESSE":"4 rue buffon","LARGEUR":2},"geometry":{"type":"Point","coordinates":[-1.56411049461535,47.2147978897184]}},{"type":"Feature","properties":{"DISQUE_LIVRAISON":"Oui","QUARTIER":1,"geo":{"name":"390"},"IRIS2008":"441090103","_l":[47.2135698277949,-1.56295482830038],"LQUARTIER":"Centre Ville","LONGUEUR":10.5,"ADRESSE":"2 rue franklin","LARGEUR":2.3},"geometry":{"type":"Point","coordinates":[-1.56295482830038,47.2135698277949]}},{"type":"Feature","properties":{"DISQUE_LIVRAISON":"Oui","QUARTIER":1,"geo":{"name":"391"},"IRIS2008":"441090103","_l":[47.213831182364,-1.56431869570208],"LQUARTIER":"Centre Ville","LONGUEUR":10.3,"ADRESSE":"1 place ladmirault","LARGEUR":1.95},"geometry":{"type":"Point","coordinates":[-1.56431869570208,47.213831182364]}},{"type":"Feature","properties":{"DISQUE_LIVRAISON":"Non","QUARTIER":1,"geo":{"name":"392"},"IRIS2008":"441090101","_l":[47.2115015654318,-1.56714131696457],"LQUARTIER":"Centre Ville","LONGUEUR":5.6,"ADRESSE":"face 25 rue Voltaire","LARGEUR":1.95},"geometry":{"type":"Point","coordinates":[-1.56714131696457,47.2115015654318]}},{"type":"Feature","properties":{"DISQUE_LIVRAISON":"Oui","QUARTIER":1,"geo":{"name":"393"},"IRIS2008":"441090101","_l":[47.2120582290156,-1.56712740007276],"LQUARTIER":"Centre Ville","LONGUEUR":9.4,"ADRESSE":"5 rue rosière d'artois","LARGEUR":2},"geometry":{"type":"Point","coordinates":[-1.56712740007276,47.2120582290156]}},{"type":"Feature","properties":{"DISQUE_LIVRAISON":"Oui","QUARTIER":1,"geo":{"name":"394"},"IRIS2008":"441090101","_l":[47.2140203419467,-1.56732655010682],"LQUARTIER":"Centre Ville","LONGUEUR":10.1,"ADRESSE":"26 rue rosière d'artois","LARGEUR":2.1},"geometry":{"type":"Point","coordinates":[-1.56732655010682,47.2140203419467]}},{"type":"Feature","properties":{"DISQUE_LIVRAISON":"Oui","QUARTIER":5,"geo":{"name":"395"},"IRIS2008":"441090505","_l":[47.2202867179942,-1.54533554567366],"LQUARTIER":"Malakoff - Saint-Donatien","LONGUEUR":5.6,"ADRESSE":"15 place trébuchet","LARGEUR":2.4},"geometry":{"type":"Point","coordinates":[-1.54533554567366,47.2202867179942]}},{"type":"Feature","properties":{"DISQUE_LIVRAISON":"Oui","QUARTIER":1,"geo":{"name":"396"},"IRIS2008":"441090106","_l":[47.2173670642659,-1.55162562819019],"LQUARTIER":"Centre Ville","LONGUEUR":14,"ADRESSE":"16 / 20 rue des carmélites","LARGEUR":1.85},"geometry":{"type":"Point","coordinates":[-1.55162562819019,47.2173670642659]}},{"type":"Feature","properties":{"DISQUE_LIVRAISON":"Oui","QUARTIER":1,"geo":{"name":"397"},"IRIS2008":"441090104","_l":[47.2161228957884,-1.56362095471755],"LQUARTIER":"Centre Ville","LONGUEUR":5,"ADRESSE":"face 18 rue de marceau (3 epis)","LARGEUR":6},"geometry":{"type":"Point","coordinates":[-1.56362095471755,47.2161228957884]}},{"type":"Feature","properties":{"DISQUE_LIVRAISON":"Oui","QUARTIER":1,"geo":{"name":"398"},"IRIS2008":"441090103","_l":[47.2150050814853,-1.56024248429611],"LQUARTIER":"Centre Ville","LONGUEUR":11,"ADRESSE":"5 rue du chapeau rouge","LARGEUR":2},"geometry":{"type":"Point","coordinates":[-1.56024248429611,47.2150050814853]}},{"type":"Feature","properties":{"DISQUE_LIVRAISON":"Oui","QUARTIER":5,"geo":{"name":"399"},"IRIS2008":"441090508","_l":[47.2178306290985,-1.54497412706033],"LQUARTIER":"Malakoff - Saint-Donatien","LONGUEUR":6,"ADRESSE":"6 rue richebourg","LARGEUR":1.8},"geometry":{"type":"Point","coordinates":[-1.54497412706033,47.2178306290985]}},{"type":"Feature","properties":{"DISQUE_LIVRAISON":"Oui","QUARTIER":1,"geo":{"name":"400"},"IRIS2008":"441090102","_l":[47.2135377385957,-1.55523344214537],"LQUARTIER":"Centre Ville","LONGUEUR":10.5,"ADRESSE":"6 allee duguay trouin","LARGEUR":2.1},"geometry":{"type":"Point","coordinates":[-1.55523344214537,47.2135377385957]}},{"type":"Feature","properties":{"DISQUE_LIVRAISON":"Oui","QUARTIER":1,"geo":{"name":"401"},"IRIS2008":"441090102","_l":[47.2131107531541,-1.55638817994971],"LQUARTIER":"Centre Ville","LONGUEUR":10.5,"ADRESSE":"13 allee duguay trouin","LARGEUR":2.1},"geometry":{"type":"Point","coordinates":[-1.55638817994971,47.2131107531541]}},{"type":"Feature","properties":{"DISQUE_LIVRAISON":"Oui","QUARTIER":1,"geo":{"name":"402"},"IRIS2008":"441090102","_l":[47.2127654736863,-1.55713995538242],"LQUARTIER":"Centre Ville","LONGUEUR":10.5,"ADRESSE":"17 allee duguay trouin","LARGEUR":2.1},"geometry":{"type":"Point","coordinates":[-1.55713995538242,47.2127654736863]}},{"type":"Feature","properties":{"DISQUE_LIVRAISON":"Non","QUARTIER":4,"geo":{"name":"404"},"IRIS2008":"441090404","_l":[47.2214099952103,-1.55914426071102],"LQUARTIER":"Hauts Pavés - Saint Félix","LONGUEUR":14,"ADRESSE":"15-17 rue bel air","LARGEUR":2},"geometry":{"type":"Point","coordinates":[-1.55914426071102,47.2214099952103]}},{"type":"Feature","properties":{"DISQUE_LIVRAISON":"Oui","QUARTIER":1,"geo":{"name":"405"},"IRIS2008":"441090103","_l":[47.2152277952104,-1.56070547186281],"LQUARTIER":"Centre Ville","LONGUEUR":10,"ADRESSE":"14 rue boileau","LARGEUR":2},"geometry":{"type":"Point","coordinates":[-1.56070547186281,47.2152277952104]}},{"type":"Feature","properties":{"DISQUE_LIVRAISON":"Oui","QUARTIER":5,"geo":{"name":"407"},"IRIS2008":"441090508","_l":[47.2165924234388,-1.54681076871417],"LQUARTIER":"Malakoff - Saint-Donatien","LONGUEUR":12,"ADRESSE":"24 allee commandant charco angle henry 4","LARGEUR":1.9},"geometry":{"type":"Point","coordinates":[-1.54681076871417,47.2165924234388]}},{"type":"Feature","properties":{"DISQUE_LIVRAISON":"Oui","QUARTIER":1,"geo":{"name":"408"},"IRIS2008":"441090103","_l":[47.2129282976717,-1.56297623511989],"LQUARTIER":"Centre Ville","LONGUEUR":5.5,"ADRESSE":"2 rue Voltaire","LARGEUR":2},"geometry":{"type":"Point","coordinates":[-1.56297623511989,47.2129282976717]}},{"type":"Feature","properties":{"DISQUE_LIVRAISON":"Oui","QUARTIER":1,"geo":{"name":"409"},"IRIS2008":"441090103","_l":[47.2113252365936,-1.56399824624658],"LQUARTIER":"Centre Ville","LONGUEUR":5,"ADRESSE":"En face du 3 rue des cadeniers","LARGEUR":2},"geometry":{"type":"Point","coordinates":[-1.56399824624658,47.2113252365936]}},{"type":"Feature","properties":{"DISQUE_LIVRAISON":"Oui","QUARTIER":1,"geo":{"name":"421"},"IRIS2008":"441090106","_l":[47.2175148178483,-1.55333264299685],"LQUARTIER":"Centre Ville","LONGUEUR":15,"ADRESSE":"2 rue Saint Vincent","LARGEUR":2},"geometry":{"type":"Point","coordinates":[-1.55333264299685,47.2175148178483]}},{"type":"Feature","properties":{"DISQUE_LIVRAISON":"Oui","QUARTIER":1,"geo":{"name":"441"},"IRIS2008":"441090105","_l":[47.2174992866376,-1.56091026981433],"LQUARTIER":"Centre Ville","LONGUEUR":15,"ADRESSE":"9 rue Mercoeur","LARGEUR":2},"geometry":{"type":"Point","coordinates":[-1.56091026981433,47.2174992866376]}},{"type":"Feature","properties":{"DISQUE_LIVRAISON":"Oui","QUARTIER":1,"geo":{"name":"461"},"IRIS2008":"441090106","_l":[47.2182884048125,-1.55172134562488],"LQUARTIER":"Centre Ville","LONGUEUR":7,"ADRESSE":"3 place saint pierre","LARGEUR":4},"geometry":{"type":"Point","coordinates":[-1.55172134562488,47.2182884048125]}},{"type":"Feature","properties":{"DISQUE_LIVRAISON":"Oui","QUARTIER":1,"geo":{"name":"481"},"IRIS2008":"441090103","_l":[47.2123302653087,-1.55878169964596],"LQUARTIER":"Centre Ville","LONGUEUR":11,"ADRESSE":"Allée de la bourse","LARGEUR":4.5},"geometry":{"type":"Point","coordinates":[-1.55878169964596,47.2123302653087]}},{"type":"Feature","properties":{"DISQUE_LIVRAISON":"Oui","QUARTIER":5,"geo":{"name":"501"},"IRIS2008":"441090507","_l":[47.2153643484719,-1.54074557209031],"LQUARTIER":"Malakoff - Saint-Donatien","LONGUEUR":7,"ADRESSE":"24 rue De Cornulier","LARGEUR":2},"geometry":{"type":"Point","coordinates":[-1.54074557209031,47.2153643484719]}},{"type":"Feature","properties":{"DISQUE_LIVRAISON":"Oui","QUARTIER":1,"geo":{"name":"521"},"IRIS2008":"441090103","_l":[47.2127380083714,-1.56356813505914],"LQUARTIER":"Centre Ville","LONGUEUR":15,"ADRESSE":"6 rue Voltaire","LARGEUR":2.5},"geometry":{"type":"Point","coordinates":[-1.56356813505914,47.2127380083714]}},{"type":"Feature","properties":{"DISQUE_LIVRAISON":"Oui","QUARTIER":1,"geo":{"name":"522"},"IRIS2008":"441090103","_l":[47.2124771002119,-1.56347188785334],"LQUARTIER":"Centre Ville","LONGUEUR":15,"ADRESSE":"7bis rue Gresset","LARGEUR":2.5},"geometry":{"type":"Point","coordinates":[-1.56347188785334,47.2124771002119]}},{"type":"Feature","properties":{"DISQUE_LIVRAISON":"Oui","QUARTIER":1,"geo":{"name":"561"},"IRIS2008":"441090103","_l":[47.2151335126505,-1.56154065510537],"LQUARTIER":"Centre Ville","LONGUEUR":6,"ADRESSE":"14 rue du Chapeau Rouge","LARGEUR":2},"geometry":{"type":"Point","coordinates":[-1.56154065510537,47.2151335126505]}},{"type":"Feature","properties":{"DISQUE_LIVRAISON":"Oui","QUARTIER":4,"geo":{"name":"581"},"IRIS2008":"441090403","_l":[47.2186699702612,-1.56309170533035],"LQUARTIER":"Hauts Pavés - Saint Félix","LONGUEUR":6,"ADRESSE":"5 place Edouard Normand","LARGEUR":3},"geometry":{"type":"Point","coordinates":[-1.56309170533035,47.2186699702612]}},{"type":"Feature","properties":{"DISQUE_LIVRAISON":"Non","QUARTIER":6,"geo":{"name":"601"},"IRIS2008":"441090603","_l":[47.2020846968322,-1.54507849271328],"LQUARTIER":"Ile de Nantes","LONGUEUR":2.5,"ADRESSE":"31 bd des Martyrs Nantais","LARGEUR":5},"geometry":{"type":"Point","coordinates":[-1.54507849271328,47.2020846968322]}},{"type":"Feature","properties":{"DISQUE_LIVRAISON":"Non","QUARTIER":3,"geo":{"name":"602"},"IRIS2008":"441090306","_l":[47.2100245932778,-1.59562456005715],"LQUARTIER":"Dervallières - Zola","LONGUEUR":5,"ADRESSE":"115 rue de la Convention","LARGEUR":2.5},"geometry":{"type":"Point","coordinates":[-1.59562456005715,47.2100245932778]}},{"type":"Feature","properties":{"DISQUE_LIVRAISON":"Non","QUARTIER":4,"geo":{"name":"603"},"IRIS2008":"441090402","_l":[47.2199158875299,-1.57529187909539],"LQUARTIER":"Hauts Pavés - Saint Félix","LONGUEUR":10,"ADRESSE":"65 avenue Camus","LARGEUR":2.5},"geometry":{"type":"Point","coordinates":[-1.57529187909539,47.2199158875299]}},{"type":"Feature","properties":{"DISQUE_LIVRAISON":"Oui","QUARTIER":1,"geo":{"name":"621"},"IRIS2008":"441090103","_l":[47.2118870298237,-1.56072116830149],"LQUARTIER":"Centre Ville","LONGUEUR":15,"ADRESSE":"10 rue Maréchal de Lattre de Tassigny","LARGEUR":2},"geometry":{"type":"Point","coordinates":[-1.56072116830149,47.2118870298237]}},{"type":"Feature","properties":{"DISQUE_LIVRAISON":"Oui","QUARTIER":1,"geo":{"name":"622"},"IRIS2008":"441090103","_l":[47.2119643263761,-1.56130377831266],"LQUARTIER":"Centre Ville","LONGUEUR":15,"ADRESSE":"11 B rue Maréchal de Lattre de Tassigny","LARGEUR":2},"geometry":{"type":"Point","coordinates":[-1.56130377831266,47.2119643263761]}},{"type":"Feature","properties":{"DISQUE_LIVRAISON":"Non","QUARTIER":5,"geo":{"name":"642"},"IRIS2008":"441090509","_l":[47.2243694788358,-1.55269490298751],"LQUARTIER":"Malakoff - Saint-Donatien","LONGUEUR":6,"ADRESSE":"9 bis quai barbusse","LARGEUR":2},"geometry":{"type":"Point","coordinates":[-1.55269490298751,47.2243694788358]}},{"type":"Feature","properties":{"DISQUE_LIVRAISON":"Oui","QUARTIER":1,"geo":{"name":"661"},"IRIS2008":"441090103","_l":[47.2119190078667,-1.55940901068847],"LQUARTIER":"Centre Ville","LONGUEUR":15,"ADRESSE":"En face du 1 quai de la Fosse","LARGEUR":2},"geometry":{"type":"Point","coordinates":[-1.55940901068847,47.2119190078667]}},{"type":"Feature","properties":{"DISQUE_LIVRAISON":"Oui","QUARTIER":1,"geo":{"name":"683"},"IRIS2008":"441090106","_l":[47.2165988428651,-1.55185454180209],"LQUARTIER":"Centre Ville","LONGUEUR":15,"ADRESSE":"15 bis rue de Strasbourg","LARGEUR":1.5},"geometry":{"type":"Point","coordinates":[-1.55185454180209,47.2165988428651]}},{"type":"Feature","properties":{"DISQUE_LIVRAISON":"Non","QUARTIER":1,"geo":{"name":"701"},"IRIS2008":"441090101","_l":[47.2107679482533,-1.56634728895738],"LQUARTIER":"Centre Ville","LONGUEUR":6,"ADRESSE":"1 bis rue d'Alger","LARGEUR":2},"geometry":{"type":"Point","coordinates":[-1.56634728895738,47.2107679482533]}},{"type":"Feature","properties":{"DISQUE_LIVRAISON":"Non","QUARTIER":1,"geo":{"name":"702"},"IRIS2008":"441090101","_l":[47.2113139845983,-1.56774398619032],"LQUARTIER":"Centre Ville","LONGUEUR":5,"ADRESSE":"2 rue d'Alger","LARGEUR":2},"geometry":{"type":"Point","coordinates":[-1.56774398619032,47.2113139845983]}},{"type":"Feature","properties":{"DISQUE_LIVRAISON":"Non","QUARTIER":1,"geo":{"name":"704"},"IRIS2008":"441090101","_l":[47.2097095616254,-1.56859158001749],"LQUARTIER":"Centre Ville","LONGUEUR":6,"ADRESSE":"9 rue Mazagran","LARGEUR":2},"geometry":{"type":"Point","coordinates":[-1.56859158001749,47.2097095616254]}},{"type":"Feature","properties":{"DISQUE_LIVRAISON":"Non","QUARTIER":3,"geo":{"name":"705"},"IRIS2008":"441090312","_l":[47.2094272617838,-1.57028368338693],"LQUARTIER":"Dervallières - Zola","LONGUEUR":5,"ADRESSE":"5 place René Bouhier","LARGEUR":2},"geometry":{"type":"Point","coordinates":[-1.57028368338693,47.2094272617838]}},{"type":"Feature","properties":{"DISQUE_LIVRAISON":"Non","QUARTIER":3,"geo":{"name":"706"},"IRIS2008":"441090311","_l":[47.2089887795157,-1.57225965708874],"LQUARTIER":"Dervallières - Zola","LONGUEUR":5,"ADRESSE":"3 bis rue de la Brasserie","LARGEUR":2},"geometry":{"type":"Point","coordinates":[-1.57225965708874,47.2089887795157]}},{"type":"Feature","properties":{"DISQUE_LIVRAISON":"Non","QUARTIER":1,"geo":{"name":"721"},"IRIS2008":"441090101","_l":[47.2102391172626,-1.57007793245596],"LQUARTIER":"Centre Ville","LONGUEUR":6,"ADRESSE":"16 rue Dobrée","LARGEUR":2},"geometry":{"type":"Point","coordinates":[-1.57007793245596,47.2102391172626]}},{"type":"Feature","properties":{"DISQUE_LIVRAISON":"Non","QUARTIER":3,"geo":{"name":"741"},"IRIS2008":"441090309","_l":[47.2094343166335,-1.57503464206196],"LQUARTIER":"Dervallières - Zola","LONGUEUR":6,"ADRESSE":"rue Dudrezene","LARGEUR":2},"geometry":{"type":"Point","coordinates":[-1.57503464206196,47.2094343166335]}},{"type":"Feature","properties":{"DISQUE_LIVRAISON":"Non","QUARTIER":3,"geo":{"name":"742"},"IRIS2008":"441090309","_l":[47.2108582375866,-1.57613213264927],"LQUARTIER":"Dervallières - Zola","LONGUEUR":5,"ADRESSE":"13 rue Rollin","LARGEUR":2},"geometry":{"type":"Point","coordinates":[-1.57613213264927,47.2108582375866]}},{"type":"Feature","properties":{"DISQUE_LIVRAISON":"Non","QUARTIER":3,"geo":{"name":"743"},"IRIS2008":"441090308","_l":[47.2143739570562,-1.57503673872266],"LQUARTIER":"Dervallières - Zola","LONGUEUR":12,"ADRESSE":"8 place Canclaux","LARGEUR":2},"geometry":{"type":"Point","coordinates":[-1.57503673872266,47.2143739570562]}},{"type":"Feature","properties":{"DISQUE_LIVRAISON":"Non","QUARTIER":1,"geo":{"name":"744"},"IRIS2008":"441090101","_l":[47.2141979082886,-1.56896905809717],"LQUARTIER":"Centre Ville","LONGUEUR":5,"ADRESSE":"1 rue huchette","LARGEUR":2},"geometry":{"type":"Point","coordinates":[-1.56896905809717,47.2141979082886]}},{"type":"Feature","properties":{"DISQUE_LIVRAISON":"Non","QUARTIER":1,"geo":{"name":"745"},"IRIS2008":"441090104","_l":[47.2155573965729,-1.56919851466168],"LQUARTIER":"Centre Ville","LONGUEUR":15,"ADRESSE":"19 rue Colbert","LARGEUR":2},"geometry":{"type":"Point","coordinates":[-1.56919851466168,47.2155573965729]}},{"type":"Feature","properties":{"DISQUE_LIVRAISON":"Non","QUARTIER":1,"geo":{"name":"746"},"IRIS2008":"441090104","_l":[47.2160237492925,-1.5692613251556],"LQUARTIER":"Centre Ville","LONGUEUR":8,"ADRESSE":"En face du 21 rue Colbert","LARGEUR":2},"geometry":{"type":"Point","coordinates":[-1.5692613251556,47.2160237492925]}},{"type":"Feature","properties":{"DISQUE_LIVRAISON":"Non","QUARTIER":4,"geo":{"name":"747"},"IRIS2008":"441090402","_l":[47.2179434679644,-1.56818372633264],"LQUARTIER":"Hauts Pavés - Saint Félix","LONGUEUR":5,"ADRESSE":"En face du 5 rue du 14 juillet","LARGEUR":2},"geometry":{"type":"Point","coordinates":[-1.56818372633264,47.2179434679644]}},{"type":"Feature","properties":{"DISQUE_LIVRAISON":"Non","QUARTIER":4,"geo":{"name":"748"},"IRIS2008":"441090402","_l":[47.219065083042,-1.56928185932754],"LQUARTIER":"Hauts Pavés - Saint Félix","LONGUEUR":18,"ADRESSE":"56 rue de la Bastille","LARGEUR":2},"geometry":{"type":"Point","coordinates":[-1.56928185932754,47.219065083042]}},{"type":"Feature","properties":{"DISQUE_LIVRAISON":"Non","QUARTIER":4,"geo":{"name":"749"},"IRIS2008":"441090402","_l":[47.2190910303189,-1.56961242050764],"LQUARTIER":"Hauts Pavés - Saint Félix","LONGUEUR":5,"ADRESSE":"39 rue de la Bastille","LARGEUR":2},"geometry":{"type":"Point","coordinates":[-1.56961242050764,47.2190910303189]}},{"type":"Feature","properties":{"DISQUE_LIVRAISON":"Non","QUARTIER":4,"geo":{"name":"761"},"IRIS2008":"441090402","_l":[47.2209145643037,-1.57027717144511],"LQUARTIER":"Hauts Pavés - Saint Félix","LONGUEUR":10,"ADRESSE":"3 place Sarradin","LARGEUR":5},"geometry":{"type":"Point","coordinates":[-1.57027717144511,47.2209145643037]}},{"type":"Feature","properties":{"DISQUE_LIVRAISON":"Non","QUARTIER":4,"geo":{"name":"762"},"IRIS2008":"441090403","_l":[47.2219181841531,-1.56462194754352],"LQUARTIER":"Hauts Pavés - Saint Félix","LONGUEUR":5,"ADRESSE":"13 rue d'Auvours","LARGEUR":2},"geometry":{"type":"Point","coordinates":[-1.56462194754352,47.2219181841531]}},{"type":"Feature","properties":{"DISQUE_LIVRAISON":"Non","QUARTIER":4,"geo":{"name":"763"},"IRIS2008":"441090403","_l":[47.2210913758748,-1.56441626502523],"LQUARTIER":"Hauts Pavés - Saint Félix","LONGUEUR":8,"ADRESSE":"2 rue Bergère","LARGEUR":2},"geometry":{"type":"Point","coordinates":[-1.56441626502523,47.2210913758748]}},{"type":"Feature","properties":{"DISQUE_LIVRAISON":"Non","QUARTIER":4,"geo":{"name":"764"},"IRIS2008":"441090403","_l":[47.2208250337909,-1.56350472629828],"LQUARTIER":"Hauts Pavés - Saint Félix","LONGUEUR":18,"ADRESSE":"3 rue Félibien","LARGEUR":2},"geometry":{"type":"Point","coordinates":[-1.56350472629828,47.2208250337909]}},{"type":"Feature","properties":{"DISQUE_LIVRAISON":"Non","QUARTIER":4,"geo":{"name":"765"},"IRIS2008":"441090403","_l":[47.2201248431273,-1.55943238626575],"LQUARTIER":"Hauts Pavés - Saint Félix","LONGUEUR":5,"ADRESSE":"1 rue Sarrazin","LARGEUR":2},"geometry":{"type":"Point","coordinates":[-1.55943238626575,47.2201248431273]}},{"type":"Feature","properties":{"DISQUE_LIVRAISON":"Non","QUARTIER":4,"geo":{"name":"766"},"IRIS2008":"441090404","_l":[47.2219087616187,-1.56133139850374],"LQUARTIER":"Hauts Pavés - Saint Félix","LONGUEUR":5,"ADRESSE":"20 rue Bodiguel","LARGEUR":2},"geometry":{"type":"Point","coordinates":[-1.56133139850374,47.2219087616187]}},{"type":"Feature","properties":{"DISQUE_LIVRAISON":"Non","QUARTIER":4,"geo":{"name":"767"},"IRIS2008":"441090403","_l":[47.2219750753836,-1.56269640298928],"LQUARTIER":"Hauts Pavés - Saint Félix","LONGUEUR":18,"ADRESSE":"1 rue des Hauts Pavés","LARGEUR":2},"geometry":{"type":"Point","coordinates":[-1.56269640298928,47.2219750753836]}},{"type":"Feature","properties":{"DISQUE_LIVRAISON":"Non","QUARTIER":4,"geo":{"name":"768"},"IRIS2008":"441090404","_l":[47.2226129515452,-1.56311852705026],"LQUARTIER":"Hauts Pavés - Saint Félix","LONGUEUR":10,"ADRESSE":"10 bis rue des Hauts Pavés","LARGEUR":2},"geometry":{"type":"Point","coordinates":[-1.56311852705026,47.2226129515452]}},{"type":"Feature","properties":{"DISQUE_LIVRAISON":"Non","QUARTIER":4,"geo":{"name":"769"},"IRIS2008":"441090405","_l":[47.2233608412951,-1.56367440065772],"LQUARTIER":"Hauts Pavés - Saint Félix","LONGUEUR":12,"ADRESSE":"26 rue des Hauts Pavés","LARGEUR":2},"geometry":{"type":"Point","coordinates":[-1.56367440065772,47.2233608412951]}},{"type":"Feature","properties":{"DISQUE_LIVRAISON":"Non","QUARTIER":4,"geo":{"name":"770"},"IRIS2008":"441090405","_l":[47.2235441518372,-1.56383771873512],"LQUARTIER":"Hauts Pavés - Saint Félix","LONGUEUR":5,"ADRESSE":"28 rue des Hauts Pavés","LARGEUR":2},"geometry":{"type":"Point","coordinates":[-1.56383771873512,47.2235441518372]}},{"type":"Feature","properties":{"DISQUE_LIVRAISON":"Non","QUARTIER":4,"geo":{"name":"771"},"IRIS2008":"441090404","_l":[47.2227572179622,-1.5592484005698],"LQUARTIER":"Hauts Pavés - Saint Félix","LONGUEUR":8,"ADRESSE":"39 rue de Bel Air","LARGEUR":2},"geometry":{"type":"Point","coordinates":[-1.5592484005698,47.2227572179622]}},{"type":"Feature","properties":{"DISQUE_LIVRAISON":"Non","QUARTIER":4,"geo":{"name":"772"},"IRIS2008":"441090404","_l":[47.2238666775863,-1.55921254226065],"LQUARTIER":"Hauts Pavés - Saint Félix","LONGUEUR":6,"ADRESSE":"57 rue de Bel Air","LARGEUR":2},"geometry":{"type":"Point","coordinates":[-1.55921254226065,47.2238666775863]}},{"type":"Feature","properties":{"DISQUE_LIVRAISON":"Non","QUARTIER":4,"geo":{"name":"773"},"IRIS2008":"441090404","_l":[47.224467030782,-1.55918808840844],"LQUARTIER":"Hauts Pavés - Saint Félix","LONGUEUR":5,"ADRESSE":"Face au 50 rue de Bel Air","LARGEUR":2},"geometry":{"type":"Point","coordinates":[-1.55918808840844,47.224467030782]}},{"type":"Feature","properties":{"DISQUE_LIVRAISON":"Non","QUARTIER":1,"geo":{"name":"781"},"IRIS2008":"441090101","_l":[47.2120665545725,-1.57129714469619],"LQUARTIER":"Centre Ville","LONGUEUR":6,"ADRESSE":"14 bis rue Lamoricière","LARGEUR":2},"geometry":{"type":"Point","coordinates":[-1.57129714469619,47.2120665545725]}},{"type":"Feature","properties":{"DISQUE_LIVRAISON":"Non","QUARTIER":3,"geo":{"name":"782"},"IRIS2008":"441090312","_l":[47.210082611599,-1.5707070763765],"LQUARTIER":"Dervallières - Zola","LONGUEUR":9,"ADRESSE":"1 rue Lamoricière","LARGEUR":2},"geometry":{"type":"Point","coordinates":[-1.5707070763765,47.210082611599]}},{"type":"Feature","properties":{"DISQUE_LIVRAISON":"Non","QUARTIER":1,"geo":{"name":"783"},"IRIS2008":"441090101","_l":[47.2100972579896,-1.5705794263575],"LQUARTIER":"Centre Ville","LONGUEUR":5,"ADRESSE":"2 rue Lamoricière","LARGEUR":2},"geometry":{"type":"Point","coordinates":[-1.5705794263575,47.2100972579896]}},{"type":"Feature","properties":{"DISQUE_LIVRAISON":"Non","QUARTIER":3,"geo":{"name":"784"},"IRIS2008":"441090308","_l":[47.2124362415641,-1.57226307209995],"LQUARTIER":"Dervallières - Zola","LONGUEUR":6,"ADRESSE":"1 rue Catinat","LARGEUR":2},"geometry":{"type":"Point","coordinates":[-1.57226307209995,47.2124362415641]}},{"type":"Feature","properties":{"DISQUE_LIVRAISON":"Non","QUARTIER":1,"geo":{"name":"785"},"IRIS2008":"441090101","_l":[47.211849961957,-1.56855390953465],"LQUARTIER":"Centre Ville","LONGUEUR":12,"ADRESSE":"3 bis rue Désiré Colombe","LARGEUR":2},"geometry":{"type":"Point","coordinates":[-1.56855390953465,47.211849961957]}},{"type":"Feature","properties":{"DISQUE_LIVRAISON":"Non","QUARTIER":4,"geo":{"name":"786"},"IRIS2008":"441090404","_l":[47.2222942168053,-1.56039917000687],"LQUARTIER":"Hauts Pavés - Saint Félix","LONGUEUR":25,"ADRESSE":"12 rue de Savenay","LARGEUR":2},"geometry":{"type":"Point","coordinates":[-1.56039917000687,47.2222942168053]}},{"type":"Feature","properties":{"DISQUE_LIVRAISON":"Non","QUARTIER":4,"geo":{"name":"787"},"IRIS2008":"441090404","_l":[47.2223772502989,-1.56148366964238],"LQUARTIER":"Hauts Pavés - Saint Félix","LONGUEUR":10,"ADRESSE":"29 rue de Savenay","LARGEUR":2},"geometry":{"type":"Point","coordinates":[-1.56148366964238,47.2223772502989]}},{"type":"Feature","properties":{"DISQUE_LIVRAISON":"Non","QUARTIER":4,"geo":{"name":"788"},"IRIS2008":"441090404","_l":[47.2238193052733,-1.55551318139397],"LQUARTIER":"Hauts Pavés - Saint Félix","LONGUEUR":8,"ADRESSE":"17 rue de la Distillerie","LARGEUR":2},"geometry":{"type":"Point","coordinates":[-1.55551318139397,47.2238193052733]}},{"type":"Feature","properties":{"DISQUE_LIVRAISON":"Non","QUARTIER":5,"geo":{"name":"801"},"IRIS2008":"441090509","_l":[47.2234913665972,-1.55043021537221],"LQUARTIER":"Malakoff - Saint-Donatien","LONGUEUR":10,"ADRESSE":"12 allée de la Reine Margot","LARGEUR":2},"geometry":{"type":"Point","coordinates":[-1.55043021537221,47.2234913665972]}},{"type":"Feature","properties":{"DISQUE_LIVRAISON":"Non","QUARTIER":5,"geo":{"name":"802"},"IRIS2008":"441090509","_l":[47.2246472192486,-1.5491403153556],"LQUARTIER":"Malakoff - Saint-Donatien","LONGUEUR":10,"ADRESSE":"Face au 20 bis rue Monfoulon","LARGEUR":2},"geometry":{"type":"Point","coordinates":[-1.5491403153556,47.2246472192486]}},{"type":"Feature","properties":{"DISQUE_LIVRAISON":"Non","QUARTIER":5,"geo":{"name":"803"},"IRIS2008":"441090509","_l":[47.2264914145018,-1.54910307153923],"LQUARTIER":"Malakoff - Saint-Donatien","LONGUEUR":18,"ADRESSE":"Face au 21 rue Général Margueritte","LARGEUR":2},"geometry":{"type":"Point","coordinates":[-1.54910307153923,47.2264914145018]}},{"type":"Feature","properties":{"DISQUE_LIVRAISON":"Non","QUARTIER":5,"geo":{"name":"804"},"IRIS2008":"441090509","_l":[47.2271467528458,-1.55277256344384],"LQUARTIER":"Malakoff - Saint-Donatien","LONGUEUR":15,"ADRESSE":"1 place Waldeck Rousseau","LARGEUR":2},"geometry":{"type":"Point","coordinates":[-1.55277256344384,47.2271467528458]}},{"type":"Feature","properties":{"DISQUE_LIVRAISON":"Non","QUARTIER":5,"geo":{"name":"805"},"IRIS2008":"441090504","_l":[47.2197079904665,-1.53345405441728],"LQUARTIER":"Malakoff - Saint-Donatien","LONGUEUR":5,"ADRESSE":"3 bd Stalingrad","LARGEUR":2},"geometry":{"type":"Point","coordinates":[-1.53345405441728,47.2197079904665]}},{"type":"Feature","properties":{"DISQUE_LIVRAISON":"Non","QUARTIER":5,"geo":{"name":"806"},"IRIS2008":"441090505","_l":[47.219192243533,-1.53602938285125],"LQUARTIER":"Malakoff - Saint-Donatien","LONGUEUR":15,"ADRESSE":"11 bd de Stalingrad","LARGEUR":2},"geometry":{"type":"Point","coordinates":[-1.53602938285125,47.219192243533]}},{"type":"Feature","properties":{"DISQUE_LIVRAISON":"Non","QUARTIER":6,"geo":{"name":"821"},"IRIS2008":"441090602","_l":[47.2077328715427,-1.56413017243914],"LQUARTIER":"Ile de Nantes","LONGUEUR":6,"ADRESSE":"1 rue Julien Videment","LARGEUR":2},"geometry":{"type":"Point","coordinates":[-1.56413017243914,47.2077328715427]}},{"type":"Feature","properties":{"DISQUE_LIVRAISON":"Non","QUARTIER":6,"geo":{"name":"822"},"IRIS2008":"441090602","_l":[47.2073637924455,-1.56408964771507],"LQUARTIER":"Ile de Nantes","LONGUEUR":8,"ADRESSE":"rue Soudeac","LARGEUR":2},"geometry":{"type":"Point","coordinates":[-1.56408964771507,47.2073637924455]}},{"type":"Feature","properties":{"DISQUE_LIVRAISON":"Non","QUARTIER":6,"geo":{"name":"823"},"IRIS2008":"441090601","_l":[47.2049589716103,-1.55647519786394],"LQUARTIER":"Ile de Nantes","LONGUEUR":5,"ADRESSE":"14 rue Barbe Torte","LARGEUR":2},"geometry":{"type":"Point","coordinates":[-1.55647519786394,47.2049589716103]}},{"type":"Feature","properties":{"DISQUE_LIVRAISON":"Non","QUARTIER":6,"geo":{"name":"824"},"IRIS2008":"441090602","_l":[47.2054685035508,-1.55944374889517],"LQUARTIER":"Ile de Nantes","LONGUEUR":8,"ADRESSE":"16 rue Pierre Landais","LARGEUR":2},"geometry":{"type":"Point","coordinates":[-1.55944374889517,47.2054685035508]}},{"type":"Feature","properties":{"DISQUE_LIVRAISON":"Non","QUARTIER":6,"geo":{"name":"825"},"IRIS2008":"441090602","_l":[47.2067302018561,-1.55490202075086],"LQUARTIER":"Ile de Nantes","LONGUEUR":5,"ADRESSE":"5 rue Louis Blanc","LARGEUR":2},"geometry":{"type":"Point","coordinates":[-1.55490202075086,47.2067302018561]}},{"type":"Feature","properties":{"DISQUE_LIVRAISON":"Non","QUARTIER":6,"geo":{"name":"826"},"IRIS2008":"441090602","_l":[47.205955243837,-1.55484113855767],"LQUARTIER":"Ile de Nantes","LONGUEUR":5,"ADRESSE":"26 rue Louis Blanc","LARGEUR":2},"geometry":{"type":"Point","coordinates":[-1.55484113855767,47.205955243837]}},{"type":"Feature","properties":{"DISQUE_LIVRAISON":"Non","QUARTIER":6,"geo":{"name":"827"},"IRIS2008":"441090602","_l":[47.2072180312339,-1.55448169841369],"LQUARTIER":"Ile de Nantes","LONGUEUR":25,"ADRESSE":"9 quai André Rhuys","LARGEUR":2},"geometry":{"type":"Point","coordinates":[-1.55448169841369,47.2072180312339]}},{"type":"Feature","properties":{"DISQUE_LIVRAISON":"Non","QUARTIER":6,"geo":{"name":"828"},"IRIS2008":"441090602","_l":[47.2071172798079,-1.55786174241874],"LQUARTIER":"Ile de Nantes","LONGUEUR":12,"ADRESSE":"place des Erables","LARGEUR":3},"geometry":{"type":"Point","coordinates":[-1.55786174241874,47.2071172798079]}},{"type":"Feature","properties":{"DISQUE_LIVRAISON":"Non","QUARTIER":6,"geo":{"name":"829"},"IRIS2008":"441090604","_l":[47.2100523075648,-1.53709135968966],"LQUARTIER":"Ile de Nantes","LONGUEUR":55,"ADRESSE":"5 promenade José Arribas","LARGEUR":4},"geometry":{"type":"Point","coordinates":[-1.53709135968966,47.2100523075648]}},{"type":"Feature","properties":{"DISQUE_LIVRAISON":"Non","QUARTIER":6,"geo":{"name":"841"},"IRIS2008":"441090602","_l":[47.2066184020917,-1.5621485881622],"LQUARTIER":"Ile de Nantes","LONGUEUR":6,"ADRESSE":"Face au 3 rue Arthur III","LARGEUR":2},"geometry":{"type":"Point","coordinates":[-1.5621485881622,47.2066184020917]}},{"type":"Feature","properties":{"DISQUE_LIVRAISON":"Non","QUARTIER":6,"geo":{"name":"842"},"IRIS2008":"441090601","_l":[47.2051109731627,-1.55619098573459],"LQUARTIER":"Ile de Nantes","LONGUEUR":5,"ADRESSE":"9 bd de la Prairie au Duc","LARGEUR":2},"geometry":{"type":"Point","coordinates":[-1.55619098573459,47.2051109731627]}},{"type":"Feature","properties":{"DISQUE_LIVRAISON":"Non","QUARTIER":6,"geo":{"name":"843"},"IRIS2008":"441090602","_l":[47.2049580435459,-1.55827398352309],"LQUARTIER":"Ile de Nantes","LONGUEUR":5,"ADRESSE":"32 bd de la Prairie au Duc","LARGEUR":2},"geometry":{"type":"Point","coordinates":[-1.55827398352309,47.2049580435459]}},{"type":"Feature","properties":{"DISQUE_LIVRAISON":"Non","QUARTIER":6,"geo":{"name":"844"},"IRIS2008":"441090601","_l":[47.2049415147756,-1.55769436170565],"LQUARTIER":"Ile de Nantes","LONGUEUR":5,"ADRESSE":"17 bd de la Prairie au Duc","LARGEUR":2},"geometry":{"type":"Point","coordinates":[-1.55769436170565,47.2049415147756]}},{"type":"Feature","properties":{"DISQUE_LIVRAISON":"Non","QUARTIER":6,"geo":{"name":"845"},"IRIS2008":"441090601","_l":[47.2049116463168,-1.55799805418159],"LQUARTIER":"Ile de Nantes","LONGUEUR":6,"ADRESSE":"21 bd de la Prairie au Duc","LARGEUR":2},"geometry":{"type":"Point","coordinates":[-1.55799805418159,47.2049116463168]}},{"type":"Feature","properties":{"DISQUE_LIVRAISON":"Non","QUARTIER":6,"geo":{"name":"846"},"IRIS2008":"441090602","_l":[47.2072571671308,-1.55879107111612],"LQUARTIER":"Ile de Nantes","LONGUEUR":10,"ADRESSE":"12 rue Lanoue Bras de Fer","LARGEUR":2},"geometry":{"type":"Point","coordinates":[-1.55879107111612,47.2072571671308]}},{"type":"Feature","properties":{"DISQUE_LIVRAISON":"Non","QUARTIER":3,"geo":{"name":"861"},"IRIS2008":"441090312","_l":[47.2084452114643,-1.5693609683627],"LQUARTIER":"Dervallières - Zola","LONGUEUR":5,"ADRESSE":"87 quai de la Fosse","LARGEUR":2},"geometry":{"type":"Point","coordinates":[-1.5693609683627,47.2084452114643]}},{"type":"Feature","properties":{"DISQUE_LIVRAISON":"Non","QUARTIER":6,"geo":{"name":"862"},"IRIS2008":"441090602","_l":[47.2056731351931,-1.55142881659273],"LQUARTIER":"Ile de Nantes","LONGUEUR":10,"ADRESSE":"24 bd Babib Chevaye","LARGEUR":2},"geometry":{"type":"Point","coordinates":[-1.55142881659273,47.2056731351931]}},{"type":"Feature","properties":{"DISQUE_LIVRAISON":"Non","QUARTIER":6,"geo":{"name":"863"},"IRIS2008":"441090602","_l":[47.2055900622551,-1.55141369741546],"LQUARTIER":"Ile de Nantes","LONGUEUR":5,"ADRESSE":"1 bd Babin Chevaye","LARGEUR":2},"geometry":{"type":"Point","coordinates":[-1.55141369741546,47.2055900622551]}},{"type":"Feature","properties":{"DISQUE_LIVRAISON":"Non","QUARTIER":6,"geo":{"name":"864"},"IRIS2008":"441090602","_l":[47.2053390250264,-1.55383785579842],"LQUARTIER":"Ile de Nantes","LONGUEUR":5,"ADRESSE":"33 bd Babin Chevaye","LARGEUR":2},"geometry":{"type":"Point","coordinates":[-1.55383785579842,47.2053390250264]}},{"type":"Feature","properties":{"DISQUE_LIVRAISON":"Non","QUARTIER":6,"geo":{"name":"881"},"IRIS2008":"441090604","_l":[47.2077239417664,-1.53949858762311],"LQUARTIER":"Ile de Nantes","LONGUEUR":18,"ADRESSE":"10 rue Konrad Adenauer","LARGEUR":4},"geometry":{"type":"Point","coordinates":[-1.53949858762311,47.2077239417664]}},{"type":"Feature","properties":{"DISQUE_LIVRAISON":"Non","QUARTIER":6,"geo":{"name":"882"},"IRIS2008":"441090604","_l":[47.207939219241,-1.53889636185021],"LQUARTIER":"Ile de Nantes","LONGUEUR":18,"ADRESSE":"6 rue Konrad Adenauer","LARGEUR":4},"geometry":{"type":"Point","coordinates":[-1.53889636185021,47.207939219241]}},{"type":"Feature","properties":{"DISQUE_LIVRAISON":"Non","QUARTIER":6,"geo":{"name":"883"},"IRIS2008":"441090604","_l":[47.2087750894423,-1.53751377870168],"LQUARTIER":"Ile de Nantes","LONGUEUR":8,"ADRESSE":"rue Konrad Adenauer","LARGEUR":2},"geometry":{"type":"Point","coordinates":[-1.53751377870168,47.2087750894423]}},{"type":"Feature","properties":{"DISQUE_LIVRAISON":"Non","QUARTIER":3,"geo":{"name":"901"},"IRIS2008":"441090309","_l":[47.2091309109942,-1.57497461108452],"LQUARTIER":"Dervallières - Zola","LONGUEUR":12,"ADRESSE":"6 rue Daubenton","LARGEUR":2},"geometry":{"type":"Point","coordinates":[-1.57497461108452,47.2091309109942]}},{"type":"Feature","properties":{"DISQUE_LIVRAISON":"Non","QUARTIER":5,"geo":{"name":"921"},"IRIS2008":"441090507","_l":[47.2164179181878,-1.53472759340611],"LQUARTIER":"Malakoff - Saint-Donatien","LONGUEUR":13,"ADRESSE":"13 bd de Berlin","LARGEUR":2.5},"geometry":{"type":"Point","coordinates":[-1.53472759340611,47.2164179181878]}},{"type":"Feature","properties":{"DISQUE_LIVRAISON":"Non","QUARTIER":1,"geo":{"name":"941"},"IRIS2008":"441090108","_l":[47.2131408720956,-1.55060379808668],"LQUARTIER":"Centre Ville","LONGUEUR":9,"ADRESSE":"1 rue des Olivettes","LARGEUR":2},"geometry":{"type":"Point","coordinates":[-1.55060379808668,47.2131408720956]}},{"type":"Feature","properties":{"DISQUE_LIVRAISON":"Non","QUARTIER":1,"geo":{"name":"942"},"IRIS2008":"441090109","_l":[47.2121554620257,-1.54668418791713],"LQUARTIER":"Centre Ville","LONGUEUR":14,"ADRESSE":"19 rue Fouré","LARGEUR":2},"geometry":{"type":"Point","coordinates":[-1.54668418791713,47.2121554620257]}},{"type":"Feature","properties":{"DISQUE_LIVRAISON":"Non","QUARTIER":1,"geo":{"name":"943"},"IRIS2008":"441090108","_l":[47.2115825631271,-1.54690460628745],"LQUARTIER":"Centre Ville","LONGUEUR":10,"ADRESSE":"40 rue Fouré","LARGEUR":2},"geometry":{"type":"Point","coordinates":[-1.54690460628745,47.2115825631271]}},{"type":"Feature","properties":{"DISQUE_LIVRAISON":"Non","QUARTIER":6,"geo":{"name":"961"},"IRIS2008":"441090601","_l":[47.2048507682037,-1.55387353634636],"LQUARTIER":"Ile de Nantes","LONGUEUR":10,"ADRESSE":"4 bd Victor Hugo","LARGEUR":2},"geometry":{"type":"Point","coordinates":[-1.55387353634636,47.2048507682037]}},{"type":"Feature","properties":{"DISQUE_LIVRAISON":"Non","QUARTIER":6,"geo":{"name":"962"},"IRIS2008":"441090602","_l":[47.204577307758,-1.55301783874226],"LQUARTIER":"Ile de Nantes","LONGUEUR":10,"ADRESSE":"13 bd Victor Hugo","LARGEUR":2},"geometry":{"type":"Point","coordinates":[-1.55301783874226,47.204577307758]}},{"type":"Feature","properties":{"DISQUE_LIVRAISON":"Non","QUARTIER":6,"geo":{"name":"963"},"IRIS2008":"441090601","_l":[47.2041182779914,-1.55240153367794],"LQUARTIER":"Ile de Nantes","LONGUEUR":5,"ADRESSE":"18 bd Victor Hugo","LARGEUR":2},"geometry":{"type":"Point","coordinates":[-1.55240153367794,47.2041182779914]}},{"type":"Feature","properties":{"DISQUE_LIVRAISON":"Non","QUARTIER":6,"geo":{"name":"964"},"IRIS2008":"441090601","_l":[47.2040113579476,-1.55217572758689],"LQUARTIER":"Ile de Nantes","LONGUEUR":5,"ADRESSE":"20 bd Victor Hugo","LARGEUR":2},"geometry":{"type":"Point","coordinates":[-1.55217572758689,47.2040113579476]}},{"type":"Feature","properties":{"DISQUE_LIVRAISON":"Non","QUARTIER":6,"geo":{"name":"965"},"IRIS2008":"441090602","_l":[47.2030088572058,-1.54983625542543],"LQUARTIER":"Ile de Nantes","LONGUEUR":5,"ADRESSE":"37 bd Victor Hugo","LARGEUR":2},"geometry":{"type":"Point","coordinates":[-1.54983625542543,47.2030088572058]}},{"type":"Feature","properties":{"DISQUE_LIVRAISON":"Non","QUARTIER":6,"geo":{"name":"966"},"IRIS2008":"441090602","_l":[47.2022660101256,-1.54833332838758],"LQUARTIER":"Ile de Nantes","LONGUEUR":10,"ADRESSE":"57 bd Victor Hugo","LARGEUR":2},"geometry":{"type":"Point","coordinates":[-1.54833332838758,47.2022660101256]}},{"type":"Feature","properties":{"DISQUE_LIVRAISON":"Oui","QUARTIER":5,"geo":{"name":"221"},"IRIS2008":"441090508","_l":[47.2176581249333,-1.5439680822338],"LQUARTIER":"Malakoff - Saint-Donatien","LONGUEUR":21.8,"ADRESSE":"5 allee commandant charcot","LARGEUR":1.75},"geometry":{"type":"Point","coordinates":[-1.5439680822338,47.2176581249333]}},{"type":"Feature","properties":{"DISQUE_LIVRAISON":"Oui","QUARTIER":4,"geo":{"name":"222"},"IRIS2008":"441090408","_l":[47.2256329031364,-1.55955926407599],"LQUARTIER":"Hauts Pavés - Saint Félix","LONGUEUR":5,"ADRESSE":"75 rue Paul Bellamy","LARGEUR":2.5},"geometry":{"type":"Point","coordinates":[-1.55955926407599,47.2256329031364]}},{"type":"Feature","properties":{"DISQUE_LIVRAISON":"Oui","QUARTIER":4,"geo":{"name":"223"},"IRIS2008":"441090408","_l":[47.2263539087276,-1.56017829638318],"LQUARTIER":"Hauts Pavés - Saint Félix","LONGUEUR":8.5,"ADRESSE":"93 rue paul bellamy","LARGEUR":2.15},"geometry":{"type":"Point","coordinates":[-1.56017829638318,47.2263539087276]}},{"type":"Feature","properties":{"DISQUE_LIVRAISON":"Oui","QUARTIER":3,"geo":{"name":"224"},"IRIS2008":"441090308","_l":[47.2146653572973,-1.5738691727474],"LQUARTIER":"Dervallières - Zola","LONGUEUR":12,"ADRESSE":"46 rue de gigant","LARGEUR":2},"geometry":{"type":"Point","coordinates":[-1.5738691727474,47.2146653572973]}},{"type":"Feature","properties":{"DISQUE_LIVRAISON":"Non","QUARTIER":1,"geo":{"name":"225"},"IRIS2008":"441090109","_l":[47.2135119596289,-1.54412329709608],"LQUARTIER":"Centre Ville","LONGUEUR":9.15,"ADRESSE":"cite des congres","LARGEUR":3.5},"geometry":{"type":"Point","coordinates":[-1.54412329709608,47.2135119596289]}},{"type":"Feature","properties":{"DISQUE_LIVRAISON":"Oui","QUARTIER":1,"geo":{"name":"226"},"IRIS2008":"441090103","_l":[47.2138654825499,-1.55610081543328],"LQUARTIER":"Centre Ville","LONGUEUR":31.2,"ADRESSE":"4 allee brancas","LARGEUR":3},"geometry":{"type":"Point","coordinates":[-1.55610081543328,47.2138654825499]}},{"type":"Feature","properties":{"DISQUE_LIVRAISON":"Oui","QUARTIER":1,"geo":{"name":"227"},"IRIS2008":"441090103","_l":[47.2137719931102,-1.55636358481374],"LQUARTIER":"Centre Ville","LONGUEUR":14.3,"ADRESSE":"6 allee brancas","LARGEUR":3},"geometry":{"type":"Point","coordinates":[-1.55636358481374,47.2137719931102]}},{"type":"Feature","properties":{"DISQUE_LIVRAISON":"Oui","QUARTIER":1,"geo":{"name":"228"},"IRIS2008":"441090103","_l":[47.2136917562016,-1.55653948031697],"LQUARTIER":"Centre Ville","LONGUEUR":8.8,"ADRESSE":"8 allee brancas","LARGEUR":2.75},"geometry":{"type":"Point","coordinates":[-1.55653948031697,47.2136917562016]}},{"type":"Feature","properties":{"DISQUE_LIVRAISON":"Oui","QUARTIER":4,"geo":{"name":"229"},"IRIS2008":"441090404","_l":[47.2215146236807,-1.55500778789393],"LQUARTIER":"Hauts Pavés - Saint Félix","LONGUEUR":6.5,"ADRESSE":"5 rue de chateaubriant","LARGEUR":2},"geometry":{"type":"Point","coordinates":[-1.55500778789393,47.2215146236807]}},{"type":"Feature","properties":{"DISQUE_LIVRAISON":"Non","QUARTIER":4,"geo":{"name":"230"},"IRIS2008":"441090404","_l":[47.2229174973602,-1.55349363865034],"LQUARTIER":"Hauts Pavés - Saint Félix","LONGUEUR":15,"ADRESSE":"place chateaubriant","LARGEUR":4},"geometry":{"type":"Point","coordinates":[-1.55349363865034,47.2229174973602]}},{"type":"Feature","properties":{"DISQUE_LIVRAISON":"Oui","QUARTIER":4,"geo":{"name":"231"},"IRIS2008":"441090404","_l":[47.2208153874085,-1.55481304770462],"LQUARTIER":"Hauts Pavés - Saint Félix","LONGUEUR":12.5,"ADRESSE":"2 quai de versailles","LARGEUR":2.2},"geometry":{"type":"Point","coordinates":[-1.55481304770462,47.2208153874085]}},{"type":"Feature","properties":{"DISQUE_LIVRAISON":"Oui","QUARTIER":1,"geo":{"name":"232"},"IRIS2008":"441090106","_l":[47.2205721948465,-1.55345795069356],"LQUARTIER":"Centre Ville","LONGUEUR":19.7,"ADRESSE":"5 quai ceineray","LARGEUR":2},"geometry":{"type":"Point","coordinates":[-1.55345795069356,47.2205721948465]}},{"type":"Feature","properties":{"DISQUE_LIVRAISON":"Oui","QUARTIER":1,"geo":{"name":"233"},"IRIS2008":"441090106","_l":[47.2210848353729,-1.55165947738347],"LQUARTIER":"Centre Ville","LONGUEUR":7.1,"ADRESSE":"7 rue tournefort","LARGEUR":1.7},"geometry":{"type":"Point","coordinates":[-1.55165947738347,47.2210848353729]}},{"type":"Feature","properties":{"DISQUE_LIVRAISON":"Oui","QUARTIER":1,"geo":{"name":"234"},"IRIS2008":"441090106","_l":[47.220837452429,-1.55155971258488],"LQUARTIER":"Centre Ville","LONGUEUR":9.5,"ADRESSE":"1 rue d argentre","LARGEUR":1.9},"geometry":{"type":"Point","coordinates":[-1.55155971258488,47.220837452429]}},{"type":"Feature","properties":{"DISQUE_LIVRAISON":"Oui","QUARTIER":1,"geo":{"name":"235"},"IRIS2008":"441090106","_l":[47.2186007702759,-1.55099584637066],"LQUARTIER":"Centre Ville","LONGUEUR":5.5,"ADRESSE":"2 rue du roi albert","LARGEUR":1.9},"geometry":{"type":"Point","coordinates":[-1.55099584637066,47.2186007702759]}},{"type":"Feature","properties":{"DISQUE_LIVRAISON":"Oui","QUARTIER":1,"geo":{"name":"236"},"IRIS2008":"441090106","_l":[47.2205401373089,-1.55220605785471],"LQUARTIER":"Centre Ville","LONGUEUR":5.1,"ADRESSE":"rue d argentre [angle place salegro]","LARGEUR":1.9},"geometry":{"type":"Point","coordinates":[-1.55220605785471,47.2205401373089]}},{"type":"Feature","properties":{"DISQUE_LIVRAISON":"Oui","QUARTIER":5,"geo":{"name":"237"},"IRIS2008":"441090508","_l":[47.2173484017706,-1.54758805492283],"LQUARTIER":"Malakoff - Saint-Donatien","LONGUEUR":9.3,"ADRESSE":"5 rue henri 4","LARGEUR":2},"geometry":{"type":"Point","coordinates":[-1.54758805492283,47.2173484017706]}},{"type":"Feature","properties":{"DISQUE_LIVRAISON":"Oui","QUARTIER":1,"geo":{"name":"239"},"IRIS2008":"441090106","_l":[47.2190413254357,-1.55414788266664],"LQUARTIER":"Centre Ville","LONGUEUR":5.1,"ADRESSE":"en face 1 rue d enfer","LARGEUR":1.85},"geometry":{"type":"Point","coordinates":[-1.55414788266664,47.2190413254357]}},{"type":"Feature","properties":{"DISQUE_LIVRAISON":"Oui","QUARTIER":1,"geo":{"name":"240"},"IRIS2008":"441090106","_l":[47.2197474171091,-1.55453697494512],"LQUARTIER":"Centre Ville","LONGUEUR":6.7,"ADRESSE":"place du port communeau","LARGEUR":2.6},"geometry":{"type":"Point","coordinates":[-1.55453697494512,47.2197474171091]}},{"type":"Feature","properties":{"DISQUE_LIVRAISON":"Oui","QUARTIER":1,"geo":{"name":"241"},"IRIS2008":"441090106","_l":[47.21979915358,-1.55441048106733],"LQUARTIER":"Centre Ville","LONGUEUR":10.5,"ADRESSE":"place du port communeau","LARGEUR":2.05},"geometry":{"type":"Point","coordinates":[-1.55441048106733,47.21979915358]}},{"type":"Feature","properties":{"DISQUE_LIVRAISON":"Oui","QUARTIER":1,"geo":{"name":"242"},"IRIS2008":"441090106","_l":[47.2170587114443,-1.55220146127749],"LQUARTIER":"Centre Ville","LONGUEUR":9.6,"ADRESSE":"en face le 26 rue de strasbourg","LARGEUR":1.8},"geometry":{"type":"Point","coordinates":[-1.55220146127749,47.2170587114443]}},{"type":"Feature","properties":{"DISQUE_LIVRAISON":"Oui","QUARTIER":1,"geo":{"name":"243"},"IRIS2008":"441090106","_l":[47.2166129895205,-1.55167988657715],"LQUARTIER":"Centre Ville","LONGUEUR":7.2,"ADRESSE":"place tirant lo blanc","LARGEUR":2.1},"geometry":{"type":"Point","coordinates":[-1.55167988657715,47.2166129895205]}},{"type":"Feature","properties":{"DISQUE_LIVRAISON":"Oui","QUARTIER":1,"geo":{"name":"244"},"IRIS2008":"441090106","_l":[47.2162257352627,-1.55147455465792],"LQUARTIER":"Centre Ville","LONGUEUR":10,"ADRESSE":"13 rue de strasbourg","LARGEUR":1.9},"geometry":{"type":"Point","coordinates":[-1.55147455465792,47.2162257352627]}},{"type":"Feature","properties":{"DISQUE_LIVRAISON":"Oui","QUARTIER":1,"geo":{"name":"245"},"IRIS2008":"441090106","_l":[47.2154055858775,-1.55079555132363],"LQUARTIER":"Centre Ville","LONGUEUR":10.5,"ADRESSE":"3 rue de strasbourg","LARGEUR":1.9},"geometry":{"type":"Point","coordinates":[-1.55079555132363,47.2154055858775]}},{"type":"Feature","properties":{"DISQUE_LIVRAISON":"Oui","QUARTIER":1,"geo":{"name":"246"},"IRIS2008":"441090106","_l":[47.2183613483657,-1.55350473842631],"LQUARTIER":"Centre Ville","LONGUEUR":7.65,"ADRESSE":"2-4 rue de la commune","LARGEUR":1.9},"geometry":{"type":"Point","coordinates":[-1.55350473842631,47.2183613483657]}},{"type":"Feature","properties":{"DISQUE_LIVRAISON":"Oui","QUARTIER":1,"geo":{"name":"247"},"IRIS2008":"441090106","_l":[47.2182533200048,-1.55383160294223],"LQUARTIER":"Centre Ville","LONGUEUR":10.05,"ADRESSE":"en face le 3 rue de la commune","LARGEUR":1.9},"geometry":{"type":"Point","coordinates":[-1.55383160294223,47.2182533200048]}},{"type":"Feature","properties":{"DISQUE_LIVRAISON":"Oui","QUARTIER":1,"geo":{"name":"248"},"IRIS2008":"441090106","_l":[47.2173571533095,-1.55558843874892],"LQUARTIER":"Centre Ville","LONGUEUR":4.5,"ADRESSE":"en face le 16 rue saint leonard","LARGEUR":2},"geometry":{"type":"Point","coordinates":[-1.55558843874892,47.2173571533095]}},{"type":"Feature","properties":{"DISQUE_LIVRAISON":"Oui","QUARTIER":1,"geo":{"name":"249"},"IRIS2008":"441090106","_l":[47.2170800399257,-1.55588027720536],"LQUARTIER":"Centre Ville","LONGUEUR":9,"ADRESSE":"1 rue du cheval blanc","LARGEUR":1.05},"geometry":{"type":"Point","coordinates":[-1.55588027720536,47.2170800399257]}},{"type":"Feature","properties":{"DISQUE_LIVRAISON":"Oui","QUARTIER":1,"geo":{"name":"250"},"IRIS2008":"441090106","_l":[47.2170310354708,-1.55620082134212],"LQUARTIER":"Centre Ville","LONGUEUR":7.1,"ADRESSE":"rue du cheval blanc [angle armand brossard]","LARGEUR":1.9},"geometry":{"type":"Point","coordinates":[-1.55620082134212,47.2170310354708]}},{"type":"Feature","properties":{"DISQUE_LIVRAISON":"Oui","QUARTIER":1,"geo":{"name":"251"},"IRIS2008":"441090106","_l":[47.2170670540784,-1.5556536683183],"LQUARTIER":"Centre Ville","LONGUEUR":5.5,"ADRESSE":"rue du cheval blanc [angle rue saint leonard]","LARGEUR":1.85},"geometry":{"type":"Point","coordinates":[-1.5556536683183,47.2170670540784]}},{"type":"Feature","properties":{"DISQUE_LIVRAISON":"Oui","QUARTIER":1,"geo":{"name":"252"},"IRIS2008":"441090106","_l":[47.2185128027563,-1.55632375320138],"LQUARTIER":"Centre Ville","LONGUEUR":6.5,"ADRESSE":"en face du 26 rue armand brossard","LARGEUR":1.9},"geometry":{"type":"Point","coordinates":[-1.55632375320138,47.2185128027563]}},{"type":"Feature","properties":{"DISQUE_LIVRAISON":"Oui","QUARTIER":5,"geo":{"name":"253"},"IRIS2008":"441090508","_l":[47.2171474949097,-1.546813184201],"LQUARTIER":"Malakoff - Saint-Donatien","LONGUEUR":4.6,"ADRESSE":"face 45 rue richebourg","LARGEUR":1.85},"geometry":{"type":"Point","coordinates":[-1.546813184201,47.2171474949097]}},{"type":"Feature","properties":{"DISQUE_LIVRAISON":"Oui","QUARTIER":5,"geo":{"name":"254"},"IRIS2008":"441090505","_l":[47.2184359648804,-1.53995640056108],"LQUARTIER":"Malakoff - Saint-Donatien","LONGUEUR":5.5,"ADRESSE":"20 rue de stalingrad","LARGEUR":2.1},"geometry":{"type":"Point","coordinates":[-1.53995640056108,47.2184359648804]}},{"type":"Feature","properties":{"DISQUE_LIVRAISON":"Oui","QUARTIER":5,"geo":{"name":"255"},"IRIS2008":"441090505","_l":[47.2213661271701,-1.54312674814444],"LQUARTIER":"Malakoff - Saint-Donatien","LONGUEUR":11,"ADRESSE":"place de la medaille militaire","LARGEUR":5},"geometry":{"type":"Point","coordinates":[-1.54312674814444,47.2213661271701]}},{"type":"Feature","properties":{"DISQUE_LIVRAISON":"Oui","QUARTIER":5,"geo":{"name":"256"},"IRIS2008":"441090505","_l":[47.221243391677,-1.54392211932018],"LQUARTIER":"Malakoff - Saint-Donatien","LONGUEUR":6.5,"ADRESSE":"en face 86 rue gambetta","LARGEUR":1.85},"geometry":{"type":"Point","coordinates":[-1.54392211932018,47.221243391677]}},{"type":"Feature","properties":{"DISQUE_LIVRAISON":"Oui","QUARTIER":5,"geo":{"name":"258"},"IRIS2008":"441090507","_l":[47.2143170280673,-1.53733794491547],"LQUARTIER":"Malakoff - Saint-Donatien","LONGUEUR":7,"ADRESSE":"4 rue marcel paul","LARGEUR":2},"geometry":{"type":"Point","coordinates":[-1.53733794491547,47.2143170280673]}},{"type":"Feature","properties":{"DISQUE_LIVRAISON":"Non","QUARTIER":5,"geo":{"name":"261"},"IRIS2008":"441090507","_l":[47.216262560001,-1.54125287845005],"LQUARTIER":"Malakoff - Saint-Donatien","LONGUEUR":8.3,"ADRESSE":"gare sud parvis","LARGEUR":9.5},"geometry":{"type":"Point","coordinates":[-1.54125287845005,47.216262560001]}},{"type":"Feature","properties":{"DISQUE_LIVRAISON":"Oui","QUARTIER":5,"geo":{"name":"262"},"IRIS2008":"441090507","_l":[47.214555306004,-1.54007209593371],"LQUARTIER":"Malakoff - Saint-Donatien","LONGUEUR":10.75,"ADRESSE":"15 rue de cornulier","LARGEUR":1.9},"geometry":{"type":"Point","coordinates":[-1.54007209593371,47.214555306004]}},{"type":"Feature","properties":{"DISQUE_LIVRAISON":"Non","QUARTIER":5,"geo":{"name":"263"},"IRIS2008":"441090507","_l":[47.216069512311,-1.54337128532604],"LQUARTIER":"Malakoff - Saint-Donatien","LONGUEUR":12.3,"ADRESSE":"48 quai malakoff","LARGEUR":1.95},"geometry":{"type":"Point","coordinates":[-1.54337128532604,47.216069512311]}},{"type":"Feature","properties":{"DISQUE_LIVRAISON":"Non","QUARTIER":1,"geo":{"name":"264"},"IRIS2008":"441090109","_l":[47.2152095719317,-1.54457806114165],"LQUARTIER":"Centre Ville","LONGUEUR":5.5,"ADRESSE":"21 quai ferdinand favre","LARGEUR":2},"geometry":{"type":"Point","coordinates":[-1.54457806114165,47.2152095719317]}},{"type":"Feature","properties":{"DISQUE_LIVRAISON":"Non","QUARTIER":1,"geo":{"name":"265"},"IRIS2008":"441090109","_l":[47.2150752007444,-1.54605551615735],"LQUARTIER":"Centre Ville","LONGUEUR":11,"ADRESSE":"3 avenue carnot","LARGEUR":2},"geometry":{"type":"Point","coordinates":[-1.54605551615735,47.2150752007444]}},{"type":"Feature","properties":{"DISQUE_LIVRAISON":"Non","QUARTIER":1,"geo":{"name":"266"},"IRIS2008":"441090108","_l":[47.2149908647224,-1.54760929052048],"LQUARTIER":"Centre Ville","LONGUEUR":6.3,"ADRESSE":"3 allee baco","LARGEUR":2.9},"geometry":{"type":"Point","coordinates":[-1.54760929052048,47.2149908647224]}},{"type":"Feature","properties":{"DISQUE_LIVRAISON":"Non","QUARTIER":1,"geo":{"name":"267"},"IRIS2008":"441090108","_l":[47.2141132545794,-1.54789997555242],"LQUARTIER":"Centre Ville","LONGUEUR":7.6,"ADRESSE":"13 rue de crucy","LARGEUR":1.85},"geometry":{"type":"Point","coordinates":[-1.54789997555242,47.2141132545794]}},{"type":"Feature","properties":{"DISQUE_LIVRAISON":"Non","QUARTIER":1,"geo":{"name":"268"},"IRIS2008":"441090108","_l":[47.2131555809185,-1.54983100265277],"LQUARTIER":"Centre Ville","LONGUEUR":14.2,"ADRESSE":"31 rue de crucy","LARGEUR":1.9},"geometry":{"type":"Point","coordinates":[-1.54983100265277,47.2131555809185]}},{"type":"Feature","properties":{"DISQUE_LIVRAISON":"Non","QUARTIER":1,"geo":{"name":"270"},"IRIS2008":"441090109","_l":[47.2130585329645,-1.54649529167895],"LQUARTIER":"Centre Ville","LONGUEUR":4.6,"ADRESSE":"13 rue foure","LARGEUR":1.9},"geometry":{"type":"Point","coordinates":[-1.54649529167895,47.2130585329645]}},{"type":"Feature","properties":{"DISQUE_LIVRAISON":"Non","QUARTIER":1,"geo":{"name":"271"},"IRIS2008":"441090108","_l":[47.2142107265466,-1.54623208261605],"LQUARTIER":"Centre Ville","LONGUEUR":9.5,"ADRESSE":"4 rue foure","LARGEUR":1.9},"geometry":{"type":"Point","coordinates":[-1.54623208261605,47.2142107265466]}},{"type":"Feature","properties":{"DISQUE_LIVRAISON":"Non","QUARTIER":1,"geo":{"name":"272"},"IRIS2008":"441090109","_l":[47.2132471575598,-1.54515358109741],"LQUARTIER":"Centre Ville","LONGUEUR":14.9,"ADRESSE":"2 rue de jemmapes","LARGEUR":2.05},"geometry":{"type":"Point","coordinates":[-1.54515358109741,47.2132471575598]}},{"type":"Feature","properties":{"DISQUE_LIVRAISON":"Non","QUARTIER":1,"geo":{"name":"273"},"IRIS2008":"441090108","_l":[47.2114806898201,-1.54698807612138],"LQUARTIER":"Centre Ville","LONGUEUR":6.1,"ADRESSE":"40 rue foure","LARGEUR":1.95},"geometry":{"type":"Point","coordinates":[-1.54698807612138,47.2114806898201]}},{"type":"Feature","properties":{"DISQUE_LIVRAISON":"Non","QUARTIER":1,"geo":{"name":"274"},"IRIS2008":"441090109","_l":[47.2107240366971,-1.54702706313506],"LQUARTIER":"Centre Ville","LONGUEUR":11.8,"ADRESSE":"45 rue foure","LARGEUR":1.8},"geometry":{"type":"Point","coordinates":[-1.54702706313506,47.2107240366971]}},{"type":"Feature","properties":{"DISQUE_LIVRAISON":"Non","QUARTIER":1,"geo":{"name":"276"},"IRIS2008":"441090108","_l":[47.209592340683,-1.55004928141702],"LQUARTIER":"Centre Ville","LONGUEUR":6,"ADRESSE":"4 rue marmontel","LARGEUR":1.75},"geometry":{"type":"Point","coordinates":[-1.55004928141702,47.209592340683]}},{"type":"Feature","properties":{"DISQUE_LIVRAISON":"Non","QUARTIER":1,"geo":{"name":"277"},"IRIS2008":"441090108","_l":[47.2100596955391,-1.54898079171091],"LQUARTIER":"Centre Ville","LONGUEUR":9.7,"ADRESSE":"30 rue des olivettes","LARGEUR":1.8},"geometry":{"type":"Point","coordinates":[-1.54898079171091,47.2100596955391]}},{"type":"Feature","properties":{"DISQUE_LIVRAISON":"Oui","QUARTIER":1,"geo":{"name":"278"},"IRIS2008":"441090102","_l":[47.2108009764403,-1.55150904420369],"LQUARTIER":"Centre Ville","LONGUEUR":10,"ADRESSE":"19 chaussee de la madeleine","LARGEUR":2.55},"geometry":{"type":"Point","coordinates":[-1.55150904420369,47.2108009764403]}},{"type":"Feature","properties":{"DISQUE_LIVRAISON":"Oui","QUARTIER":1,"geo":{"name":"279"},"IRIS2008":"441090108","_l":[47.2102405322684,-1.55099283264851],"LQUARTIER":"Centre Ville","LONGUEUR":9.2,"ADRESSE":"33 chaussee de madeleine","LARGEUR":2.4},"geometry":{"type":"Point","coordinates":[-1.55099283264851,47.2102405322684]}},{"type":"Feature","properties":{"DISQUE_LIVRAISON":"Non","QUARTIER":1,"geo":{"name":"280"},"IRIS2008":"441090109","_l":[47.2115281221522,-1.54625402394936],"LQUARTIER":"Centre Ville","LONGUEUR":7.1,"ADRESSE":"5 rue de saverne","LARGEUR":1.8},"geometry":{"type":"Point","coordinates":[-1.54625402394936,47.2115281221522]}},{"type":"Feature","properties":{"DISQUE_LIVRAISON":"Non","QUARTIER":1,"geo":{"name":"281"},"IRIS2008":"441090108","_l":[47.2113117038175,-1.54734834599252],"LQUARTIER":"Centre Ville","LONGUEUR":11.5,"ADRESSE":"1 bis rue baron","LARGEUR":1.9},"geometry":{"type":"Point","coordinates":[-1.54734834599252,47.2113117038175]}},{"type":"Feature","properties":{"DISQUE_LIVRAISON":"Non","QUARTIER":1,"geo":{"name":"282"},"IRIS2008":"441090109","_l":[47.2137367850923,-1.5454753190244],"LQUARTIER":"Centre Ville","LONGUEUR":6.9,"ADRESSE":"en face 2 rue emile pehant","LARGEUR":1.8},"geometry":{"type":"Point","coordinates":[-1.5454753190244,47.2137367850923]}},{"type":"Feature","properties":{"DISQUE_LIVRAISON":"Non","QUARTIER":1,"geo":{"name":"283"},"IRIS2008":"441090109","_l":[47.2110964234566,-1.54454935173165],"LQUARTIER":"Centre Ville","LONGUEUR":3.7,"ADRESSE":"1 rue de belfort","LARGEUR":2.1},"geometry":{"type":"Point","coordinates":[-1.54454935173165,47.2110964234566]}},{"type":"Feature","properties":{"DISQUE_LIVRAISON":"Non","QUARTIER":1,"geo":{"name":"284"},"IRIS2008":"441090109","_l":[47.2105613895549,-1.5465867050085],"LQUARTIER":"Centre Ville","LONGUEUR":16,"ADRESSE":"36 rue de rieux","LARGEUR":1.8},"geometry":{"type":"Point","coordinates":[-1.5465867050085,47.2105613895549]}},{"type":"Feature","properties":{"DISQUE_LIVRAISON":"Non","QUARTIER":1,"geo":{"name":"285"},"IRIS2008":"441090109","_l":[47.2111455958969,-1.54370185387086],"LQUARTIER":"Centre Ville","LONGUEUR":7.3,"ADRESSE":"4 rue vasco de gama","LARGEUR":2.3},"geometry":{"type":"Point","coordinates":[-1.54370185387086,47.2111455958969]}},{"type":"Feature","properties":{"DISQUE_LIVRAISON":"Non","QUARTIER":1,"geo":{"name":"286"},"IRIS2008":"441090109","_l":[47.2114415438138,-1.54386111608639],"LQUARTIER":"Centre Ville","LONGUEUR":7.15,"ADRESSE":"1 rue vasco de gama","LARGEUR":2.2},"geometry":{"type":"Point","coordinates":[-1.54386111608639,47.2114415438138]}},{"type":"Feature","properties":{"DISQUE_LIVRAISON":"Non","QUARTIER":1,"geo":{"name":"287"},"IRIS2008":"441090108","_l":[47.2125330486753,-1.54827897796568],"LQUARTIER":"Centre Ville","LONGUEUR":14.4,"ADRESSE":"en face 17 rue emile pehant","LARGEUR":1.85},"geometry":{"type":"Point","coordinates":[-1.54827897796568,47.2125330486753]}},{"type":"Feature","properties":{"DISQUE_LIVRAISON":"Oui","QUARTIER":1,"geo":{"name":"288"},"IRIS2008":"441090102","_l":[47.2095962437304,-1.55937774136384],"LQUARTIER":"Centre Ville","LONGUEUR":7.5,"ADRESSE":"rue gaston michel","LARGEUR":2.5},"geometry":{"type":"Point","coordinates":[-1.55937774136384,47.2095962437304]}},{"type":"Feature","properties":{"DISQUE_LIVRAISON":"Oui","QUARTIER":1,"geo":{"name":"289"},"IRIS2008":"441090101","_l":[47.210371461499,-1.56315339447512],"LQUARTIER":"Centre Ville","LONGUEUR":10,"ADRESSE":"45 quai de la fosse","LARGEUR":1.9},"geometry":{"type":"Point","coordinates":[-1.56315339447512,47.210371461499]}},{"type":"Feature","properties":{"DISQUE_LIVRAISON":"Oui","QUARTIER":1,"geo":{"name":"290"},"IRIS2008":"441090101","_l":[47.2114652690821,-1.56632393398485],"LQUARTIER":"Centre Ville","LONGUEUR":5,"ADRESSE":"18 rue flandres dunkerques","LARGEUR":1.8},"geometry":{"type":"Point","coordinates":[-1.56632393398485,47.2114652690821]}},{"type":"Feature","properties":{"DISQUE_LIVRAISON":"Oui","QUARTIER":1,"geo":{"name":"291"},"IRIS2008":"441090104","_l":[47.2146000236007,-1.5676384096139],"LQUARTIER":"Centre Ville","LONGUEUR":6,"ADRESSE":"2 place de l'edit de nantes","LARGEUR":2.4},"geometry":{"type":"Point","coordinates":[-1.5676384096139,47.2146000236007]}},{"type":"Feature","properties":{"DISQUE_LIVRAISON":"Oui","QUARTIER":4,"geo":{"name":"292"},"IRIS2008":"441090403","_l":[47.2200564598317,-1.56169933006686],"LQUARTIER":"Hauts Pavés - Saint Félix","LONGUEUR":10.9,"ADRESSE":"30 rue porte neuve","LARGEUR":1.8},"geometry":{"type":"Point","coordinates":[-1.56169933006686,47.2200564598317]}},{"type":"Feature","properties":{"DISQUE_LIVRAISON":"Oui","QUARTIER":4,"geo":{"name":"293"},"IRIS2008":"441090402","_l":[47.2185338251649,-1.56437068772412],"LQUARTIER":"Hauts Pavés - Saint Félix","LONGUEUR":5,"ADRESSE":"6 rue de la bastille","LARGEUR":1.5},"geometry":{"type":"Point","coordinates":[-1.56437068772412,47.2185338251649]}},{"type":"Feature","properties":{"DISQUE_LIVRAISON":"Oui","QUARTIER":4,"geo":{"name":"294"},"IRIS2008":"441090402","_l":[47.2185408083319,-1.5652314760563],"LQUARTIER":"Hauts Pavés - Saint Félix","LONGUEUR":7,"ADRESSE":"20 rue de la bastille","LARGEUR":1.75},"geometry":{"type":"Point","coordinates":[-1.5652314760563,47.2185408083319]}}],"properties":[{"type":"Feature","properties":{"DISQUE_LIVRAISON":"Oui","QUARTIER":1,"geo":{"name":"295"},"IRIS2008":"441090105","_l":[47.2173864991113,-1.56021748381441],"LQUARTIER":"Centre Ville","LONGUEUR":6,"ADRESSE":"en face le 6 rue mercoeur","LARGEUR":1.85},"geometry":{"type":"Point","coordinates":[-1.56021748381441,47.2173864991113]}},{"type":"Feature","properties":{"DISQUE_LIVRAISON":"Oui","QUARTIER":1,"geo":{"name":"296"},"IRIS2008":"441090104","_l":[47.2173019850918,-1.56515630064038],"LQUARTIER":"Centre Ville","LONGUEUR":12,"ADRESSE":"15 rue deshoulieres","LARGEUR":1.85},"geometry":{"type":"Point","coordinates":[-1.56515630064038,47.2173019850918]}},{"type":"Feature","properties":{"DISQUE_LIVRAISON":"Oui","QUARTIER":4,"geo":{"name":"297"},"IRIS2008":"441090403","_l":[47.2186835725077,-1.5620794437586],"LQUARTIER":"Hauts Pavés - Saint Félix","LONGUEUR":10,"ADRESSE":"10 rue d erlon","LARGEUR":1.9},"geometry":{"type":"Point","coordinates":[-1.5620794437586,47.2186835725077]}},{"type":"Feature","properties":{"DISQUE_LIVRAISON":"Oui","QUARTIER":1,"geo":{"name":"298"},"IRIS2008":"441090105","_l":[47.2208602596413,-1.55650967036287],"LQUARTIER":"Centre Ville","LONGUEUR":5.1,"ADRESSE":"3 rue jeanne d arc","LARGEUR":2.3},"geometry":{"type":"Point","coordinates":[-1.55650967036287,47.2208602596413]}},{"type":"Feature","properties":{"DISQUE_LIVRAISON":"Non","QUARTIER":4,"geo":{"name":"299"},"IRIS2008":"441090404","_l":[47.2219242543281,-1.55934679807535],"LQUARTIER":"Hauts Pavés - Saint Félix","LONGUEUR":7.1,"ADRESSE":"rue yves bodiguel [angle rue de bel aire]","LARGEUR":1.9},"geometry":{"type":"Point","coordinates":[-1.55934679807535,47.2219242543281]}},{"type":"Feature","properties":{"DISQUE_LIVRAISON":"Non","QUARTIER":4,"geo":{"name":"300"},"IRIS2008":"441090404","_l":[47.2217386824751,-1.5592196879628],"LQUARTIER":"Hauts Pavés - Saint Félix","LONGUEUR":13.3,"ADRESSE":"19-21 rue bel air","LARGEUR":2},"geometry":{"type":"Point","coordinates":[-1.5592196879628,47.2217386824751]}},{"type":"Feature","properties":{"DISQUE_LIVRAISON":"Oui","QUARTIER":1,"geo":{"name":"301"},"IRIS2008":"441090101","_l":[47.2142603916104,-1.56898270452008],"LQUARTIER":"Centre Ville","LONGUEUR":5,"ADRESSE":"rue de gigant à coté du 1 rue huchette","LARGEUR":2.5},"geometry":{"type":"Point","coordinates":[-1.56898270452008,47.2142603916104]}},{"type":"Feature","properties":{"DISQUE_LIVRAISON":"Oui","QUARTIER":4,"geo":{"name":"302"},"IRIS2008":"441090403","_l":[47.2198852530032,-1.56264257823823],"LQUARTIER":"Hauts Pavés - Saint Félix","LONGUEUR":5.2,"ADRESSE":"1 rue joseph caille","LARGEUR":1.95},"geometry":{"type":"Point","coordinates":[-1.56264257823823,47.2198852530032]}},{"type":"Feature","properties":{"DISQUE_LIVRAISON":"Non","QUARTIER":1,"geo":{"name":"303"},"IRIS2008":"441090108","_l":[47.210755625772,-1.54939626999027],"LQUARTIER":"Centre Ville","LONGUEUR":10.5,"ADRESSE":"24 rue des olivettes","LARGEUR":1.75},"geometry":{"type":"Point","coordinates":[-1.54939626999027,47.210755625772]}},{"type":"Feature","properties":{"DISQUE_LIVRAISON":"Non","QUARTIER":1,"geo":{"name":"304"},"IRIS2008":"441090108","_l":[47.2121029111975,-1.55008015594297],"LQUARTIER":"Centre Ville","LONGUEUR":7,"ADRESSE":"4 rue des olivettes","LARGEUR":1.9},"geometry":{"type":"Point","coordinates":[-1.55008015594297,47.2121029111975]}},{"type":"Feature","properties":{"DISQUE_LIVRAISON":"Oui","QUARTIER":1,"geo":{"name":"305"},"IRIS2008":"441090102","_l":[47.2121033922267,-1.55257437774323],"LQUARTIER":"Centre Ville","LONGUEUR":8.5,"ADRESSE":"2 chausse de la madeleine","LARGEUR":2.45},"geometry":{"type":"Point","coordinates":[-1.55257437774323,47.2121033922267]}},{"type":"Feature","properties":{"DISQUE_LIVRAISON":"Oui","QUARTIER":1,"geo":{"name":"306"},"IRIS2008":"441090102","_l":[47.2119639297439,-1.55245672279722],"LQUARTIER":"Centre Ville","LONGUEUR":14.5,"ADRESSE":"2 chausse de la madeleine","LARGEUR":2.45},"geometry":{"type":"Point","coordinates":[-1.55245672279722,47.2119639297439]}},{"type":"Feature","properties":{"DISQUE_LIVRAISON":"Non","QUARTIER":1,"geo":{"name":"307"},"IRIS2008":"441090108","_l":[47.212453302814,-1.5480732902693],"LQUARTIER":"Centre Ville","LONGUEUR":5.9,"ADRESSE":"2 rue laennec","LARGEUR":1.8},"geometry":{"type":"Point","coordinates":[-1.5480732902693,47.212453302814]}},{"type":"Feature","properties":{"DISQUE_LIVRAISON":"Oui","QUARTIER":1,"geo":{"name":"310"},"IRIS2008":"441090101","_l":[47.2144773234321,-1.56736139852014],"LQUARTIER":"Centre Ville","LONGUEUR":7,"ADRESSE":"1 place de l'édit de NANTES","LARGEUR":2.35},"geometry":{"type":"Point","coordinates":[-1.56736139852014,47.2144773234321]}},{"type":"Feature","properties":{"DISQUE_LIVRAISON":"Oui","QUARTIER":1,"geo":{"name":"311"},"IRIS2008":"441090101","_l":[47.2144562467438,-1.56621644156866],"LQUARTIER":"Centre Ville","LONGUEUR":8.1,"ADRESSE":"11 rue Kleber","LARGEUR":2.1},"geometry":{"type":"Point","coordinates":[-1.56621644156866,47.2144562467438]}},{"type":"Feature","properties":{"DISQUE_LIVRAISON":"Oui","QUARTIER":1,"geo":{"name":"312"},"IRIS2008":"441090104","_l":[47.2145063914625,-1.56580210631791],"LQUARTIER":"Centre Ville","LONGUEUR":13,"ADRESSE":"25 rue racine (devant cave vino vini)","LARGEUR":2},"geometry":{"type":"Point","coordinates":[-1.56580210631791,47.2145063914625]}},{"type":"Feature","properties":{"DISQUE_LIVRAISON":"Oui","QUARTIER":1,"geo":{"name":"313"},"IRIS2008":"441090103","_l":[47.2128786054817,-1.56465815910943],"LQUARTIER":"Centre Ville","LONGUEUR":6.5,"ADRESSE":"en face le 1 place de la monnaie","LARGEUR":1.85},"geometry":{"type":"Point","coordinates":[-1.56465815910943,47.2128786054817]}},{"type":"Feature","properties":{"DISQUE_LIVRAISON":"Oui","QUARTIER":1,"geo":{"name":"314"},"IRIS2008":"441090103","_l":[47.2135897201157,-1.56441013579279],"LQUARTIER":"Centre Ville","LONGUEUR":11,"ADRESSE":"3 place Paul-Emile Ladmirault","LARGEUR":2.1},"geometry":{"type":"Point","coordinates":[-1.56441013579279,47.2135897201157]}},{"type":"Feature","properties":{"DISQUE_LIVRAISON":"Oui","QUARTIER":1,"geo":{"name":"315"},"IRIS2008":"441090103","_l":[47.2122393604021,-1.56500833639173],"LQUARTIER":"Centre Ville","LONGUEUR":5.5,"ADRESSE":"14 rue Voltaire","LARGEUR":2},"geometry":{"type":"Point","coordinates":[-1.56500833639173,47.2122393604021]}},{"type":"Feature","properties":{"DISQUE_LIVRAISON":"Oui","QUARTIER":1,"geo":{"name":"316"},"IRIS2008":"441090103","_l":[47.2127141437106,-1.56524890724008],"LQUARTIER":"Centre Ville","LONGUEUR":7.1,"ADRESSE":"en face le 6 rue Athénas","LARGEUR":1.95},"geometry":{"type":"Point","coordinates":[-1.56524890724008,47.2127141437106]}},{"type":"Feature","properties":{"DISQUE_LIVRAISON":"Oui","QUARTIER":1,"geo":{"name":"317"},"IRIS2008":"441090103","_l":[47.2120971521897,-1.56545986026426],"LQUARTIER":"Centre Ville","LONGUEUR":10.4,"ADRESSE":"En face le 15 rue Voltaire","LARGEUR":2.6},"geometry":{"type":"Point","coordinates":[-1.56545986026426,47.2120971521897]}},{"type":"Feature","properties":{"DISQUE_LIVRAISON":"Oui","QUARTIER":1,"geo":{"name":"318"},"IRIS2008":"441090101","_l":[47.2131436672257,-1.56612526994654],"LQUARTIER":"Centre Ville","LONGUEUR":6.05,"ADRESSE":"En face le 2 rue Urvoy de Saint-Bedan","LARGEUR":2},"geometry":{"type":"Point","coordinates":[-1.56612526994654,47.2131436672257]}},{"type":"Feature","properties":{"DISQUE_LIVRAISON":"Oui","QUARTIER":1,"geo":{"name":"319"},"IRIS2008":"441090103","_l":[47.2120027472886,-1.56422480579611],"LQUARTIER":"Centre Ville","LONGUEUR":7.9,"ADRESSE":"13 rue gresset","LARGEUR":2},"geometry":{"type":"Point","coordinates":[-1.56422480579611,47.2120027472886]}},{"type":"Feature","properties":{"DISQUE_LIVRAISON":"Oui","QUARTIER":1,"geo":{"name":"320"},"IRIS2008":"441090103","_l":[47.213773711875,-1.56394346878731],"LQUARTIER":"Centre Ville","LONGUEUR":9.7,"ADRESSE":"face 8 rue racine","LARGEUR":2.05},"geometry":{"type":"Point","coordinates":[-1.56394346878731,47.213773711875]}},{"type":"Feature","properties":{"DISQUE_LIVRAISON":"Oui","QUARTIER":1,"geo":{"name":"321"},"IRIS2008":"441090103","_l":[47.2142305349217,-1.56511108854808],"LQUARTIER":"Centre Ville","LONGUEUR":10,"ADRESSE":"21 rue racine","LARGEUR":2.05},"geometry":{"type":"Point","coordinates":[-1.56511108854808,47.2142305349217]}},{"type":"Feature","properties":{"DISQUE_LIVRAISON":"Oui","QUARTIER":1,"geo":{"name":"322"},"IRIS2008":"441090104","_l":[47.2147032686155,-1.5668750759113],"LQUARTIER":"Centre Ville","LONGUEUR":8.4,"ADRESSE":"5ème At rue Sévigné","LARGEUR":1.85},"geometry":{"type":"Point","coordinates":[-1.5668750759113,47.2147032686155]}},{"type":"Feature","properties":{"DISQUE_LIVRAISON":"Oui","QUARTIER":1,"geo":{"name":"323"},"IRIS2008":"441090103","_l":[47.2147944346393,-1.56500529477067],"LQUARTIER":"Centre Ville","LONGUEUR":15,"ADRESSE":"5 rue copernic","LARGEUR":2.4},"geometry":{"type":"Point","coordinates":[-1.56500529477067,47.2147944346393]}},{"type":"Feature","properties":{"DISQUE_LIVRAISON":"Oui","QUARTIER":1,"geo":{"name":"324"},"IRIS2008":"441090103","_l":[47.2149609864072,-1.56365138028095],"LQUARTIER":"Centre Ville","LONGUEUR":7.65,"ADRESSE":"5ème AT place Delorme","LARGEUR":1.95},"geometry":{"type":"Point","coordinates":[-1.56365138028095,47.2149609864072]}},{"type":"Feature","properties":{"DISQUE_LIVRAISON":"Oui","QUARTIER":1,"geo":{"name":"325"},"IRIS2008":"441090104","_l":[47.2152813124463,-1.56254037691441],"LQUARTIER":"Centre Ville","LONGUEUR":5.3,"ADRESSE":"24 rue du calvaire","LARGEUR":3.15},"geometry":{"type":"Point","coordinates":[-1.56254037691441,47.2152813124463]}},{"type":"Feature","properties":{"DISQUE_LIVRAISON":"Oui","QUARTIER":1,"geo":{"name":"326"},"IRIS2008":"441090103","_l":[47.2151897217366,-1.56241103119584],"LQUARTIER":"Centre Ville","LONGUEUR":5.4,"ADRESSE":"25 rue du calvaire","LARGEUR":3.7},"geometry":{"type":"Point","coordinates":[-1.56241103119584,47.2151897217366]}},{"type":"Feature","properties":{"DISQUE_LIVRAISON":"Oui","QUARTIER":4,"geo":{"name":"329"},"IRIS2008":"441090403","_l":[47.2201305797137,-1.56322995061018],"LQUARTIER":"Hauts Pavés - Saint Félix","LONGUEUR":6.1,"ADRESSE":"3 rue Menou","LARGEUR":2.05},"geometry":{"type":"Point","coordinates":[-1.56322995061018,47.2201305797137]}},{"type":"Feature","properties":{"DISQUE_LIVRAISON":"Oui","QUARTIER":4,"geo":{"name":"330"},"IRIS2008":"441090403","_l":[47.2199587921746,-1.56348854767261],"LQUARTIER":"Hauts Pavés - Saint Félix","LONGUEUR":6.5,"ADRESSE":"12 rue ménou (en face le 7)","LARGEUR":2.1},"geometry":{"type":"Point","coordinates":[-1.56348854767261,47.2199587921746]}},{"type":"Feature","properties":{"DISQUE_LIVRAISON":"Oui","QUARTIER":4,"geo":{"name":"331"},"IRIS2008":"441090403","_l":[47.2192894054947,-1.56344885116921],"LQUARTIER":"Hauts Pavés - Saint Félix","LONGUEUR":8.7,"ADRESSE":"10 place Edouard Normand","LARGEUR":2},"geometry":{"type":"Point","coordinates":[-1.56344885116921,47.2192894054947]}},{"type":"Feature","properties":{"DISQUE_LIVRAISON":"Non","QUARTIER":4,"geo":{"name":"332"},"IRIS2008":"441090402","_l":[47.2185868996984,-1.56633896430181],"LQUARTIER":"Hauts Pavés - Saint Félix","LONGUEUR":5.5,"ADRESSE":"En face le 15 rue de la bastille(entre 30-32)","LARGEUR":1.4},"geometry":{"type":"Point","coordinates":[-1.56633896430181,47.2185868996984]}},{"type":"Feature","properties":{"DISQUE_LIVRAISON":"Non","QUARTIER":4,"geo":{"name":"333"},"IRIS2008":"441090402","_l":[47.216777790183,-1.56762462732189],"LQUARTIER":"Hauts Pavés - Saint Félix","LONGUEUR":10,"ADRESSE":"2 rue marie anne du bocage","LARGEUR":1.85},"geometry":{"type":"Point","coordinates":[-1.56762462732189,47.216777790183]}},{"type":"Feature","properties":{"DISQUE_LIVRAISON":"Oui","QUARTIER":1,"geo":{"name":"334"},