{"type":"FeatureCollection","features":[{"type":"Feature","properties":{"title":"5 allee commandant charcot","Disque de livraison":"Oui","Longueur":21.8,"Largeur":1.75,"Quartier":"Malakoff - Saint-Donatien","icon":"livraison"},"geometry":{"type":"Point","coordinates":[-1.5439680822338,47.2176581249333]}},{"type":"Feature","properties":{"title":"75 rue Paul Bellamy","Disque de livraison":"Oui","Longueur":5,"Largeur":2.5,"Quartier":"Hauts Pavés - Saint Félix","icon":"livraison"},"geometry":{"type":"Point","coordinates":[-1.55955926407599,47.2256329031364]}},{"type":"Feature","properties":{"title":"93 rue paul bellamy","Disque de livraison":"Oui","Longueur":8.5,"Largeur":2.15,"Quartier":"Hauts Pavés - Saint Félix","icon":"livraison"},"geometry":{"type":"Point","coordinates":[-1.56017829638318,47.2263539087276]}},{"type":"Feature","properties":{"title":"46 rue de gigant","Disque de livraison":"Oui","Longueur":12,"Largeur":2,"Quartier":"Dervallières - Zola","icon":"livraison"},"geometry":{"type":"Point","coordinates":[-1.5738691727474,47.2146653572973]}},{"type":"Feature","properties":{"title":"cite des congres","Disque de livraison":"Non","Longueur":9.15,"Largeur":3.5,"Quartier":"Centre Ville","icon":"livraison"},"geometry":{"type":"Point","coordinates":[-1.54412329709608,47.2135119596289]}},{"type":"Feature","properties":{"title":"4 allee brancas","Disque de livraison":"Oui","Longueur":31.2,"Largeur":3,"Quartier":"Centre Ville","icon":"livraison"},"geometry":{"type":"Point","coordinates":[-1.55610081543328,47.2138654825499]}},{"type":"Feature","properties":{"title":"6 allee brancas","Disque de livraison":"Oui","Longueur":14.3,"Largeur":3,"Quartier":"Centre Ville","icon":"livraison"},"geometry":{"type":"Point","coordinates":[-1.55636358481374,47.2137719931102]}},{"type":"Feature","properties":{"title":"8 allee brancas","Disque de livraison":"Oui","Longueur":8.8,"Largeur":2.75,"Quartier":"Centre Ville","icon":"livraison"},"geometry":{"type":"Point","coordinates":[-1.55653948031697,47.2136917562016]}},{"type":"Feature","properties":{"title":"5 rue de chateaubriant","Disque de livraison":"Oui","Longueur":6.5,"Largeur":2,"Quartier":"Hauts Pavés - Saint Félix","icon":"livraison"},"geometry":{"type":"Point","coordinates":[-1.55500778789393,47.2215146236807]}},{"type":"Feature","properties":{"title":"place chateaubriant","Disque de livraison":"Non","Longueur":15,"Largeur":4,"Quartier":"Hauts Pavés - Saint Félix","icon":"livraison"},"geometry":{"type":"Point","coordinates":[-1.55349363865034,47.2229174973602]}},{"type":"Feature","properties":{"title":"2 quai de versailles","Disque de livraison":"Oui","Longueur":12.5,"Largeur":2.2,"Quartier":"Hauts Pavés - Saint Félix","icon":"livraison"},"geometry":{"type":"Point","coordinates":[-1.55481304770462,47.2208153874085]}},{"type":"Feature","properties":{"title":"5 quai ceineray","Disque de livraison":"Oui","Longueur":19.7,"Largeur":2,"Quartier":"Centre Ville","icon":"livraison"},"geometry":{"type":"Point","coordinates":[-1.55345795069356,47.2205721948465]}},{"type":"Feature","properties":{"title":"7 rue tournefort","Disque de livraison":"Oui","Longueur":7.1,"Largeur":1.7,"Quartier":"Centre Ville","icon":"livraison"},"geometry":{"type":"Point","coordinates":[-1.55165947738347,47.2210848353729]}},{"type":"Feature","properties":{"title":"1 rue d argentre","Disque de livraison":"Oui","Longueur":9.5,"Largeur":1.9,"Quartier":"Centre Ville","icon":"livraison"},"geometry":{"type":"Point","coordinates":[-1.55155971258488,47.220837452429]}},{"type":"Feature","properties":{"title":"2 rue du roi albert","Disque de livraison":"Oui","Longueur":5.5,"Largeur":1.9,"Quartier":"Centre Ville","icon":"livraison"},"geometry":{"type":"Point","coordinates":[-1.55099584637066,47.2186007702759]}},{"type":"Feature","properties":{"title":"rue d argentre [angle place salegro]","Disque de livraison":"Oui","Longueur":5.1,"Largeur":1.9,"Quartier":"Centre Ville","icon":"livraison"},"geometry":{"type":"Point","coordinates":[-1.55220605785471,47.2205401373089]}},{"type":"Feature","properties":{"title":"5 rue henri 4","Disque de livraison":"Oui","Longueur":9.3,"Largeur":2,"Quartier":"Malakoff - Saint-Donatien","icon":"livraison"},"geometry":{"type":"Point","coordinates":[-1.54758805492283,47.2173484017706]}},{"type":"Feature","properties":{"title":"en face 1 rue d enfer","Disque de livraison":"Oui","Longueur":5.1,"Largeur":1.85,"Quartier":"Centre Ville","icon":"livraison"},"geometry":{"type":"Point","coordinates":[-1.55414788266664,47.2190413254357]}},{"type":"Feature","properties":{"title":"place du port communeau","Disque de livraison":"Oui","Longueur":6.7,"Largeur":2.6,"Quartier":"Centre Ville","icon":"livraison"},"geometry":{"type":"Point","coordinates":[-1.55453697494512,47.2197474171091]}},{"type":"Feature","properties":{"title":"place du port communeau","Disque de livraison":"Oui","Longueur":10.5,"Largeur":2.05,"Quartier":"Centre Ville","icon":"livraison"},"geometry":{"type":"Point","coordinates":[-1.55441048106733,47.21979915358]}},{"type":"Feature","properties":{"title":"en face le 26 rue de strasbourg","Disque de livraison":"Oui","Longueur":9.6,"Largeur":1.8,"Quartier":"Centre Ville","icon":"livraison"},"geometry":{"type":"Point","coordinates":[-1.55220146127749,47.2170587114443]}},{"type":"Feature","properties":{"title":"place tirant lo blanc","Disque de livraison":"Oui","Longueur":7.2,"Largeur":2.1,"Quartier":"Centre Ville","icon":"livraison"},"geometry":{"type":"Point","coordinates":[-1.55167988657715,47.2166129895205]}},{"type":"Feature","properties":{"title":"13 rue de strasbourg","Disque de livraison":"Oui","Longueur":10,"Largeur":1.9,"Quartier":"Centre Ville","icon":"livraison"},"geometry":{"type":"Point","coordinates":[-1.55147455465792,47.2162257352627]}},{"type":"Feature","properties":{"title":"3 rue de strasbourg","Disque de livraison":"Oui","Longueur":10.5,"Largeur":1.9,"Quartier":"Centre Ville","icon":"livraison"},"geometry":{"type":"Point","coordinates":[-1.55079555132363,47.2154055858775]}},{"type":"Feature","properties":{"title":"2-4 rue de la commune","Disque de livraison":"Oui","Longueur":7.65,"Largeur":1.9,"Quartier":"Centre Ville","icon":"livraison"},"geometry":{"type":"Point","coordinates":[-1.55350473842631,47.2183613483657]}},{"type":"Feature","properties":{"title":"en face le 3 rue de la commune","Disque de livraison":"Oui","Longueur":10.05,"Largeur":1.9,"Quartier":"Centre Ville","icon":"livraison"},"geometry":{"type":"Point","coordinates":[-1.55383160294223,47.2182533200048]}},{"type":"Feature","properties":{"title":"en face le 16 rue saint leonard","Disque de livraison":"Oui","Longueur":4.5,"Largeur":2,"Quartier":"Centre Ville","icon":"livraison"},"geometry":{"type":"Point","coordinates":[-1.55558843874892,47.2173571533095]}},{"type":"Feature","properties":{"title":"1 rue du cheval blanc","Disque de livraison":"Oui","Longueur":9,"Largeur":1.05,"Quartier":"Centre Ville","icon":"livraison"},"geometry":{"type":"Point","coordinates":[-1.55588027720536,47.2170800399257]}},{"type":"Feature","properties":{"title":"rue du cheval blanc [angle armand brossard]","Disque de livraison":"Oui","Longueur":7.1,"Largeur":1.9,"Quartier":"Centre Ville","icon":"livraison"},"geometry":{"type":"Point","coordinates":[-1.55620082134212,47.2170310354708]}},{"type":"Feature","properties":{"title":"rue du cheval blanc [angle rue saint leonard]","Disque de livraison":"Oui","Longueur":5.5,"Largeur":1.85,"Quartier":"Centre Ville","icon":"livraison"},"geometry":{"type":"Point","coordinates":[-1.5556536683183,47.2170670540784]}},{"type":"Feature","properties":{"title":"en face du 26 rue armand brossard","Disque de livraison":"Oui","Longueur":6.5,"Largeur":1.9,"Quartier":"Centre Ville","icon":"livraison"},"geometry":{"type":"Point","coordinates":[-1.55632375320138,47.2185128027563]}},{"type":"Feature","properties":{"title":"face 45 rue richebourg","Disque de livraison":"Oui","Longueur":4.6,"Largeur":1.85,"Quartier":"Malakoff - Saint-Donatien","icon":"livraison"},"geometry":{"type":"Point","coordinates":[-1.546813184201,47.2171474949097]}},{"type":"Feature","properties":{"title":"20 rue de stalingrad","Disque de livraison":"Oui","Longueur":5.5,"Largeur":2.1,"Quartier":"Malakoff - Saint-Donatien","icon":"livraison"},"geometry":{"type":"Point","coordinates":[-1.53995640056108,47.2184359648804]}},{"type":"Feature","properties":{"title":"place de la medaille militaire","Disque de livraison":"Oui","Longueur":11,"Largeur":5,"Quartier":"Malakoff - Saint-Donatien","icon":"livraison"},"geometry":{"type":"Point","coordinates":[-1.54312674814444,47.2213661271701]}},{"type":"Feature","properties":{"title":"en face 86 rue gambetta","Disque de livraison":"Oui","Longueur":6.5,"Largeur":1.85,"Quartier":"Malakoff - Saint-Donatien","icon":"livraison"},"geometry":{"type":"Point","coordinates":[-1.54392211932018,47.221243391677]}},{"type":"Feature","properties":{"title":"4 rue marcel paul","Disque de livraison":"Oui","Longueur":7,"Largeur":2,"Quartier":"Malakoff - Saint-Donatien","icon":"livraison"},"geometry":{"type":"Point","coordinates":[-1.53733794491547,47.2143170280673]}},{"type":"Feature","properties":{"title":"gare sud parvis","Disque de livraison":"Non","Longueur":8.3,"Largeur":9.5,"Quartier":"Malakoff - Saint-Donatien","icon":"livraison"},"geometry":{"type":"Point","coordinates":[-1.54125287845005,47.216262560001]}},{"type":"Feature","properties":{"title":"15 rue de cornulier","Disque de livraison":"Oui","Longueur":10.75,"Largeur":1.9,"Quartier":"Malakoff - Saint-Donatien","icon":"livraison"},"geometry":{"type":"Point","coordinates":[-1.54007209593371,47.214555306004]}},{"type":"Feature","properties":{"title":"48 quai malakoff","Disque de livraison":"Non","Longueur":12.3,"Largeur":1.95,"Quartier":"Malakoff - Saint-Donatien","icon":"livraison"},"geometry":{"type":"Point","coordinates":[-1.54337128532604,47.216069512311]}},{"type":"Feature","properties":{"title":"21 quai ferdinand favre","Disque de livraison":"Non","Longueur":5.5,"Largeur":2,"Quartier":"Centre Ville","icon":"livraison"},"geometry":{"type":"Point","coordinates":[-1.54457806114165,47.2152095719317]}},{"type":"Feature","properties":{"title":"3 avenue carnot","Disque de livraison":"Non","Longueur":11,"Largeur":2,"Quartier":"Centre Ville","icon":"livraison"},"geometry":{"type":"Point","coordinates":[-1.54605551615735,47.2150752007444]}},{"type":"Feature","properties":{"title":"3 allee baco","Disque de livraison":"Non","Longueur":6.3,"Largeur":2.9,"Quartier":"Centre Ville","icon":"livraison"},"geometry":{"type":"Point","coordinates":[-1.54760929052048,47.2149908647224]}},{"type":"Feature","properties":{"title":"13 rue de crucy","Disque de livraison":"Non","Longueur":7.6,"Largeur":1.85,"Quartier":"Centre Ville","icon":"livraison"},"geometry":{"type":"Point","coordinates":[-1.54789997555242,47.2141132545794]}},{"type":"Feature","properties":{"title":"31 rue de crucy","Disque de livraison":"Non","Longueur":14.2,"Largeur":1.9,"Quartier":"Centre Ville","icon":"livraison"},"geometry":{"type":"Point","coordinates":[-1.54983100265277,47.2131555809185]}},{"type":"Feature","properties":{"title":"13 rue foure","Disque de livraison":"Non","Longueur":4.6,"Largeur":1.9,"Quartier":"Centre Ville","icon":"livraison"},"geometry":{"type":"Point","coordinates":[-1.54649529167895,47.2130585329645]}},{"type":"Feature","properties":{"title":"4 rue foure","Disque de livraison":"Non","Longueur":9.5,"Largeur":1.9,"Quartier":"Centre Ville","icon":"livraison"},"geometry":{"type":"Point","coordinates":[-1.54623208261605,47.2142107265466]}},{"type":"Feature","properties":{"title":"2 rue de jemmapes","Disque de livraison":"Non","Longueur":14.9,"Largeur":2.05,"Quartier":"Centre Ville","icon":"livraison"},"geometry":{"type":"Point","coordinates":[-1.54515358109741,47.2132471575598]}},{"type":"Feature","properties":{"title":"40 rue foure","Disque de livraison":"Non","Longueur":6.1,"Largeur":1.95,"Quartier":"Centre Ville","icon":"livraison"},"geometry":{"type":"Point","coordinates":[-1.54698807612138,47.2114806898201]}},{"type":"Feature","properties":{"title":"45 rue foure","Disque de livraison":"Non","Longueur":11.8,"Largeur":1.8,"Quartier":"Centre Ville","icon":"livraison"},"geometry":{"type":"Point","coordinates":[-1.54702706313506,47.2107240366971]}},{"type":"Feature","properties":{"title":"4 rue marmontel","Disque de livraison":"Non","Longueur":6,"Largeur":1.75,"Quartier":"Centre Ville","icon":"livraison"},"geometry":{"type":"Point","coordinates":[-1.55004928141702,47.209592340683]}},{"type":"Feature","properties":{"title":"30 rue des olivettes","Disque de livraison":"Non","Longueur":9.7,"Largeur":1.8,"Quartier":"Centre Ville","icon":"livraison"},"geometry":{"type":"Point","coordinates":[-1.54898079171091,47.2100596955391]}},{"type":"Feature","properties":{"title":"19 chaussee de la madeleine","Disque de livraison":"Oui","Longueur":10,"Largeur":2.55,"Quartier":"Centre Ville","icon":"livraison"},"geometry":{"type":"Point","coordinates":[-1.55150904420369,47.2108009764403]}},{"type":"Feature","properties":{"title":"33 chaussee de madeleine","Disque de livraison":"Oui","Longueur":9.2,"Largeur":2.4,"Quartier":"Centre Ville","icon":"livraison"},"geometry":{"type":"Point","coordinates":[-1.55099283264851,47.2102405322684]}},{"type":"Feature","properties":{"title":"5 rue de saverne","Disque de livraison":"Non","Longueur":7.1,"Largeur":1.8,"Quartier":"Centre Ville","icon":"livraison"},"geometry":{"type":"Point","coordinates":[-1.54625402394936,47.2115281221522]}},{"type":"Feature","properties":{"title":"1 bis rue baron","Disque de livraison":"Non","Longueur":11.5,"Largeur":1.9,"Quartier":"Centre Ville","icon":"livraison"},"geometry":{"type":"Point","coordinates":[-1.54734834599252,47.2113117038175]}},{"type":"Feature","properties":{"title":"en face 2 rue emile pehant","Disque de livraison":"Non","Longueur":6.9,"Largeur":1.8,"Quartier":"Centre Ville","icon":"livraison"},"geometry":{"type":"Point","coordinates":[-1.5454753190244,47.2137367850923]}},{"type":"Feature","properties":{"title":"1 rue de belfort","Disque de livraison":"Non","Longueur":3.7,"Largeur":2.1,"Quartier":"Centre Ville","icon":"livraison"},"geometry":{"type":"Point","coordinates":[-1.54454935173165,47.2110964234566]}},{"type":"Feature","properties":{"title":"36 rue de rieux","Disque de livraison":"Non","Longueur":16,"Largeur":1.8,"Quartier":"Centre Ville","icon":"livraison"},"geometry":{"type":"Point","coordinates":[-1.5465867050085,47.2105613895549]}},{"type":"Feature","properties":{"title":"4 rue vasco de gama","Disque de livraison":"Non","Longueur":7.3,"Largeur":2.3,"Quartier":"Centre Ville","icon":"livraison"},"geometry":{"type":"Point","coordinates":[-1.54370185387086,47.2111455958969]}},{"type":"Feature","properties":{"title":"1 rue vasco de gama","Disque de livraison":"Non","Longueur":7.15,"Largeur":2.2,"Quartier":"Centre Ville","icon":"livraison"},"geometry":{"type":"Point","coordinates":[-1.54386111608639,47.2114415438138]}},{"type":"Feature","properties":{"title":"en face 17 rue emile pehant","Disque de livraison":"Non","Longueur":14.4,"Largeur":1.85,"Quartier":"Centre Ville","icon":"livraison"},"geometry":{"type":"Point","coordinates":[-1.54827897796568,47.2125330486753]}},{"type":"Feature","properties":{"title":"rue gaston michel","Disque de livraison":"Oui","Longueur":7.5,"Largeur":5,"Quartier":"Centre Ville","icon":"livraison"},"geometry":{"type":"Point","coordinates":[-1.55937774136384,47.2095962437304]}},{"type":"Feature","properties":{"title":"45 quai de la fosse","Disque de livraison":"Oui","Longueur":10,"Largeur":1.9,"Quartier":"Centre Ville","icon":"livraison"},"geometry":{"type":"Point","coordinates":[-1.56315339447512,47.210371461499]}},{"type":"Feature","properties":{"title":"18 rue flandres dunkerques","Disque de livraison":"Oui","Longueur":5,"Largeur":1.8,"Quartier":"Centre Ville","icon":"livraison"},"geometry":{"type":"Point","coordinates":[-1.56632393398485,47.2114652690821]}},{"type":"Feature","properties":{"title":"2 place de l'edit de nantes","Disque de livraison":"Oui","Longueur":6,"Largeur":2.4,"Quartier":"Centre Ville","icon":"livraison"},"geometry":{"type":"Point","coordinates":[-1.5676384096139,47.2146000236007]}},{"type":"Feature","properties":{"title":"30 rue porte neuve","Disque de livraison":"Oui","Longueur":10.9,"Largeur":1.8,"Quartier":"Hauts Pavés - Saint Félix","icon":"livraison"},"geometry":{"type":"Point","coordinates":[-1.56169933006686,47.2200564598317]}},{"type":"Feature","properties":{"title":"6 rue de la bastille","Disque de livraison":"Oui","Longueur":5,"Largeur":1.5,"Quartier":"Hauts Pavés - Saint Félix","icon":"livraison"},"geometry":{"type":"Point","coordinates":[-1.56437068772412,47.2185338251649]}},{"type":"Feature","properties":{"title":"20 rue de la bastille","Disque de livraison":"Oui","Longueur":7,"Largeur":1.75,"Quartier":"Hauts Pavés - Saint Félix","icon":"livraison"},"geometry":{"type":"Point","coordinates":[-1.5652314760563,47.2185408083319]}},{"type":"Feature","properties":{"title":"en face le 6 rue mercoeur","Disque de livraison":"Oui","Longueur":6,"Largeur":1.85,"Quartier":"Centre Ville","icon":"livraison"},"geometry":{"type":"Point","coordinates":[-1.56021748381441,47.2173864991113]}},{"type":"Feature","properties":{"title":"15 rue deshoulieres","Disque de livraison":"Oui","Longueur":12,"Largeur":1.85,"Quartier":"Centre Ville","icon":"livraison"},"geometry":{"type":"Point","coordinates":[-1.56515630064038,47.2173019850918]}},{"type":"Feature","properties":{"title":"10 rue d erlon","Disque de livraison":"Oui","Longueur":10,"Largeur":1.9,"Quartier":"Hauts Pavés - Saint Félix","icon":"livraison"},"geometry":{"type":"Point","coordinates":[-1.5620794437586,47.2186835725077]}},{"type":"Feature","properties":{"title":"3 rue jeanne d arc","Disque de livraison":"Oui","Longueur":5.1,"Largeur":2.3,"Quartier":"Centre Ville","icon":"livraison"},"geometry":{"type":"Point","coordinates":[-1.55650967036287,47.2208602596413]}},{"type":"Feature","properties":{"title":"rue yves bodiguel [angle rue de bel aire]","Disque de livraison":"Non","Longueur":7.1,"Largeur":1.9,"Quartier":"Hauts Pavés - Saint Félix","icon":"livraison"},"geometry":{"type":"Point","coordinates":[-1.55934679807535,47.2219242543281]}},{"type":"Feature","properties":{"title":"19-21 rue bel air","Disque de livraison":"Non","Longueur":13.3,"Largeur":2,"Quartier":"Hauts Pavés - Saint Félix","icon":"livraison"},"geometry":{"type":"Point","coordinates":[-1.5592196879628,47.2217386824751]}},{"type":"Feature","properties":{"title":"rue de gigant à coté du 1 rue huchette","Disque de livraison":"Oui","Longueur":5,"Largeur":2.5,"Quartier":"Centre Ville","icon":"livraison"},"geometry":{"type":"Point","coordinates":[-1.56898270452008,47.2142603916104]}},{"type":"Feature","properties":{"title":"1 rue joseph caille","Disque de livraison":"Oui","Longueur":5.2,"Largeur":1.95,"Quartier":"Hauts Pavés - Saint Félix","icon":"livraison"},"geometry":{"type":"Point","coordinates":[-1.56264257823823,47.2198852530032]}},{"type":"Feature","properties":{"title":"24 rue des olivettes","Disque de livraison":"Non","Longueur":10.5,"Largeur":1.75,"Quartier":"Centre Ville","icon":"livraison"},"geometry":{"type":"Point","coordinates":[-1.54939626999027,47.210755625772]}},{"type":"Feature","properties":{"title":"4 rue des olivettes","Disque de livraison":"Non","Longueur":7,"Largeur":1.9,"Quartier":"Centre Ville","icon":"livraison"},"geometry":{"type":"Point","coordinates":[-1.55008015594297,47.2121029111975]}},{"type":"Feature","properties":{"title":"2 chausse de la madeleine","Disque de livraison":"Oui","Longueur":8.5,"Largeur":2.45,"Quartier":"Centre Ville","icon":"livraison"},"geometry":{"type":"Point","coordinates":[-1.55257437774323,47.2121033922267]}},{"type":"Feature","properties":{"title":"2 chausse de la madeleine","Disque de livraison":"Oui","Longueur":14.5,"Largeur":2.45,"Quartier":"Centre Ville","icon":"livraison"},"geometry":{"type":"Point","coordinates":[-1.55245672279722,47.2119639297439]}},{"type":"Feature","properties":{"title":"2 rue laennec","Disque de livraison":"Non","Longueur":5.9,"Largeur":1.8,"Quartier":"Centre Ville","icon":"livraison"},"geometry":{"type":"Point","coordinates":[-1.5480732902693,47.212453302814]}},{"type":"Feature","properties":{"title":"1 place de l'édit de NANTES","Disque de livraison":"Oui","Longueur":7,"Largeur":2.35,"Quartier":"Centre Ville","icon":"livraison"},"geometry":{"type":"Point","coordinates":[-1.56736139852014,47.2144773234321]}},{"type":"Feature","properties":{"title":"11 rue Kleber","Disque de livraison":"Oui","Longueur":8.1,"Largeur":2.1,"Quartier":"Centre Ville","icon":"livraison"},"geometry":{"type":"Point","coordinates":[-1.56621644156866,47.2144562467438]}},{"type":"Feature","properties":{"title":"25 rue racine (devant cave vino vini)","Disque de livraison":"Oui","Longueur":13,"Largeur":2,"Quartier":"Centre Ville","icon":"livraison"},"geometry":{"type":"Point","coordinates":[-1.56580210631791,47.2145063914625]}},{"type":"Feature","properties":{"title":"en face le 1 place de la monnaie","Disque de livraison":"Oui","Longueur":6.5,"Largeur":1.85,"Quartier":"Centre Ville","icon":"livraison"},"geometry":{"type":"Point","coordinates":[-1.56465815910943,47.2128786054817]}},{"type":"Feature","properties":{"title":"3 place Paul-Emile Ladmirault","Disque de livraison":"Oui","Longueur":11,"Largeur":2.1,"Quartier":"Centre Ville","icon":"livraison"},"geometry":{"type":"Point","coordinates":[-1.56441013579279,47.2135897201157]}},{"type":"Feature","properties":{"title":"14 rue Voltaire","Disque de livraison":"Oui","Longueur":5.5,"Largeur":2,"Quartier":"Centre Ville","icon":"livraison"},"geometry":{"type":"Point","coordinates":[-1.56500833639173,47.2122393604021]}},{"type":"Feature","properties":{"title":"en face le 6 rue Athénas","Disque de livraison":"Oui","Longueur":7.1,"Largeur":1.95,"Quartier":"Centre Ville","icon":"livraison"},"geometry":{"type":"Point","coordinates":[-1.56524890724008,47.2127141437106]}},{"type":"Feature","properties":{"title":"En face le 15 rue Voltaire","Disque de livraison":"Oui","Longueur":10.4,"Largeur":2.6,"Quartier":"Centre Ville","icon":"livraison"},"geometry":{"type":"Point","coordinates":[-1.56545986026426,47.2120971521897]}},{"type":"Feature","properties":{"title":"En face le 2 rue Urvoy de Saint-Bedan","Disque de livraison":"Oui","Longueur":6.05,"Largeur":2,"Quartier":"Centre Ville","icon":"livraison"},"geometry":{"type":"Point","coordinates":[-1.56612526994654,47.2131436672257]}},{"type":"Feature","properties":{"title":"13 rue gresset","Disque de livraison":"Oui","Longueur":7.9,"Largeur":2,"Quartier":"Centre Ville","icon":"livraison"},"geometry":{"type":"Point","coordinates":[-1.56422480579611,47.2120027472886]}},{"type":"Feature","properties":{"title":"face 8 rue racine","Disque de livraison":"Oui","Longueur":9.7,"Largeur":2.05,"Quartier":"Centre Ville","icon":"livraison"},"geometry":{"type":"Point","coordinates":[-1.56394346878731,47.213773711875]}},{"type":"Feature","properties":{"title":"21 rue racine","Disque de livraison":"Oui","Longueur":10,"Largeur":2.05,"Quartier":"Centre Ville","icon":"livraison"},"geometry":{"type":"Point","coordinates":[-1.56511108854808,47.2142305349217]}},{"type":"Feature","properties":{"title":"5ème At rue Sévigné","Disque de livraison":"Oui","Longueur":8.4,"Largeur":1.85,"Quartier":"Centre Ville","icon":"livraison"},"geometry":{"type":"Point","coordinates":[-1.5668750759113,47.2147032686155]}},{"type":"Feature","properties":{"title":"5 rue copernic","Disque de livraison":"Oui","Longueur":15,"Largeur":2.4,"Quartier":"Centre Ville","icon":"livraison"},"geometry":{"type":"Point","coordinates":[-1.56500529477067,47.2147944346393]}},{"type":"Feature","properties":{"title":"5ème AT place Delorme","Disque de livraison":"Oui","Longueur":7.65,"Largeur":1.95,"Quartier":"Centre Ville","icon":"livraison"},"geometry":{"type":"Point","coordinates":[-1.56365138028095,47.2149609864072]}},{"type":"Feature","properties":{"title":"24 rue du calvaire","Disque de livraison":"Oui","Longueur":5.3,"Largeur":3.15,"Quartier":"Centre Ville","icon":"livraison"},"geometry":{"type":"Point","coordinates":[-1.56254037691441,47.2152813124463]}},{"type":"Feature","properties":{"title":"25 rue du calvaire","Disque de livraison":"Oui","Longueur":5.4,"Largeur":3.7,"Quartier":"Centre Ville","icon":"livraison"},"geometry":{"type":"Point","coordinates":[-1.56241103119584,47.2151897217366]}},{"type":"Feature","properties":{"title":"3 rue Menou","Disque de livraison":"Oui","Longueur":6.1,"Largeur":2.05,"Quartier":"Hauts Pavés - Saint Félix","icon":"livraison"},"geometry":{"type":"Point","coordinates":[-1.56322995061018,47.2201305797137]}},{"type":"Feature","properties":{"title":"12 rue ménou (en face le 7)","Disque de livraison":"Oui","Longueur":6.5,"Largeur":2.1,"Quartier":"Hauts Pavés - Saint Félix","icon":"livraison"},"geometry":{"type":"Point","coordinates":[-1.56348854767261,47.2199587921746]}},{"type":"Feature","properties":{"title":"10 place Edouard Normand","Disque de livraison":"Oui","Longueur":8.7,"Largeur":2,"Quartier":"Hauts Pavés - Saint Félix","icon":"livraison"},"geometry":{"type":"Point","coordinates":[-1.56344885116921,47.2192894054947]}},{"type":"Feature","properties":{"title":"En face le 15 rue de la bastille(entre 30-32)","Disque de livraison":"Non","Longueur":5.5,"Largeur":1.4,"Quartier":"Hauts Pavés - Saint Félix","icon":"livraison"},"geometry":{"type":"Point","coordinates":[-1.56633896430181,47.2185868996984]}},{"type":"Feature","properties":{"title":"2 rue marie anne du bocage","Disque de livraison":"Non","Longueur":10,"Largeur":1.85,"Quartier":"Hauts Pavés - Saint Félix","icon":"livraison"},"geometry":{"type":"Point","coordinates":[-1.56762462732189,47.216777790183]}},{"type":"Feature","properties":{"title":"En face le 8 rue lafayette (BNP Paribas)","Disque de livraison":"Oui","Longueur":15.3,"Largeur":1.9,"Quartier":"Centre Ville","icon":"livraison"},"geometry":{"type":"Point","coordinates":[-1.56150462822783,47.2160943904994]}},{"type":"Feature","properties":{"title":"En face le 6 rue de la fayette","Disque de livraison":"Oui","Longueur":11.75,"Largeur":1.9,"Quartier":"Centre Ville","icon":"livraison"},"geometry":{"type":"Point","coordinates":[-1.5611298367896,47.2157727315158]}},{"type":"Feature","properties":{"title":"1 rue de budapest","Disque de livraison":"Oui","Longueur":12,"Largeur":2,"Quartier":"Centre Ville","icon":"livraison"},"geometry":{"type":"Point","coordinates":[-1.56059633058021,47.2160167546685]}},{"type":"Feature","properties":{"title":"En face le 7 rue de Budapest","Disque de livraison":"Oui","Longueur":10,"Largeur":2.05,"Quartier":"Centre Ville","icon":"livraison"},"geometry":{"type":"Point","coordinates":[-1.56002172439215,47.2165283923737]}},{"type":"Feature","properties":{"title":"11 rue de la fayette","Disque de livraison":"Oui","Longueur":15.5,"Largeur":1.95,"Quartier":"Centre Ville","icon":"livraison"},"geometry":{"type":"Point","coordinates":[-1.56215870227215,47.2166738625811]}},{"type":"Feature","properties":{"title":"29 rue Jean Jaurès","Disque de livraison":"Oui","Longueur":7,"Largeur":1.95,"Quartier":"Centre Ville","icon":"livraison"},"geometry":{"type":"Point","coordinates":[-1.56188216370368,47.2182000961816]}},{"type":"Feature","properties":{"title":"En face le 1 rue de l'industrie (à gauche du 2)","Disque de livraison":"Oui","Longueur":6.5,"Largeur":1.85,"Quartier":"Centre Ville","icon":"livraison"},"geometry":{"type":"Point","coordinates":[-1.56090471243265,47.2185251740016]}},{"type":"Feature","properties":{"title":"En face le 7 rue de l'industrie","Disque de livraison":"Oui","Longueur":10.5,"Largeur":1.8,"Quartier":"Centre Ville","icon":"livraison"},"geometry":{"type":"Point","coordinates":[-1.56129042702991,47.2182479679524]}},{"type":"Feature","properties":{"title":"4 rue du du président herriot","Disque de livraison":"Oui","Longueur":5.25,"Largeur":2,"Quartier":"Centre Ville","icon":"livraison"},"geometry":{"type":"Point","coordinates":[-1.5601461028146,47.2185693947276]}},{"type":"Feature","properties":{"title":"en face le 12 rue Jean Jaurès","Disque de livraison":"Oui","Longueur":5.9,"Largeur":1.95,"Quartier":"Centre Ville","icon":"livraison"},"geometry":{"type":"Point","coordinates":[-1.56035090416818,47.2192187535636]}},{"type":"Feature","properties":{"title":"4 rue Jeanne d'arc (en face 25-27)","Disque de livraison":"Oui","Longueur":7,"Largeur":2,"Quartier":"Hauts Pavés - Saint Félix","icon":"livraison"},"geometry":{"type":"Point","coordinates":[-1.55755494240007,47.2206753310129]}},{"type":"Feature","properties":{"title":"10 bis rue de l'arche sêche","Disque de livraison":"Oui","Longueur":21,"Largeur":2,"Quartier":"Centre Ville","icon":"livraison"},"geometry":{"type":"Point","coordinates":[-1.55834110525193,47.2162229989901]}},{"type":"Feature","properties":{"title":"en face le 13 rue de l'arche sêche","Disque de livraison":"Oui","Longueur":15.6,"Largeur":1.9,"Quartier":"Centre Ville","icon":"livraison"},"geometry":{"type":"Point","coordinates":[-1.55834877160846,47.2166612930853]}},{"type":"Feature","properties":{"title":"A droite du 15 rue l'arche sêche (en dessous le po","Disque de livraison":"Oui","Longueur":5.1,"Largeur":2.1,"Quartier":"Centre Ville","icon":"livraison"},"geometry":{"type":"Point","coordinates":[-1.55840253661221,47.2170670727777]}},{"type":"Feature","properties":{"title":"en face le 2 rue de l'évêché","Disque de livraison":"Oui","Longueur":10.5,"Largeur":2.65,"Quartier":"Centre Ville","icon":"livraison"},"geometry":{"type":"Point","coordinates":[-1.55041987135868,47.2188657818462]}},{"type":"Feature","properties":{"title":"16 rue du roi albert","Disque de livraison":"Oui","Longueur":8.3,"Largeur":1.8,"Quartier":"Centre Ville","icon":"livraison"},"geometry":{"type":"Point","coordinates":[-1.55229850364292,47.2199364616985]}},{"type":"Feature","properties":{"title":"1 rue d'aguesseau","Disque de livraison":"Oui","Longueur":9.2,"Largeur":2,"Quartier":"Centre Ville","icon":"livraison"},"geometry":{"type":"Point","coordinates":[-1.55312246995068,47.2193741453501]}},{"type":"Feature","properties":{"title":"Après le 23 rue de strasbourg","Disque de livraison":"Oui","Longueur":6.1,"Largeur":1.9,"Quartier":"Centre Ville","icon":"livraison"},"geometry":{"type":"Point","coordinates":[-1.55250319547917,47.2174385846083]}},{"type":"Feature","properties":{"title":"29 rue de strasbourg","Disque de livraison":"Oui","Longueur":12.5,"Largeur":2.9,"Quartier":"Centre Ville","icon":"livraison"},"geometry":{"type":"Point","coordinates":[-1.55374439761532,47.2188454701818]}},{"type":"Feature","properties":{"title":"32 rue saint léonard","Disque de livraison":"Oui","Longueur":10.7,"Largeur":2.05,"Quartier":"Centre Ville","icon":"livraison"},"geometry":{"type":"Point","coordinates":[-1.55520982270825,47.2186278074604]}},{"type":"Feature","properties":{"title":"En face le 8 rue saint jean","Disque de livraison":"Oui","Longueur":6.5,"Largeur":1.85,"Quartier":"Centre Ville","icon":"livraison"},"geometry":{"type":"Point","coordinates":[-1.55332600252043,47.2186944878348]}},{"type":"Feature","properties":{"title":"7 rue de la commune","Disque de livraison":"Oui","Longueur":11.55,"Largeur":1.85,"Quartier":"Centre Ville","icon":"livraison"},"geometry":{"type":"Point","coordinates":[-1.55412739346937,47.2180720436514]}},{"type":"Feature","properties":{"title":"9 rue armand brossard","Disque de livraison":"Oui","Longueur":8.25,"Largeur":2.05,"Quartier":"Centre Ville","icon":"livraison"},"geometry":{"type":"Point","coordinates":[-1.55633570971221,47.2176569638131]}},{"type":"Feature","properties":{"title":"En face le 16 rue des carmélites","Disque de livraison":"Oui","Longueur":12.8,"Largeur":1.8,"Quartier":"Centre Ville","icon":"livraison"},"geometry":{"type":"Point","coordinates":[-1.55165927094181,47.2172255930442]}},{"type":"Feature","properties":{"title":"3 rue de verdun","Disque de livraison":"Oui","Longueur":11,"Largeur":2,"Quartier":"Centre Ville","icon":"livraison"},"geometry":{"type":"Point","coordinates":[-1.55168368134889,47.2177283297117]}},{"type":"Feature","properties":{"title":"75 rue du maréchal joffre","Disque de livraison":"Oui","Longueur":12,"Largeur":2,"Quartier":"Malakoff - Saint-Donatien","icon":"livraison"},"geometry":{"type":"Point","coordinates":[-1.54861313863712,47.2205993718057]}},{"type":"Feature","properties":{"title":"53 rue du maréchal joffre","Disque de livraison":"Oui","Longueur":5.2,"Largeur":1.9,"Quartier":"Malakoff - Saint-Donatien","icon":"livraison"},"geometry":{"type":"Point","coordinates":[-1.54811523570065,47.2210639882995]}},{"type":"Feature","properties":{"title":"47 rue du maréchal joffre","Disque de livraison":"Oui","Longueur":15.1,"Largeur":1.9,"Quartier":"Malakoff - Saint-Donatien","icon":"livraison"},"geometry":{"type":"Point","coordinates":[-1.5478772559681,47.2212701288644]}},{"type":"Feature","properties":{"title":"En face le 108 rue gambetta","Disque de livraison":"Oui","Longueur":14.2,"Largeur":3.05,"Quartier":"Malakoff - Saint-Donatien","icon":"livraison"},"geometry":{"type":"Point","coordinates":[-1.54757898739637,47.219977943968]}},{"type":"Feature","properties":{"title":"rue gambetta(en face la rue dugart-matifeux)","Disque de livraison":"Oui","Longueur":10.5,"Largeur":2.1,"Quartier":"Malakoff - Saint-Donatien","icon":"livraison"},"geometry":{"type":"Point","coordinates":[-1.54790415510371,47.2198462570196]}},{"type":"Feature","properties":{"title":"En face le 1 stanislas baudry","Disque de livraison":"Oui","Longueur":9.6,"Largeur":2.3,"Quartier":"Malakoff - Saint-Donatien","icon":"livraison"},"geometry":{"type":"Point","coordinates":[-1.54341768125942,47.2182761748179]}},{"type":"Feature","properties":{"title":"9 rue Paul Bellamy","Disque de livraison":"Oui","Longueur":12.5,"Largeur":2.5,"Quartier":"Hauts Pavés - Saint Félix","icon":"livraison"},"geometry":{"type":"Point","coordinates":[-1.55594206544268,47.2213860833819]}},{"type":"Feature","properties":{"title":"22 rue paul bellamy","Disque de livraison":"Oui","Longueur":8.2,"Largeur":2.5,"Quartier":"Hauts Pavés - Saint Félix","icon":"livraison"},"geometry":{"type":"Point","coordinates":[-1.55625172153373,47.221978249032]}},{"type":"Feature","properties":{"title":"29 rue paul bellamy","Disque de livraison":"Oui","Longueur":5,"Largeur":2,"Quartier":"Hauts Pavés - Saint Félix","icon":"livraison"},"geometry":{"type":"Point","coordinates":[-1.55789384970308,47.2236047619866]}},{"type":"Feature","properties":{"title":"72 rue Paul Bellamy","Disque de livraison":"Oui","Longueur":8.7,"Largeur":2,"Quartier":"Hauts Pavés - Saint Félix","icon":"livraison"},"geometry":{"type":"Point","coordinates":[-1.55888810058802,47.2250694710836]}},{"type":"Feature","properties":{"title":"En face le 81 rue paul bellamy","Disque de livraison":"Oui","Longueur":6.3,"Largeur":2.5,"Quartier":"Hauts Pavés - Saint Félix","icon":"livraison"},"geometry":{"type":"Point","coordinates":[-1.5596315397614,47.2259389949571]}},{"type":"Feature","properties":{"title":"109 rue Paul Bellamy","Disque de livraison":"Oui","Longueur":8.3,"Largeur":2.1,"Quartier":"Hauts Pavés - Saint Félix","icon":"livraison"},"geometry":{"type":"Point","coordinates":[-1.56070196789184,47.2269924882819]}},{"type":"Feature","properties":{"title":"127 rue Paul Bellamy","Disque de livraison":"Oui","Longueur":5.8,"Largeur":1.85,"Quartier":"Hauts Pavés - Saint Félix","icon":"livraison"},"geometry":{"type":"Point","coordinates":[-1.56174854566289,47.2282170406494]}},{"type":"Feature","properties":{"title":"172 rue Paul Bellamy","Disque de livraison":"Oui","Longueur":7.1,"Largeur":2.25,"Quartier":"Hauts Pavés - Saint Félix","icon":"livraison"},"geometry":{"type":"Point","coordinates":[-1.56345137659463,47.2304842967984]}},{"type":"Feature","properties":{"title":"192 rue Paul Bellamy","Disque de livraison":"Oui","Longueur":6.2,"Largeur":2.5,"Quartier":"Hauts Pavés - Saint Félix","icon":"livraison"},"geometry":{"type":"Point","coordinates":[-1.56414246804978,47.2313194494374]}},{"type":"Feature","properties":{"title":"219 rue Paul Bellamy","Disque de livraison":"Oui","Longueur":15.3,"Largeur":2.15,"Quartier":"Hauts Pavés - Saint Félix","icon":"livraison"},"geometry":{"type":"Point","coordinates":[-1.56558826577347,47.2328224885749]}},{"type":"Feature","properties":{"title":"43 rue lamoricière","Disque de livraison":"Non","Longueur":13.2,"Largeur":2,"Quartier":"Dervallières - Zola","icon":"livraison"},"geometry":{"type":"Point","coordinates":[-1.57224065673237,47.2143480789541]}},{"type":"Feature","properties":{"title":"2 place canclaux","Disque de livraison":"Non","Longueur":12,"Largeur":2,"Quartier":"Dervallières - Zola","icon":"livraison"},"geometry":{"type":"Point","coordinates":[-1.57435266266879,47.2147118994107]}},{"type":"Feature","properties":{"title":"2 rue porte neuve","Disque de livraison":"Oui","Longueur":4.9,"Largeur":1.9,"Quartier":"Hauts Pavés - Saint Félix","icon":"livraison"},"geometry":{"type":"Point","coordinates":[-1.56122725013335,47.219252070158]}},{"type":"Feature","properties":{"title":"23 bis rue Jean Jaurès","Disque de livraison":"Oui","Longueur":10,"Largeur":2.1,"Quartier":"Centre Ville","icon":"livraison"},"geometry":{"type":"Point","coordinates":[-1.56132023748968,47.2185740693538]}},{"type":"Feature","properties":{"title":"6 rue Talensac","Disque de livraison":"Oui","Longueur":4.15,"Largeur":2.05,"Quartier":"Hauts Pavés - Saint Félix","icon":"livraison"},"geometry":{"type":"Point","coordinates":[-1.55657849550833,47.2213274439934]}},{"type":"Feature","properties":{"title":"91 rue du maréchal joffre","Disque de livraison":"Oui","Longueur":10,"Largeur":1.9,"Quartier":"Malakoff - Saint-Donatien","icon":"livraison"},"geometry":{"type":"Point","coordinates":[-1.54914029547082,47.2200997146105]}},{"type":"Feature","properties":{"title":"65 rue du maréchal joffre","Disque de livraison":"Oui","Longueur":7,"Largeur":1.95,"Quartier":"Malakoff - Saint-Donatien","icon":"livraison"},"geometry":{"type":"Point","coordinates":[-1.54841144144294,47.220783653156]}},{"type":"Feature","properties":{"title":"26 rue du maréchal joffre","Disque de livraison":"Oui","Longueur":5,"Largeur":1.95,"Quartier":"Malakoff - Saint-Donatien","icon":"livraison"},"geometry":{"type":"Point","coordinates":[-1.5472171850345,47.2219630916022]}},{"type":"Feature","properties":{"title":"13 place trébuchet","Disque de livraison":"Oui","Longueur":5.95,"Largeur":1.95,"Quartier":"Malakoff - Saint-Donatien","icon":"livraison"},"geometry":{"type":"Point","coordinates":[-1.54524863712419,47.2202370186517]}},{"type":"Feature","properties":{"title":"5 rue labouchère","Disque de livraison":"Oui","Longueur":7.2,"Largeur":1.9,"Quartier":"Malakoff - Saint-Donatien","icon":"livraison"},"geometry":{"type":"Point","coordinates":[-1.54916401082968,47.2200091413939]}},{"type":"Feature","properties":{"title":"18 rue franklin","Disque de livraison":"Oui","Longueur":9,"Largeur":2.3,"Quartier":"Centre Ville","icon":"livraison"},"geometry":{"type":"Point","coordinates":[-1.56337920755711,47.2146967438178]}},{"type":"Feature","properties":{"title":"1 rue buffon","Disque de livraison":"Oui","Longueur":8.7,"Largeur":2,"Quartier":"Centre Ville","icon":"livraison"},"geometry":{"type":"Point","coordinates":[-1.56357059902113,47.2145798554007]}},{"type":"Feature","properties":{"title":"4 rue buffon","Disque de livraison":"Oui","Longueur":9.8,"Largeur":2,"Quartier":"Centre Ville","icon":"livraison"},"geometry":{"type":"Point","coordinates":[-1.56411049461535,47.2147978897184]}},{"type":"Feature","properties":{"title":"2 rue franklin","Disque de livraison":"Oui","Longueur":10.5,"Largeur":2.3,"Quartier":"Centre Ville","icon":"livraison"},"geometry":{"type":"Point","coordinates":[-1.56295482830038,47.2135698277949]}},{"type":"Feature","properties":{"title":"1 place ladmirault","Disque de livraison":"Oui","Longueur":10.3,"Largeur":1.95,"Quartier":"Centre Ville","icon":"livraison"},"geometry":{"type":"Point","coordinates":[-1.56431869570208,47.213831182364]}},{"type":"Feature","properties":{"title":"face 25 rue Voltaire","Disque de livraison":"Non","Longueur":5.6,"Largeur":1.95,"Quartier":"Centre Ville","icon":"livraison"},"geometry":{"type":"Point","coordinates":[-1.56714131696457,47.2115015654318]}},{"type":"Feature","properties":{"title":"5 rue rosière d'artois","Disque de livraison":"Oui","Longueur":9.4,"Largeur":2,"Quartier":"Centre Ville","icon":"livraison"},"geometry":{"type":"Point","coordinates":[-1.56712740007276,47.2120582290156]}},{"type":"Feature","properties":{"title":"26 rue rosière d'artois","Disque de livraison":"Oui","Longueur":10.1,"Largeur":2.1,"Quartier":"Centre Ville","icon":"livraison"},"geometry":{"type":"Point","coordinates":[-1.56732655010682,47.2140203419467]}},{"type":"Feature","properties":{"title":"15 place trébuchet","Disque de livraison":"Oui","Longueur":5.6,"Largeur":2.4,"Quartier":"Malakoff - Saint-Donatien","icon":"livraison"},"geometry":{"type":"Point","coordinates":[-1.54533554567366,47.2202867179942]}},{"type":"Feature","properties":{"title":"16 / 20 rue des carmélites","Disque de livraison":"Oui","Longueur":14,"Largeur":1.85,"Quartier":"Centre Ville","icon":"livraison"},"geometry":{"type":"Point","coordinates":[-1.55162562819019,47.2173670642659]}},{"type":"Feature","properties":{"title":"face 18 rue de marceau (3 epis)","Disque de livraison":"Oui","Longueur":5,"Largeur":6,"Quartier":"Centre Ville","icon":"livraison"},"geometry":{"type":"Point","coordinates":[-1.56362095471755,47.2161228957884]}},{"type":"Feature","properties":{"title":"5 rue du chapeau rouge","Disque de livraison":"Oui","Longueur":11,"Largeur":2,"Quartier":"Centre Ville","icon":"livraison"},"geometry":{"type":"Point","coordinates":[-1.56024248429611,47.2150050814853]}},{"type":"Feature","properties":{"title":"6 rue richebourg","Disque de livraison":"Oui","Longueur":6,"Largeur":1.8,"Quartier":"Malakoff - Saint-Donatien","icon":"livraison"},"geometry":{"type":"Point","coordinates":[-1.54497412706033,47.2178306290985]}},{"type":"Feature","properties":{"title":"6 allee duguay trouin","Disque de livraison":"Oui","Longueur":10.5,"Largeur":2.1,"Quartier":"Centre Ville","icon":"livraison"},"geometry":{"type":"Point","coordinates":[-1.55523344214537,47.2135377385957]}},{"type":"Feature","properties":{"title":"13 allee duguay trouin","Disque de livraison":"Oui","Longueur":10.5,"Largeur":2.1,"Quartier":"Centre Ville","icon":"livraison"},"geometry":{"type":"Point","coordinates":[-1.55638817994971,47.2131107531541]}},{"type":"Feature","properties":{"title":"17 allee duguay trouin","Disque de livraison":"Oui","Longueur":10.5,"Largeur":2.1,"Quartier":"Centre Ville","icon":"livraison"},"geometry":{"type":"Point","coordinates":[-1.55713995538242,47.2127654736863]}},{"type":"Feature","properties":{"title":"15-17 rue bel air","Disque de livraison":"Non","Longueur":14,"Largeur":2,"Quartier":"Hauts Pavés - Saint Félix","icon":"livraison"},"geometry":{"type":"Point","coordinates":[-1.55914426071102,47.2214099952103]}},{"type":"Feature","properties":{"title":"14 rue boileau","Disque de livraison":"Oui","Longueur":10,"Largeur":2,"Quartier":"Centre Ville","icon":"livraison"},"geometry":{"type":"Point","coordinates":[-1.56070547186281,47.2152277952104]}},{"type":"Feature","properties":{"title":"24 allee commandant charco angle henry 4","Disque de livraison":"Oui","Longueur":12,"Largeur":1.9,"Quartier":"Malakoff - Saint-Donatien","icon":"livraison"},"geometry":{"type":"Point","coordinates":[-1.54681076871417,47.2165924234388]}},{"type":"Feature","properties":{"title":"2 rue Voltaire","Disque de livraison":"Oui","Longueur":5.5,"Largeur":2,"Quartier":"Centre Ville","icon":"livraison"},"geometry":{"type":"Point","coordinates":[-1.56297623511989,47.2129282976717]}},{"type":"Feature","properties":{"title":"En face du 3 rue des cadeniers","Disque de livraison":"Oui","Longueur":5,"Largeur":2,"Quartier":"Centre Ville","icon":"livraison"},"geometry":{"type":"Point","coordinates":[-1.56399824624658,47.2113252365936]}},{"type":"Feature","properties":{"title":"2 rue Saint Vincent","Disque de livraison":"Oui","Longueur":15,"Largeur":2,"Quartier":"Centre Ville","icon":"livraison"},"geometry":{"type":"Point","coordinates":[-1.55333264299685,47.2175148178483]}},{"type":"Feature","properties":{"title":"9 rue Mercoeur","Disque de livraison":"Oui","Longueur":15,"Largeur":2,"Quartier":"Centre Ville","icon":"livraison"},"geometry":{"type":"Point","coordinates":[-1.56091026981433,47.2174992866376]}},{"type":"Feature","properties":{"title":"3 place saint pierre","Disque de livraison":"Oui","Longueur":7,"Largeur":4,"Quartier":"Centre Ville","icon":"livraison"},"geometry":{"type":"Point","coordinates":[-1.55172134562488,47.2182884048125]}},{"type":"Feature","properties":{"title":"Allée de la bourse","Disque de livraison":"Oui","Longueur":11,"Largeur":4.5,"Quartier":"Centre Ville","icon":"livraison"},"geometry":{"type":"Point","coordinates":[-1.55878169964596,47.2123302653087]}},{"type":"Feature","properties":{"title":"24 rue De Cornulier","Disque de livraison":"Oui","Longueur":7,"Largeur":2,"Quartier":"Malakoff - Saint-Donatien","icon":"livraison"},"geometry":{"type":"Point","coordinates":[-1.54074557209031,47.2153643484719]}},{"type":"Feature","properties":{"title":"6 rue Voltaire","Disque de livraison":"Oui","Longueur":15,"Largeur":2.5,"Quartier":"Centre Ville","icon":"livraison"},"geometry":{"type":"Point","coordinates":[-1.56356813505914,47.2127380083714]}},{"type":"Feature","properties":{"title":"7bis rue Gresset","Disque de livraison":"Oui","Longueur":15,"Largeur":2.5,"Quartier":"Centre Ville","icon":"livraison"},"geometry":{"type":"Point","coordinates":[-1.56347188785334,47.2124771002119]}},{"type":"Feature","properties":{"title":"14 rue du Chapeau Rouge","Disque de livraison":"Oui","Longueur":6,"Largeur":2,"Quartier":"Centre Ville","icon":"livraison"},"geometry":{"type":"Point","coordinates":[-1.56154065510537,47.2151335126505]}},{"type":"Feature","properties":{"title":"5 place Edouard Normand","Disque de livraison":"Oui","Longueur":6,"Largeur":3,"Quartier":"Hauts Pavés - Saint Félix","icon":"livraison"},"geometry":{"type":"Point","coordinates":[-1.56309170533035,47.2186699702612]}},{"type":"Feature","properties":{"title":"31 bd des Martyrs Nantais","Disque de livraison":"Non","Longueur":2.5,"Largeur":5,"Quartier":"Ile de Nantes","icon":"livraison"},"geometry":{"type":"Point","coordinates":[-1.54507849271328,47.2020846968322]}},{"type":"Feature","properties":{"title":"115 rue de la Convention","Disque de livraison":"Non","Longueur":5,"Largeur":2.5,"Quartier":"Dervallières - Zola","icon":"livraison"},"geometry":{"type":"Point","coordinates":[-1.59562456005715,47.2100245932778]}},{"type":"Feature","properties":{"title":"65 avenue Camus","Disque de livraison":"Non","Longueur":10,"Largeur":2.5,"Quartier":"Hauts Pavés - Saint Félix","icon":"livraison"},"geometry":{"type":"Point","coordinates":[-1.57529187909539,47.2199158875299]}},{"type":"Feature","properties":{"title":"10 rue Maréchal de Lattre de Tassigny","Disque de livraison":"Oui","Longueur":15,"Largeur":2,"Quartier":"Centre Ville","icon":"livraison"},"geometry":{"type":"Point","coordinates":[-1.56072116830149,47.2118870298237]}},{"type":"Feature","properties":{"title":"11 B rue Maréchal de Lattre de Tassigny","Disque de livraison":"Oui","Longueur":15,"Largeur":2,"Quartier":"Centre Ville","icon":"livraison"},"geometry":{"type":"Point","coordinates":[-1.56130377831266,47.2119643263761]}},{"type":"Feature","properties":{"title":"9 bis quai barbusse","Disque de livraison":"Non","Longueur":6,"Largeur":2,"Quartier":"Malakoff - Saint-Donatien","icon":"livraison"},"geometry":{"type":"Point","coordinates":[-1.55269490298751,47.2243694788358]}},{"type":"Feature","properties":{"title":"En face du 1 quai de la Fosse","Disque de livraison":"Oui","Longueur":15,"Largeur":2,"Quartier":"Centre Ville","icon":"livraison"},"geometry":{"type":"Point","coordinates":[-1.55940901068847,47.2119190078667]}},{"type":"Feature","properties":{"title":"15 bis rue de Strasbourg","Disque de livraison":"Oui","Longueur":15,"Largeur":1.5,"Quartier":"Centre Ville","icon":"livraison"},"geometry":{"type":"Point","coordinates":[-1.55185454180209,47.2165988428651]}},{"type":"Feature","properties":{"title":"1 bis rue d'Alger","Disque de livraison":"Non","Longueur":6,"Largeur":2,"Quartier":"Centre Ville","icon":"livraison"},"geometry":{"type":"Point","coordinates":[-1.56634728895738,47.2107679482533]}},{"type":"Feature","properties":{"title":"2 rue d'Alger","Disque de livraison":"Non","Longueur":5,"Largeur":2,"Quartier":"Centre Ville","icon":"livraison"},"geometry":{"type":"Point","coordinates":[-1.56774398619032,47.2113139845983]}},{"type":"Feature","properties":{"title":"9 rue Mazagran","Disque de livraison":"Non","Longueur":6,"Largeur":2,"Quartier":"Centre Ville","icon":"livraison"},"geometry":{"type":"Point","coordinates":[-1.56859158001749,47.2097095616254]}},{"type":"Feature","properties":{"title":"5 place René Bouhier","Disque de livraison":"Non","Longueur":5,"Largeur":2,"Quartier":"Dervallières - Zola","icon":"livraison"},"geometry":{"type":"Point","coordinates":[-1.57028368338693,47.2094272617838]}},{"type":"Feature","properties":{"title":"3 bis rue de la Brasserie","Disque de livraison":"Non","Longueur":5,"Largeur":2,"Quartier":"Dervallières - Zola","icon":"livraison"},"geometry":{"type":"Point","coordinates":[-1.57225965708874,47.2089887795157]}},{"type":"Feature","properties":{"title":"16 rue Dobrée","Disque de livraison":"Non","Longueur":6,"Largeur":2,"Quartier":"Centre Ville","icon":"livraison"},"geometry":{"type":"Point","coordinates":[-1.57007793245596,47.2102391172626]}},{"type":"Feature","properties":{"title":"rue Dudrezene","Disque de livraison":"Non","Longueur":6,"Largeur":2,"Quartier":"Dervallières - Zola","icon":"livraison"},"geometry":{"type":"Point","coordinates":[-1.57503464206196,47.2094343166335]}},{"type":"Feature","properties":{"title":"13 rue Rollin","Disque de livraison":"Non","Longueur":5,"Largeur":2,"Quartier":"Dervallières - Zola","icon":"livraison"},"geometry":{"type":"Point","coordinates":[-1.57613213264927,47.2108582375866]}},{"type":"Feature","properties":{"title":"8 place Canclaux","Disque de livraison":"Non","Longueur":12,"Largeur":2,"Quartier":"Dervallières - Zola","icon":"livraison"},"geometry":{"type":"Point","coordinates":[-1.57503673872266,47.2143739570562]}},{"type":"Feature","properties":{"title":"1 rue huchette","Disque de livraison":"Non","Longueur":5,"Largeur":2,"Quartier":"Centre Ville","icon":"livraison"},"geometry":{"type":"Point","coordinates":[-1.56896905809717,47.2141979082886]}},{"type":"Feature","properties":{"title":"19 rue Colbert","Disque de livraison":"Non","Longueur":15,"Largeur":2,"Quartier":"Centre Ville","icon":"livraison"},"geometry":{"type":"Point","coordinates":[-1.56919851466168,47.2155573965729]}},{"type":"Feature","properties":{"title":"En face du 21 rue Colbert","Disque de livraison":"Non","Longueur":8,"Largeur":2,"Quartier":"Centre Ville","icon":"livraison"},"geometry":{"type":"Point","coordinates":[-1.5692613251556,47.2160237492925]}},{"type":"Feature","properties":{"title":"En face du 5 rue du 14 juillet","Disque de livraison":"Non","Longueur":5,"Largeur":2,"Quartier":"Hauts Pavés - Saint Félix","icon":"livraison"},"geometry":{"type":"Point","coordinates":[-1.56818372633264,47.2179434679644]}},{"type":"Feature","properties":{"title":"56 rue de la Bastille","Disque de livraison":"Non","Longueur":18,"Largeur":2,"Quartier":"Hauts Pavés - Saint Félix","icon":"livraison"},"geometry":{"type":"Point","coordinates":[-1.56928185932754,47.219065083042]}},{"type":"Feature","properties":{"title":"39 rue de la Bastille","Disque de livraison":"Non","Longueur":5,"Largeur":2,"Quartier":"Hauts Pavés - Saint Félix","icon":"livraison"},"geometry":{"type":"Point","coordinates":[-1.56961242050764,47.2190910303189]}},{"type":"Feature","properties":{"title":"3 place Sarradin","Disque de livraison":"Non","Longueur":10,"Largeur":5,"Quartier":"Hauts Pavés - Saint Félix","icon":"livraison"},"geometry":{"type":"Point","coordinates":[-1.57027717144511,47.2209145643037]}},{"type":"Feature","properties":{"title":"13 rue d'Auvours","Disque de livraison":"Non","Longueur":5,"Largeur":2,"Quartier":"Hauts Pavés - Saint Félix","icon":"livraison"},"geometry":{"type":"Point","coordinates":[-1.56462194754352,47.2219181841531]}},{"type":"Feature","properties":{"title":"2 rue Bergère","Disque de livraison":"Non","Longueur":8,"Largeur":2,"Quartier":"Hauts Pavés - Saint Félix","icon":"livraison"},"geometry":{"type":"Point","coordinates":[-1.56441626502523,47.2210913758748]}},{"type":"Feature","properties":{"title":"3 rue Félibien","Disque de livraison":"Non","Longueur":18,"Largeur":2,"Quartier":"Hauts Pavés - Saint Félix","icon":"livraison"},"geometry":{"type":"Point","coordinates":[-1.56350472629828,47.2208250337909]}},{"type":"Feature","properties":{"title":"1 rue Sarrazin","Disque de livraison":"Non","Longueur":5,"Largeur":2,"Quartier":"Hauts Pavés - Saint Félix","icon":"livraison"},"geometry":{"type":"Point","coordinates":[-1.55943238626575,47.2201248431273]}},{"type":"Feature","properties":{"title":"20 rue Bodiguel","Disque de livraison":"Non","Longueur":5,"Largeur":2,"Quartier":"Hauts Pavés - Saint Félix","icon":"livraison"},"geometry":{"type":"Point","coordinates":[-1.56133139850374,47.2219087616187]}},{"type":"Feature","properties":{"title":"1 rue des Hauts Pavés","Disque de livraison":"Non","Longueur":18,"Largeur":2,"Quartier":"Hauts Pavés - Saint Félix","icon":"livraison"},"geometry":{"type":"Point","coordinates":[-1.56269640298928,47.2219750753836]}},{"type":"Feature","properties":{"title":"10 bis rue des Hauts Pavés","Disque de livraison":"Non","Longueur":10,"Largeur":2,"Quartier":"Hauts Pavés - Saint Félix","icon":"livraison"},"geometry":{"type":"Point","coordinates":[-1.56311852705026,47.2226129515452]}},{"type":"Feature","properties":{"title":"26 rue des Hauts Pavés","Disque de livraison":"Non","Longueur":12,"Largeur":2,"Quartier":"Hauts Pavés - Saint Félix","icon":"livraison"},"geometry":{"type":"Point","coordinates":[-1.56367440065772,47.2233608412951]}},{"type":"Feature","properties":{"title":"28 rue des Hauts Pavés","Disque de livraison":"Non","Longueur":5,"Largeur":2,"Quartier":"Hauts Pavés - Saint Félix","icon":"livraison"},"geometry":{"type":"Point","coordinates":[-1.56383771873512,47.2235441518372]}},{"type":"Feature","properties":{"title":"39 rue de Bel Air","Disque de livraison":"Non","Longueur":8,"Largeur":2,"Quartier":"Hauts Pavés - Saint Félix","icon":"livraison"},"geometry":{"type":"Point","coordinates":[-1.5592484005698,47.2227572179622]}},{"type":"Feature","properties":{"title":"57 rue de Bel Air","Disque de livraison":"Non","Longueur":6,"Largeur":2,"Quartier":"Hauts Pavés - Saint Félix","icon":"livraison"},"geometry":{"type":"Point","coordinates":[-1.55921254226065,47.2238666775863]}},{"type":"Feature","properties":{"title":"Face au 50 rue de Bel Air","Disque de livraison":"Non","Longueur":5,"Largeur":2,"Quartier":"Hauts Pavés - Saint Félix","icon":"livraison"},"geometry":{"type":"Point","coordinates":[-1.55918808840844,47.224467030782]}},{"type":"Feature","properties":{"title":"14 bis rue Lamoricière","Disque de livraison":"Non","Longueur":6,"Largeur":2,"Quartier":"Centre Ville","icon":"livraison"},"geometry":{"type":"Point","coordinates":[-1.57129714469619,47.2120665545725]}},{"type":"Feature","properties":{"title":"1 rue Lamoricière","Disque de livraison":"Non","Longueur":9,"Largeur":2,"Quartier":"Dervallières - Zola","icon":"livraison"},"geometry":{"type":"Point","coordinates":[-1.5707070763765,47.210082611599]}},{"type":"Feature","properties":{"title":"2 rue Lamoricière","Disque de livraison":"Non","Longueur":5,"Largeur":2,"Quartier":"Centre Ville","icon":"livraison"},"geometry":{"type":"Point","coordinates":[-1.5705794263575,47.2100972579896]}},{"type":"Feature","properties":{"title":"1 rue Catinat","Disque de livraison":"Non","Longueur":6,"Largeur":2,"Quartier":"Dervallières - Zola","icon":"livraison"},"geometry":{"type":"Point","coordinates":[-1.57226307209995,47.2124362415641]}},{"type":"Feature","properties":{"title":"3 bis rue Désiré Colombe","Disque de livraison":"Non","Longueur":12,"Largeur":2,"Quartier":"Centre Ville","icon":"livraison"},"geometry":{"type":"Point","coordinates":[-1.56855390953465,47.211849961957]}},{"type":"Feature","properties":{"title":"12 rue de Savenay","Disque de livraison":"Non","Longueur":25,"Largeur":2,"Quartier":"Hauts Pavés - Saint Félix","icon":"livraison"},"geometry":{"type":"Point","coordinates":[-1.56039917000687,47.2222942168053]}},{"type":"Feature","properties":{"title":"29 rue de Savenay","Disque de livraison":"Non","Longueur":10,"Largeur":2,"Quartier":"Hauts Pavés - Saint Félix","icon":"livraison"},"geometry":{"type":"Point","coordinates":[-1.56148366964238,47.2223772502989]}},{"type":"Feature","properties":{"title":"17 rue de la Distillerie","Disque de livraison":"Non","Longueur":8,"Largeur":2,"Quartier":"Hauts Pavés - Saint Félix","icon":"livraison"},"geometry":{"type":"Point","coordinates":[-1.55551318139397,47.2238193052733]}},{"type":"Feature","properties":{"title":"12 allée de la Reine Margot","Disque de livraison":"Non","Longueur":10,"Largeur":2,"Quartier":"Malakoff - Saint-Donatien","icon":"livraison"},"geometry":{"type":"Point","coordinates":[-1.55043021537221,47.2234913665972]}},{"type":"Feature","properties":{"title":"Face au 20 bis rue Monfoulon","Disque de livraison":"Non","Longueur":10,"Largeur":2,"Quartier":"Malakoff - Saint-Donatien","icon":"livraison"},"geometry":{"type":"Point","coordinates":[-1.5491403153556,47.2246472192486]}},{"type":"Feature","properties":{"title":"Face au 21 rue Général Margueritte","Disque de livraison":"Non","Longueur":18,"Largeur":2,"Quartier":"Malakoff - Saint-Donatien","icon":"livraison"},"geometry":{"type":"Point","coordinates":[-1.54910307153923,47.2264914145018]}},{"type":"Feature","properties":{"title":"1 place Waldeck Rousseau","Disque de livraison":"Non","Longueur":15,"Largeur":2,"Quartier":"Malakoff - Saint-Donatien","icon":"livraison"},"geometry":{"type":"Point","coordinates":[-1.55277256344384,47.2271467528458]}},{"type":"Feature","properties":{"title":"3 bd Stalingrad","Disque de livraison":"Non","Longueur":5,"Largeur":2,"Quartier":"Malakoff - Saint-Donatien","icon":"livraison"},"geometry":{"type":"Point","coordinates":[-1.53345405441728,47.2197079904665]}},{"type":"Feature","properties":{"title":"11 bd de Stalingrad","Disque de livraison":"Non","Longueur":15,"Largeur":2,"Quartier":"Malakoff - Saint-Donatien","icon":"livraison"},"geometry":{"type":"Point","coordinates":[-1.53602938285125,47.219192243533]}},{"type":"Feature","properties":{"title":"1 rue Julien Videment","Disque de livraison":"Non","Longueur":6,"Largeur":2,"Quartier":"Ile de Nantes","icon":"livraison"},"geometry":{"type":"Point","coordinates":[-1.56413017243914,47.2077328715427]}},{"type":"Feature","properties":{"title":"rue Soudeac","Disque de livraison":"Non","Longueur":8,"Largeur":2,"Quartier":"Ile de Nantes","icon":"livraison"},"geometry":{"type":"Point","coordinates":[-1.56408964771507,47.2073637924455]}},{"type":"Feature","properties":{"title":"14 rue Barbe Torte","Disque de livraison":"Non","Longueur":5,"Largeur":2,"Quartier":"Ile de Nantes","icon":"livraison"},"geometry":{"type":"Point","coordinates":[-1.55647519786394,47.2049589716103]}},{"type":"Feature","properties":{"title":"16 rue Pierre Landais","Disque de livraison":"Non","Longueur":8,"Largeur":2,"Quartier":"Ile de Nantes","icon":"livraison"},"geometry":{"type":"Point","coordinates":[-1.55944374889517,47.2054685035508]}},{"type":"Feature","properties":{"title":"5 rue Louis Blanc","Disque de livraison":"Non","Longueur":5,"Largeur":2,"Quartier":"Ile de Nantes","icon":"livraison"},"geometry":{"type":"Point","coordinates":[-1.55490202075086,47.2067302018561]}},{"type":"Feature","properties":{"title":"26 rue Louis Blanc","Disque de livraison":"Non","Longueur":5,"Largeur":2,"Quartier":"Ile de Nantes","icon":"livraison"},"geometry":{"type":"Point","coordinates":[-1.55484113855767,47.205955243837]}},{"type":"Feature","properties":{"title":"9 quai André Rhuys","Disque de livraison":"Non","Longueur":25,"Largeur":2,"Quartier":"Ile de Nantes","icon":"livraison"},"geometry":{"type":"Point","coordinates":[-1.55448169841369,47.2072180312339]}},{"type":"Feature","properties":{"title":"place des Erables","Disque de livraison":"Non","Longueur":12,"Largeur":3,"Quartier":"Ile de Nantes","icon":"livraison"},"geometry":{"type":"Point","coordinates":[-1.55786174241874,47.2071172798079]}},{"type":"Feature","properties":{"title":"5 promenade José Arribas","Disque de livraison":"Non","Longueur":55,"Largeur":4,"Quartier":"Ile de Nantes","icon":"livraison"},"geometry":{"type":"Point","coordinates":[-1.53709135968966,47.2100523075648]}},{"type":"Feature","properties":{"title":"Face au 3 rue Arthur III","Disque de livraison":"Non","Longueur":6,"Largeur":2,"Quartier":"Ile de Nantes","icon":"livraison"},"geometry":{"type":"Point","coordinates":[-1.5621485881622,47.2066184020917]}},{"type":"Feature","properties":{"title":"9 bd de la Prairie au Duc","Disque de livraison":"Non","Longueur":5,"Largeur":2,"Quartier":"Ile de Nantes","icon":"livraison"},"geometry":{"type":"Point","coordinates":[-1.55619098573459,47.2051109731627]}},{"type":"Feature","properties":{"title":"32 bd de la Prairie au Duc","Disque de livraison":"Non","Longueur":5,"Largeur":2,"Quartier":"Ile de Nantes","icon":"livraison"},"geometry":{"type":"Point","coordinates":[-1.55827398352309,47.2049580435459]}},{"type":"Feature","properties":{"title":"17 bd de la Prairie au Duc","Disque de livraison":"Non","Longueur":5,"Largeur":2,"Quartier":"Ile de Nantes","icon":"livraison"},"geometry":{"type":"Point","coordinates":[-1.55769436170565,47.2049415147756]}},{"type":"Feature","properties":{"title":"21 bd de la Prairie au Duc","Disque de livraison":"Non","Longueur":6,"Largeur":2,"Quartier":"Ile de Nantes","icon":"livraison"},"geometry":{"type":"Point","coordinates":[-1.55799805418159,47.2049116463168]}},{"type":"Feature","properties":{"title":"12 rue Lanoue Bras de Fer","Disque de livraison":"Non","Longueur":10,"Largeur":2,"Quartier":"Ile de Nantes","icon":"livraison"},"geometry":{"type":"Point","coordinates":[-1.55879107111612,47.2072571671308]}},{"type":"Feature","properties":{"title":"87 quai de la Fosse","Disque de livraison":"Non","Longueur":5,"Largeur":2,"Quartier":"Dervallières - Zola","icon":"livraison"},"geometry":{"type":"Point","coordinates":[-1.5693609683627,47.2084452114643]}},{"type":"Feature","properties":{"title":"24 bd Babib Chevaye","Disque de livraison":"Non","Longueur":10,"Largeur":2,"Quartier":"Ile de Nantes","icon":"livraison"},"geometry":{"type":"Point","coordinates":[-1.55142881659273,47.2056731351931]}},{"type":"Feature","properties":{"title":"1 bd Babin Chevaye","Disque de livraison":"Non","Longueur":5,"Largeur":2,"Quartier":"Ile de Nantes","icon":"livraison"},"geometry":{"type":"Point","coordinates":[-1.55141369741546,47.2055900622551]}},{"type":"Feature","properties":{"title":"33 bd Babin Chevaye","Disque de livraison":"Non","Longueur":5,"Largeur":2,"Quartier":"Ile de Nantes","icon":"livraison"},"geometry":{"type":"Point","coordinates":[-1.55383785579842,47.2053390250264]}},{"type":"Feature","properties":{"title":"10 rue Konrad Adenauer","Disque de livraison":"Non","Longueur":18,"Largeur":4,"Quartier":"Ile de Nantes","icon":"livraison"},"geometry":{"type":"Point","coordinates":[-1.53949858762311,47.2077239417664]}},{"type":"Feature","properties":{"title":"6 rue Konrad Adenauer","Disque de livraison":"Non","Longueur":18,"Largeur":4,"Quartier":"Ile de Nantes","icon":"livraison"},"geometry":{"type":"Point","coordinates":[-1.53889636185021,47.207939219241]}},{"type":"Feature","properties":{"title":"rue Konrad Adenauer","Disque de livraison":"Non","Longueur":8,"Largeur":2,"Quartier":"Ile de Nantes","icon":"livraison"},"geometry":{"type":"Point","coordinates":[-1.53751377870168,47.2087750894423]}},{"type":"Feature","properties":{"title":"6 rue Daubenton","Disque de livraison":"Non","Longueur":12,"Largeur":2,"Quartier":"Dervallières - Zola","icon":"livraison"},"geometry":{"type":"Point","coordinates":[-1.57497461108452,47.2091309109942]}},{"type":"Feature","properties":{"title":"13 bd de Berlin","Disque de livraison":"Non","Longueur":13,"Largeur":2.5,"Quartier":"Malakoff - Saint-Donatien","icon":"livraison"},"geometry":{"type":"Point","coordinates":[-1.53472759340611,47.2164179181878]}},{"type":"Feature","properties":{"title":"1 rue des Olivettes","Disque de livraison":"Non","Longueur":9,"Largeur":2,"Quartier":"Centre Ville","icon":"livraison"},"geometry":{"type":"Point","coordinates":[-1.55060379808668,47.2131408720956]}},{"type":"Feature","properties":{"title":"19 rue Fouré","Disque de livraison":"Non","Longueur":14,"Largeur":2,"Quartier":"Centre Ville","icon":"livraison"},"geometry":{"type":"Point","coordinates":[-1.54668418791713,47.2121554620257]}},{"type":"Feature","properties":{"title":"40 rue Fouré","Disque de livraison":"Non","Longueur":10,"Largeur":2,"Quartier":"Centre Ville","icon":"livraison"},"geometry":{"type":"Point","coordinates":[-1.54690460628745,47.2115825631271]}}],"properties":[{"type":"Feature","properties":{"title":"5 allee commandant charcot","Disque de livraison":"Oui","Longueur":21.8,"Largeur":1.75,"Quartier":"Malakoff - Saint-Donatien","icon":"livraison"},"geometry":{"type":"Point","coordinates":[-1.5439680822338,47.2176581249333]}},{"type":"Feature","properties":{"title":"75 rue Paul Bellamy","Disque de livraison":"Oui","Longueur":5,"Largeur":2.5,"Quartier":"Hauts Pavés - Saint Félix","icon":"livraison"},"geometry":{"type":"Point","coordinates":[-1.55955926407599,47.2256329031364]}},{"type":"Feature","properties":{"title":"93 rue paul bellamy","Disque de livraison":"Oui","Longueur":8.5,"Largeur":2.15,"Quartier":"Hauts Pavés - Saint Félix","icon":"livraison"},"geometry":{"type":"Point","coordinates":[-1.56017829638318,47.2263539087276]}},{"type":"Feature","properties":{"title":"46 rue de gigant","Disque de livraison":"Oui","Longueur":12,"Largeur":2,"Quartier":"Dervallières - Zola","icon":"livraison"},"geometry":{"type":"Point","coordinates":[-1.5738691727474,47.2146653572973]}},{"type":"Feature","properties":{"title":"cite des congres","Disque de livraison":"Non","Longueur":9.15,"Largeur":3.5,"Quartier":"Centre Ville","icon":"livraison"},"geometry":{"type":"Point","coordinates":[-1.54412329709608,47.2135119596289]}},{"type":"Feature","properties":{"title":"4 allee brancas","Disque de livraison":"Oui","Longueur":31.2,"Largeur":3,"Quartier":"Centre Ville","icon":"livraison"},"geometry":{"type":"Point","coordinates":[-1.55610081543328,47.2138654825499]}},{"type":"Feature","properties":{"title":"6 allee brancas","Disque de livraison":"Oui","Longueur":14.3,"Largeur":3,"Quartier":"Centre Ville","icon":"livraison"},"geometry":{"type":"Point","coordinates":[-1.55636358481374,47.2137719931102]}},{"type":"Feature","properties":{"title":"8 allee brancas","Disque de livraison":"Oui","Longueur":8.8,"Largeur":2.75,"Quartier":"Centre Ville","icon":"livraison"},"geometry":{"type":"Point","coordinates":[-1.55653948031697,47.2136917562016]}},{"type":"Feature","properties":{"title":"5 rue de chateaubriant","Disque de livraison":"Oui","Longueur":6.5,"Largeur":2,"Quartier":"Hauts Pavés - Saint Félix","icon":"livraison"},"geometry":{"type":"Point","coordinates":[-1.55500778789393,47.2215146236807]}},{"type":"Feature","properties":{"title":"place chateaubriant","Disque de livraison":"Non","Longueur":15,"Largeur":4,"Quartier":"Hauts Pavés - Saint Félix","icon":"livraison"},"geometry":{"type":"Point","coordinates":[-1.55349363865034,47.2229174973602]}},{"type":"Feature","properties":{"title":"2 quai de versailles","Disque de livraison":"Oui","Longueur":12.5,"Largeur":2.2,"Quartier":"Hauts Pavés - Saint Félix","icon":"livraison"},"geometry":{"type":"Point","coordinates":[-1.55481304770462,47.2208153874085]}},{"type":"Feature","properties":{"title":"5 quai ceineray","Disque de livraison":"Oui","Longueur":19.7,"Largeur":2,"Quartier":"Centre Ville","icon":"livraison"},"geometry":{"type":"Point","coordinates":[-1.55345795069356,47.2205721948465]}},{"type":"Feature","properties":{"title":"7 rue tournefort","Disque de livraison":"Oui","Longueur":7.1,"Largeur":1.7,"Quartier":"Centre Ville","icon":"livraison"},"geometry":{"type":"Point","coordinates":[-1.55165947738347,47.2210848353729]}},{"type":"Feature","properties":{"title":"1 rue d argentre","Disque de livraison":"Oui","Longueur":9.5,"Largeur":1.9,"Quartier":"Centre Ville","icon":"livraison"},"geometry":{"type":"Point","coordinates":[-1.55155971258488,47.220837452429]}},{"type":"Feature","properties":{"title":"2 rue du roi albert","Disque de livraison":"Oui","Longueur":5.5,"Largeur":1.9,"Quartier":"Centre Ville","icon":"livraison"},"geometry":{"type":"Point","coordinates":[-1.55099584637066,47.2186007702759]}},{"type":"Feature","properties":{"title":"rue d argentre [angle place salegro]","Disque de livraison":"Oui","Longueur":5.1,"Largeur":1.9,"Quartier":"Centre Ville","icon":"livraison"},"geometry":{"type":"Point","coordinates":[-1.55220605785471,47.2205401373089]}},{"type":"Feature","properties":{"title":"5 rue henri 4","Disque de livraison":"Oui","Longueur":9.3,"Largeur":2,"Quartier":"Malakoff - Saint-Donatien","icon":"livraison"},"geometry":{"type":"Point","coordinates":[-1.54758805492283,47.2173484017706]}},{"type":"Feature","properties":{"title":"en face 1 rue d enfer","Disque de livraison":"Oui","Longueur":5.1,"Largeur":1.85,"Quartier":"Centre Ville","icon":"livraison"},"geometry":{"type":"Point","coordinates":[-1.55414788266664,47.2190413254357]}},{"type":"Feature","properties":{"title":"place du port communeau","Disque de livraison":"Oui","Longueur":6.7,"Largeur":2.6,"Quartier":"Centre Ville","icon":"livraison"},"geometry":{"type":"Point","coordinates":[-1.55453697494512,47.2197474171091]}},{"type":"Feature","properties":{"title":"place du port communeau","Disque de livraison":"Oui","Longueur":10.5,"Largeur":2.05,"Quartier":"Centre Ville","icon":"livraison"},"geometry":{"type":"Point","coordinates":[-1.55441048106733,47.21979915358]}},{"type":"Feature","properties":{"title":"en face le 26 rue de strasbourg","Disque de livraison":"Oui","Longueur":9.6,"Largeur":1.8,"Quartier":"Centre Ville","icon":"livraison"},"geometry":{"type":"Point","coordinates":[-1.55220146127749,47.2170587114443]}},{"type":"Feature","properties":{"title":"place tirant lo blanc","Disque de livraison":"Oui","Longueur":7.2,"Largeur":2.1,"Quartier":"Centre Ville","icon":"livraison"},"geometry":{"type":"Point","coordinates":[-1.55167988657715,47.2166129895205]}},{"type":"Feature","properties":{"title":"13 rue de strasbourg","Disque de livraison":"Oui","Longueur":10,"Largeur":1.9,"Quartier":"Centre Ville","icon":"livraison"},"geometry":{"type":"Point","coordinates":[-1.55147455465792,47.2162257352627]}},{"type":"Feature","properties":{"title":"3 rue de strasbourg","Disque de livraison":"Oui","Longueur":10.5,"Largeur":1.9,"Quartier":"Centre Ville","icon":"livraison"},"geometry":{"type":"Point","coordinates":[-1.55079555132363,47.2154055858775]}},{"type":"Feature","properties":{"title":"2-4 rue de la commune","Disque de livraison":"Oui","Longueur":7.65,"Largeur":1.9,"Quartier":"Centre Ville","icon":"livraison"},"geometry":{"type":"Point","coordinates":[-1.55350473842631,47.2183613483657]}},{"type":"Feature","properties":{"title":"en face le 3 rue de la commune","Disque de livraison":"Oui","Longueur":10.05,"Largeur":1.9,"Quartier":"Centre Ville","icon":"livraison"},"geometry":{"type":"Point","coordinates":[-1.55383160294223,47.2182533200048]}},{"type":"Feature","properties":{"title":"en face le 16 rue saint leonard","Disque de livraison":"Oui","Longueur":4.5,"Largeur":2,"Quartier":"Centre Ville","icon":"livraison"},"geometry":{"type":"Point","coordinates":[-1.55558843874892,47.2173571533095]}},{"type":"Feature","properties":{"title":"1 rue du cheval blanc","Disque de livraison":"Oui","Longueur":9,"Largeur":1.05,"Quartier":"Centre Ville","icon":"livraison"},"geometry":{"type":"Point","coordinates":[-1.55588027720536,47.2170800399257]}},{"type":"Feature","properties":{"title":"rue du cheval blanc [angle armand brossard]","Disque de livraison":"Oui","Longueur":7.1,"Largeur":1.9,"Quartier":"Centre Ville","icon":"livraison"},"geometry":{"type":"Point","coordinates":[-1.55620082134212,47.2170310354708]}},{"type":"Feature","properties":{"title":"rue du cheval blanc [angle rue saint leonard]","Disque de livraison":"Oui","Longueur":5.5,"Largeur":1.85,"Quartier":"Centre Ville","icon":"livraison"},"geometry":{"type":"Point","coordinates":[-1.5556536683183,47.2170670540784]}},{"type":"Feature","properties":{"title":"en face du 26 rue armand brossard","Disque de livraison":"Oui","Longueur":6.5,"Largeur":1.9,"Quartier":"Centre Ville","icon":"livraison"},"geometry":{"type":"Point","coordinates":[-1.55632375320138,47.2185128027563]}},{"type":"Feature","properties":{"title":"face 45 rue richebourg","Disque de livraison":"Oui","Longueur":4.6,"Largeur":1.85,"Quartier":"Malakoff - Saint-Donatien","icon":"livraison"},"geometry":{"type":"Point","coordinates":[-1.546813184201,47.2171474949097]}},{"type":"Feature","properties":{"title":"20 rue de stalingrad","Disque de livraison":"Oui","Longueur":5.5,"Largeur":2.1,"Quartier":"Malakoff - Saint-Donatien","icon":"livraison"},"geometry":{"type":"Point","coordinates":[-1.53995640056108,47.2184359648804]}},{"type":"Feature","properties":{"title":"place de la medaille militaire","Disque de livraison":"Oui","Longueur":11,"Largeur":5,"Quartier":"Malakoff - Saint-Donatien","icon":"livraison"},"geometry":{"type":"Point","coordinates":[-1.54312674814444,47.2213661271701]}},{"type":"Feature","properties":{"title":"en face 86 rue gambetta","Disque de livraison":"Oui","Longueur":6.5,"Largeur":1.85,"Quartier":"Malakoff - Saint-Donatien","icon":"livraison"},"geometry":{"type":"Point","coordinates":[-1.54392211932018,47.221243391677]}},{"type":"Feature","properties":{"title":"4 rue marcel paul","Disque de livraison":"Oui","Longueur":7,"Largeur":2,"Quartier":"Malakoff - Saint-Donatien","icon":"livraison"},"geometry":{"type":"Point","coordinates":[-1.53733794491547,47.2143170280673]}},{"type":"Feature","properties":{"title":"gare sud parvis","Disque de livraison":"Non","Longueur":8.3,"Largeur":9.5,"Quartier":"Malakoff - Saint-Donatien","icon":"livraison"},"geometry":{"type":"Point","coordinates":[-1.54125287845005,47.216262560001]}},{"type":"Feature","properties":{"title":"15 rue de cornulier","Disque de livraison":"Oui","Longueur":10.75,"Largeur":1.9,"Quartier":"Malakoff - Saint-Donatien","icon":"livraison"},"geometry":{"type":"Point","coordinates":[-1.54007209593371,47.214555306004]}},{"type":"Feature","properties":{"title":"48 quai malakoff","Disque de livraison":"Non","Longueur":12.3,"Largeur":1.95,"Quartier":"Malakoff - Saint-Donatien","icon":"livraison"},"geometry":{"type":"Point","coordinates":[-1.54337128532604,47.216069512311]}},{"type":"Feature","properties":{"title":"21 quai ferdinand favre","Disque de livraison":"Non","Longueur":5.5,"Largeur":2,"Quartier":"Centre Ville","icon":"livraison"},"geometry":{"type":"Point","coordinates":[-1.54457806114165,47.2152095719317]}},{"type":"Feature","properties":{"title":"3 avenue carnot","Disque de livraison":"Non","Longueur":11,"Largeur":2,"Quartier":"Centre Ville","icon":"livraison"},"geometry":{"type":"Point","coordinates":[-1.54605551615735,47.2150752007444]}},{"type":"Feature","properties":{"title":"3 allee baco","Disque de livraison":"Non","Longueur":6.3,"Largeur":2.9,"Quartier":"Centre Ville","icon":"livraison"},"geometry":{"type":"Point","coordinates":[-1.54760929052048,47.2149908647224]}},{"type":"Feature","properties":{"title":"13 rue de crucy","Disque de livraison":"Non","Longueur":7.6,"Largeur":1.85,"Quartier":"Centre Ville","icon":"livraison"},"geometry":{"type":"Point","coordinates":[-1.54789997555242,47.2141132545794]}},{"type":"Feature","properties":{"title":"31 rue de crucy","Disque de livraison":"Non","Longueur":14.2,"Largeur":1.9,"Quartier":"Centre Ville","icon":"livraison"},"geometry":{"type":"Point","coordinates":[-1.54983100265277,47.2131555809185]}},{"type":"Feature","properties":{"title":"13 rue foure","Disque de livraison":"Non","Longueur":4.6,"Largeur":1.9,"Quartier":"Centre Ville","icon":"livraison"},"geometry":{"type":"Point","coordinates":[-1.54649529167895,47.2130585329645]}},{"type":"Feature","properties":{"title":"4 rue foure","Disque de livraison":"Non","Longueur":9.5,"Largeur":1.9,"Quartier":"Centre Ville","icon":"livraison"},"geometry":{"type":"Point","coordinates":[-1.54623208261605,47.2142107265466]}},{"type":"Feature","properties":{"title":"2 rue de jemmapes","Disque de livraison":"Non","Longueur":14.9,"Largeur":2.05,"Quartier":"Centre Ville","icon":"livraison"},"geometry":{"type":"Point","coordinates":[-1.54515358109741,47.2132471575598]}},{"type":"Feature","properties":{"title":"40 rue foure","Disque de livraison":"Non","Longueur":6.1,"Largeur":1.95,"Quartier":"Centre Ville","icon":"livraison"},"geometry":{"type":"Point","coordinates":[-1.54698807612138,47.2114806898201]}},{"type":"Feature","properties":{"title":"45 rue foure","Disque de livraison":"Non","Longueur":11.8,"Largeur":1.8,"Quartier":"Centre Ville","icon":"livraison"},"geometry":{"type":"Point","coordinates":[-1.54702706313506,47.2107240366971]}},{"type":"Feature","properties":{"title":"4 rue marmontel","Disque de livraison":"Non","Longueur":6,"Largeur":1.75,"Quartier":"Centre Ville","icon":"livraison"},"geometry":{"type":"Point","coordinates":[-1.55004928141702,47.209592340683]}},{"type":"Feature","properties":{"title":"30 rue des olivettes","Disque de livraison":"Non","Longueur":9.7,"Largeur":1.8,"Quartier":"Centre Ville","icon":"livraison"},"geometry":{"type":"Point","coordinates":[-1.54898079171091,47.2100596955391]}},{"type":"Feature","properties":{"title":"19 chaussee de la madeleine","Disque de livraison":"Oui","Longueur":10,"Largeur":2.55,"Quartier":"Centre Ville","icon":"livraison"},"geometry":{"type":"Point","coordinates":[-1.55150904420369,47.2108009764403]}},{"type":"Feature","properties":{"title":"33 chaussee de madeleine","Disque de livraison":"Oui","Longueur":9.2,"Largeur":2.4,"Quartier":"Centre Ville","icon":"livraison"},"geometry":{"type":"Point","coordinates":[-1.55099283264851,47.2102405322684]}},{"type":"Feature","properties":{"title":"5 rue de saverne","Disque de livraison":"Non","Longueur":7.1,"Largeur":1.8,"Quartier":"Centre Ville","icon":"livraison"},"geometry":{"type":"Point","coordinates":[-1.54625402394936,47.2115281221522]}},{"type":"Feature","properties":{"title":"1 bis rue baron","Disque de livraison":"Non","Longueur":11.5,"Largeur":1.9,"Quartier":"Centre Ville","icon":"livraison"},"geometry":{"type":"Point","coordinates":[-1.54734834599252,47.2113117038175]}},{"type":"Feature","properties":{"title":"en face 2 rue emile pehant","Disque de livraison":"Non","Longueur":6.9,"Largeur":1.8,"Quartier":"Centre Ville","icon":"livraison"},"geometry":{"type":"Point","coordinates":[-1.5454753190244,47.2137367850923]}},{"type":"Feature","properties":{"title":"1 rue de belfort","Disque de livraison":"Non","Longueur":3.7,"Largeur":2.1,"Quartier":"Centre Ville","icon":"livraison"},"geometry":{"type":"Point","coordinates":[-1.54454935173165,47.2110964234566]}},{"type":"Feature","properties":{"title":"36 rue de rieux","Disque de livraison":"Non","Longueur":16,"Largeur":1.8,"Quartier":"Centre Ville","icon":"livraison"},"geometry":{"type":"Point","coordinates":[-1.5465867050085,47.2105613895549]}},{"type":"Feature","properties":{"title":"4 rue vasco de gama","Disque de livraison":"Non","Longueur":7.3,"Largeur":2.3,"Quartier":"Centre Ville","icon":"livraison"},"geometry":{"type":"Point","coordinates":[-1.54370185387086,47.2111455958969]}},{"type":"Feature","properties":{"title":"1 rue vasco de gama","Disque de livraison":"Non","Longueur":7.15,"Largeur":2.2,"Quartier":"Centre Ville","icon":"livraison"},"geometry":{"type":"Point","coordinates":[-1.54386111608639,47.2114415438138]}},{"type":"Feature","properties":{"title":"en face 17 rue emile pehant","Disque de livraison":"Non","Longueur":14.4,"Largeur":1.85,"Quartier":"Centre Ville","icon":"livraison"},"geometry":{"type":"Point","coordinates":[-1.54827897796568,47.2125330486753]}},{"type":"Feature","properties":{"title":"rue gaston michel","Disque de livraison":"Oui","Longueur":7.5,"Largeur":5,"Quartier":"Centre Ville","icon":"livraison"},"geometry":{"type":"Point","coordinates":[-1.55937774136384,47.2095962437304]}},{"type":"Feature","properties":{"title":"45 quai de la fosse","Disque de livraison":"Oui","Longueur":10,"Largeur":1.9,"Quartier":"Centre Ville","icon":"livraison"},"geometry":{"type":"Point","coordinates":[-1.56315339447512,47.210371461499]}},{"type":"Feature","properties":{"title":"18 rue flandres dunkerques","Disque de livraison":"Oui","Longueur":5,"Largeur":1.8,"Quartier":"Centre Ville","icon":"livraison"},"geometry":{"type":"Point","coordinates":[-1.56632393398485,47.2114652690821]}},{"type":"Feature","properties":{"title":"2 place de l'edit de nantes","Disque de livraison":"Oui","Longueur":6,"Largeur":2.4,"Quartier":"Centre Ville","icon":"livraison"},"geometry":{"type":"Point","coordinates":[-1.5676384096139,47.2146000236007]}},{"type":"Feature","properties":{"title":"30 rue porte neuve","Disque de livraison":"Oui","Longueur":10.9,"Largeur":1.8,"Quartier":"Hauts Pavés - Saint Félix","icon":"livraison"},"geometry":{"type":"Point","coordinates":[-1.56169933006686,47.2200564598317]}},{"type":"Feature","properties":{"title":"6 rue de la bastille","Disque de livraison":"Oui","Longueur":5,"Largeur":1.5,"Quartier":"Hauts Pavés - Saint Félix","icon":"livraison"},"geometry":{"type":"Point","coordinates":[-1.56437068772412,47.2185338251649]}},{"type":"Feature","properties":{"title":"20 rue de la bastille","Disque de livraison":"Oui","Longueur":7,"Largeur":1.75,"Quartier":"Hauts Pavés - Saint Félix","icon":"livraison"},"geometry":{"type":"Point","coordinates":[-1.5652314760563,47.2185408083319]}},{"type":"Feature","properties":{"title":"en face le 6 rue mercoeur","Disque de livraison":"Oui","Longueur":6,"Largeur":1.85,"Quartier":"Centre Ville","icon":"livraison"},"geometry":{"type":"Point","coordinates":[-1.56021748381441,47.2173864991113]}},{"type":"Feature","properties":{"title":"15 rue deshoulieres","Disque de livraison":"Oui","Longueur":12,"Largeur":1.85,"Quartier":"Centre Ville","icon":"livraison"},"geometry":{"type":"Point","coordinates":[-1.56515630064038,47.2173019850918]}},{"type":"Feature","properties":{"title":"10 rue d erlon","Disque de livraison":"Oui","Longueur":10,"Largeur":1.9,"Quartier":"Hauts Pavés - Saint Félix","icon":"livraison"},"geometry":{"type":"Point","coordinates":[-1.5620794437586,47.2186835725077]}},{"type":"Feature","properties":{"title":"3 rue jeanne d arc","Disque de livraison":"Oui","Longueur":5.1,"Largeur":2.3,"Quartier":"Centre Ville","icon":"livraison"},"geometry":{"type":"Point","coordinates":[-1.55650967036287,47.2208602596413]}},{"type":"Feature","properties":{"title":"rue yves bodiguel [angle rue de bel aire]","Disque de livraison":"Non","Longueur":7.1,"Largeur":1.9,"Quartier":"Hauts Pavés - Saint Félix","icon":"livraison"},"geometry":{"type":"Point","coordinates":[-1.55934679807535,47.2219242543281]}},{"type":"Feature","properties":{"title":"19-21 rue bel air","Disque de livraison":"Non","Longueur":13.3,"Largeur":2,"Quartier":"Hauts Pavés - Saint Félix","icon":"livraison"},"geometry":{"type":"Point","coordinates":[-1.5592196879628,47.2217386824751]}},{"type":"Feature","properties":{"title":"rue de gigant à coté du 1 rue huchette","Disque de livraison":"Oui","Longueur":5,"Largeur":2.5,"Quartier":"Centre Ville","icon":"livraison"},"geometry":{"type":"Point","coordinates":[-1.56898270452008,47.2142603916104]}},{"type":"Feature","properties":{"title":"1 rue joseph caille","Disque de livraison":"Oui","Longueur":5.2,"Largeur":1.95,"Quartier":"Hauts Pavés - Saint Félix","icon":"livraison"},"geometry":{"type":"Point","coordinates":[-1.56264257823823,47.2198852530032]}},{"type":"Feature","properties":{"title":"24 rue des olivettes","Disque de livraison":"Non","Longueur":10.5,"Largeur":1.75,"Quartier":"Centre Ville","icon":"livraison"},"geometry":{"type":"Point","coordinates":[-1.54939626999027,47.210755625772]}},{"type":"Feature","properties":{"title":"4 rue des olivettes","Disque de livraison":"Non","Longueur":7,"Largeur":1.9,"Quartier":"Centre Ville","icon":"livraison"},"geometry":{"type":"Point","coordinates":[-1.55008015594297,47.2121029111975]}},{"type":"Feature","properties":{"title":"2 chausse de la madeleine","Disque de livraison":"Oui","Longueur":8.5,"Largeur":2.45,"Quartier":"Centre Ville","icon":"livraison"},"geometry":{"type":"Point","coordinates":[-1.55257437774323,47.2121033922267]}},{"type":"Feature","properties":{"title":"2 chausse de la madeleine","Disque de livraison":"Oui","Longueur":14.5,"Largeur":2.45,"Quartier":"Centre Ville","icon":"livraison"},"geometry":{"type":"Point","coordinates":[-1.55245672279722,47.2119639297439]}},{"type":"Feature","properties":{"title":"2 rue laennec","Disque de livraison":"Non","Longueur":5.9,"Largeur":1.8,"Quartier":"Centre Ville","icon":"livraison"},"geometry":{"type":"Point","coordinates":[-1.5480732902693,47.212453302814]}},{"type":"Feature","properties":{"title":"1 place de l'édit de NANTES","Disque de livraison":"Oui","Longueur":7,"Largeur":2.35,"Quartier":"Centre Ville","icon":"livraison"},"geometry":{"type":"Point","coordinates":[-1.56736139852014,47.2144773234321]}},{"type":"Feature","properties":{"title":"11 rue Kleber","Disque de livraison":"Oui","Longueur":8.1,"Largeur":2.1,"Quartier":"Centre Ville","icon":"livraison"},"geometry":{"type":"Point","coordinates":[-1.56621644156866,47.2144562467438]}},{"type":"Feature","properties":{"title":"25 rue racine (devant cave vino vini)","Disque de livraison":"Oui","Longueur":13,"Largeur":2,"Quartier":"Centre Ville","icon":"livraison"},"geometry":{"type":"Point","coordinates":[-1.56580210631791,47.2145063914625]}},{"type":"Feature","properties":{"title":"en face le 1 place de la monnaie","Disque de livraison":"Oui","Longueur":6.5,"Largeur":1.85,"Quartier":"Centre Ville","icon":"livraison"},"geometry":{"type":"Point","coordinates":[-1.56465815910943,47.2128786054817]}},{"type":"Feature","properties":{"title":"3 place Paul-Emile Ladmirault","Disque de livraison":"Oui","Longueur":11,"Largeur":2.1,"Quartier":"Centre Ville","icon":"livraison"},"geometry":{"type":"Point","coordinates":[-1.56441013579279,47.2135897201157]}},{"type":"Feature","properties":{"title":"14 rue Voltaire","Disque de livraison":"Oui","Longueur":5.5,"Largeur":2,"Quartier":"Centre Ville","icon":"livraison"},"geometry":{"type":"Point","coordinates":[-1.56500833639173,47.2122393604021]}},{"type":"Feature","properties":{"title":"en face le 6 rue Athénas","Disque de livraison":"Oui","Longueur":7.1,"Largeur":1.95,"Quartier":"Centre Ville","icon":"livraison"},"geometry":{"type":"Point","coordinates":[-1.56524890724008,47.2127141437106]}},{"type":"Feature","properties":{"title":"En face le 15 rue Voltaire","Disque de livraison":"Oui","Longueur":10.4,"Largeur":2.6,"Quartier":"Centre Ville","icon":"livraison"},"geometry":{"type":"Point","coordinates":[-1.56545986026426,47.2120971521897]}},{"type":"Feature","properties":{"title":"En face le 2 rue Urvoy de Saint-Bedan","Disque de livraison":"Oui","Longueur":6.05,"Largeur":2,"Quartier":"Centre Ville","icon":"livraison"},"geometry":{"type":"Point","coordinates":[-1.56612526994654,47.2131436672257]}},{"type":"Feature","properties":{"title":"13 rue gresset","Disque de livraison":"Oui","Longueur":7.9,"Largeur":2,"Quartier":"Centre Ville","icon":"livraison"},"geometry":{"type":"Point","coordinates":[-1.56422480579611,47.2120027472886]}},{"type":"Feature","properties":{"title":"face 8 rue racine","Disque de livraison":"Oui","Longueur":9.7,"Largeur":2.05,"Quartier":"Centre Ville","icon":"livraison"},"geometry":{"type":"Point","coordinates":[-1.56394346878731,47.213773711875]}},{"type":"Feature","properties":{"title":"21 rue racine","Disque de livraison":"Oui","Longueur":10,"Largeur":2.05,"Quartier":"Centre Ville","icon":"livraison"},"geometry":{"type":"Point","coordinates":[-1.56511108854808,47.2142305349217]}},{"type":"Feature","properties":{"title":"5ème At rue Sévigné","Disque de livraison":"Oui","Longueur":8.4,"Largeur":1.85,"Quartier":"Centre Ville","icon":"livraison"},"geometry":{"type":"Point","coordinates":[-1.5668750759113,47.2147032686155]}},{"type":"Feature","properties":{"title":"5 rue copernic","Disque de livraison":"Oui","Longueur":15,"Largeur":2.4,"Quartier":"Centre Ville","icon":"livraison"},"geometry":{"type":"Point","coordinates":[-1.56500529477067,47.2147944346393]}},{"type":"Feature","properties":{"title":"5ème AT place Delorme","Disque de livraison":"Oui","Longueur":7.65,"Largeur":1.95,"Quartier":"Centre Ville","icon":"livraison"},"geometry":{"type":"Point","coordinates":[-1.56365138028095,47.2149609864072]}},{"type":"Feature","properties":{"title":"24 rue du calvaire","Disque de livraison":"Oui","Longueur":5.3,"Largeur":3.15,"Quartier":"Centre Ville","icon":"livraison"},"geometry":{"type":"Point","coordinates":[-1.56254037691441,47.2152813124463]}},{"type":"Feature","properties":{"title":"25 rue du calvaire","Disque de livraison":"Oui","Longueur":5.4,"Largeur":3.7,"Quartier":"Centre Ville","icon":"livraison"},"geometry":{"type":"Point","coordinates":[-1.56241103119584,47.2151897217366]}},{"type":"Feature","properties":{"title":"3 rue Menou","Disque de livraison":"Oui","Longueur":6.1,"Largeur":2.05,"Quartier":"Hauts Pavés - Saint Félix","icon":"livraison"},"geometry":{"type":"Point","coordinates":[-1.56322995061018,47.2201305797137]}},{"type":"Feature","properties":{"title":"12 rue ménou (en face le 7)","Disque de livraison":"Oui","Longueur":6.5,"Largeur":2.1,"Quartier":"Hauts Pavés - Saint Félix","icon":"livraison"},"geometry":{"type":"Point","coordinates":[-1.56348854767261,47.2199587921746]}},{"type":"Feature","properties":{"title":"10 place Edouard Normand","Disque de livraison":"Oui","Longueur":8.7,"Largeur":2,"Quartier":"Hauts Pavés - Saint Félix","icon":"livraison"},"geometry":{"type":"Point","coordinates":[-1.56344885116921,47.2192894054947]}},{"type":"Feature","properties":{"title":"En face le 15 rue de la bastille(entre 30-32)","Disque de livraison":"Non","Longueur":5.5,"Largeur":1.4,"Quartier":"Hauts Pavés - Saint Félix","icon":"livraison"},"geometry":{"type":"Point","coordinates":[-1.56633896430181,47.2185868996984]}},{"type":"Feature","properties":{"title":"2 rue marie anne du bocage","Disque de livraison":"Non","Longueur":10,"Largeur":1.85,"Quartier":"Hauts Pavés - Saint Félix","icon":"livraison"},"geometry":{"type":"Point","coordinates":[-1.56762462732189,47.216777790183]}},{"type":"Feature","properties":{"title":"En face le 8 rue lafayette (BNP Paribas)","Disque de livraison":"Oui","Longueur":15.3,"Largeur":1.9,"Quartier":"Centre Ville","icon":"livraison"},"geometry":{"type":"Point","coordinates":[-1.56150462822783,47.2160943904994]}},{"type":"Feature","properties":{"title":"En face le 6 rue de la fayette","Disque de livraison":"Oui","Longueur":11.75,"Largeur":1.9,"Quartier":"Centre Ville","icon":"livraison"},"geometry":{"type":"Point","coordinates":[-1.5611298367896,47.2157727315158]}},{"type":"Feature","properties":{"title":"1 rue de budapest","Disque de livraison":"Oui","Longueur":12,"Largeur":2,"Quartier":"Centre Ville","icon":"livraison"},"geometry":{"type":"Point","coordinates":[-1.56059633058021,47.2160167546685]}},{"type":"Feature","properties":{"title":"En face le 7 rue de Budapest","Disque de livraison":"Oui","Longueur":10,"Largeur":2.05,"Quartier":"Centre Ville","icon":"livraison"},"geometry":{"type":"Point","coordinates":[-1.56002172439215,47.2165283923737]}},{"type":"Feature","properties":{"title":"11 rue de la fayette","Disque de livraison":"Oui","Longueur":15.5,"Largeur":1.95,"Quartier":"Centre Ville","icon":"livraison"},"geometry":{"type":"Point","coordinates":[-1.56215870227215,47.2166738625811]}},{"type":"Feature","properties":{"title":"29 rue Jean Jaurès","Disque de livraison":"Oui","Longueur":7,"Largeur":1.95,"Quartier":"Centre Ville","icon":"livraison"},"geometry":{"type":"Point","coordinates":[-1.56188216370368,47.2182000961816]}},{"type":"Feature","properties":{"title":"En face le 1 rue de l'industrie (à gauche du 2)","Disque de livraison":"Oui","Longueur":6.5,"Largeur":1.85,"Quartier":"Centre Ville","icon":"livraison"},"geometry":{"type":"Point","coordinates":[-1.56090471243265,47.2185251740016]}},{"type":"Feature","properties":{"title":"En face le 7 rue de l'industrie","Disque de livraison":"Oui","Longueur":10.5,"Largeur":1.8,"Quartier":"Centre Ville","icon":"livraison"},"geometry":{"type":"Point","coordinates":[-1.56129042702991,47.2182479679524]}},{"type":"Feature","properties":{"title":"4 rue du du président herriot","Disque de livraison":"Oui","Longueur":5.25,"Largeur":2,"Quartier":"Centre Ville","icon":"livraison"},"geometry":{"type":"Point","coordinates":[-1.5601461028146,47.2185693947276]}},{"type":"Feature","properties":{"title":"en face le 12 rue Jean Jaurès","Disque de livraison":"Oui","Longueur":5.9,"Largeur":1.95,"Quartier":"Centre Ville","icon":"livraison"},"geometry":{"type":"Point","coordinates":[-1.56035090416818,47.2192187535636]}},{"type":"Feature","properties":{"title":"4 rue Jeanne d'arc (en face 25-27)","Disque de livraison":"Oui","Longueur":7,"Largeur":2,"Quartier":"Hauts Pavés - Saint Félix","icon":"livraison"},"geometry":{"type":"Point","coordinates":[-1.55755494240007,47.2206753310129]}},{"type":"Feature","properties":{"title":"10 bis rue de l'arche sêche","Disque de livraison":"Oui","Longueur":21,"Largeur":2,"Quartier":"Centre Ville","icon":"livraison"},"geometry":{"type":"Point","coordinates":[-1.55834110525193,47.2162229989901]}},{"type":"Feature","properties":{"title":"en face le 13 rue de l'arche sêche","Disque de livraison":"Oui","Longueur":15.6,"Largeur":1.9,"Quartier":"Centre Ville","icon":"livraison"},"geometry":{"type":"Point","coordinates":[-1.55834877160846,47.2166612930853]}},{"type":"Feature","properties":{"title":"A droite du 15 rue l'arche sêche (en dessous le po","Disque de livraison":"Oui","Longueur":5.1,"Largeur":2.1,"Quartier":"Centre Ville","icon":"livraison"},"geometry":{"type":"Point","coordinates":[-1.55840253661221,47.2170670727777]}},{"type":"Feature","properties":{"title":"en face le 2 rue de l'évêché","Disque de livraison":"Oui","Longueur":10.5,"Largeur":2.65,"Quartier":"Centre Ville","icon":"livraison"},"geometry":{"type":"Point","coordinates":[-1.55041987135868,47.2188657818462]}},{"type":"Feature","properties":{"title":"16 rue du roi albert","Disque de livraison":"Oui","Longueur":8.3,"Largeur":1.8,"Quartier":"Centre Ville","icon":"livraison"},"geometry":{"type":"Point","coordinates":[-1.55229850364292,47.2199364616985]}},{"type":"Feature","properties":{"title":"1 rue d'aguesseau","Disque de livraison":"Oui","Longueur":9.2,"Largeur":2,"Quartier":"Centre Ville","icon":"livraison"},"geometry":{"type":"Point","coordinates":[-1.55312246995068,47.2193741453501]}},{"type":"Feature","properties":{"title":"Après le 23 rue de strasbourg","Disque de livraison":"Oui","Longueur":6.1,"Largeur":1.9,"Quartier":"Centre Ville","icon":"livraison"},"geometry":{"type":"Point","coordinates":[-1.55250319547917,47.2174385846083]}},{"type":"Feature","properties":{"title":"29 rue de strasbourg","Disque de livraison":"Oui","Longueur":12.5,"Largeur":2.9,"Quartier":"Centre Ville","icon":"livraison"},"geometry":{"type":"Point","coordinates":[-1.55374439761532,47.2188454701818]}},{"type":"Feature","properties":{"title":"32 rue saint léonard","Disque de livraison":"Oui","Longueur":10.7,"Largeur":2.05,"Quartier":"Centre Ville","icon":"livraison"},"geometry":{"type":"Point","coordinates":[-1.55520982270825,47.2186278074604]}},{"type":"Feature","properties":{"title":"En face le 8 rue saint jean","Disque de livraison":"Oui","Longueur":6.5,"Largeur":1.85,"Quartier":"Centre Ville","icon":"livraison"},"geometry":{"type":"Point","coordinates":[-1.55332600252043,47.2186944878348]}},{"type":"Feature","properties":{"title":"7 rue de la commune","Disque de livraison":"Oui","Longueur":11.55,"Largeur":1.85,"Quartier":"Centre Ville","icon":"livraison"},"geometry":{"type":"Point","coordinates":[-1.55412739346937,47.2180720436514]}},{"type":"Feature","properties":{"title":"9 rue armand brossard","Disque de livraison":"Oui","Longueur":8.25,"Largeur":2.05,"Quartier":"Centre Ville","icon":"livraison"},"geometry":{"type":"Point","coordinates":[-1.55633570971221,47.2176569638131]}},{"type":"Feature","properties":{"title":"En face le 16 rue des carmélites","Disque de livraison":"Oui","Longueur":12.8,"Largeur":1.8,"Quartier":"Centre Ville","icon":"livraison"},"geometry":{"type":"Point","coordinates":[-1.55165927094181,47.2172255930442]}},{"type":"Feature","properties":{"title":"3 rue de verdun","Disque de livraison":"Oui","Longueur":11,"Largeur":2,"Quartier":"Centre Ville","icon":"livraison"},"geometry":{"type":"Point","coordinates":[-1.55168368134889,47.2177283297117]}},{"type":"Feature","properties":{"title":"75 rue du maréchal joffre","Disque de livraison":"Oui","Longueur":12,"Largeur":2,"Quartier":"Malakoff - Saint-Donatien","icon":"livraison"},"geometry":{"type":"Point","coordinates":[-1.54861313863712,47.2205993718057]}},{"type":"Feature","properties":{"title":"53 rue du maréchal joffre","Disque de livraison":"Oui","Longueur":5.2,"Largeur":1.9,"Quartier":"Malakoff - Saint-Donatien","icon":"livraison"},"geometry":{"type":"Point","coordinates":[-1.54811523570065,47.2210639882995]}},{"type":"Feature","properties":{"title":"47 rue du maréchal joffre","Disque de livraison":"Oui","Longueur":15.1,"Largeur":1.9,"Quartier":"Malakoff - Saint-Donatien","icon":"livraison"},"geometry":{"type":"Point","coordinates":[-1.5478772559681,47.2212701288644]}},{"type":"Feature","properties":{"title":"En face le 108 rue gambetta","Disque de livraison":"Oui","Longueur":14.2,"Largeur":3.05,"Quartier":"Malakoff - Saint-Donatien","icon":"livraison"},"geometry":{"type":"Point","coordinates":[-1.54757898739637,47.219977943968]}},{"type":"Feature","properties":{"title":"rue gambetta(en face la rue dugart-matifeux)","Disque de livraison":"Oui","Longueur":10.5,"Largeur":2.1,"Quartier":"Malakoff - Saint-Donatien","icon":"livraison"},"geometry":{"type":"Point","coordinates":[-1.54790415510371,47.2198462570196]}},{"type":"Feature","properties":{"title":"En face le 1 stanislas baudry","Disque de livraison":"Oui","Longueur":9.6,"Largeur":2.3,"Quartier":"Malakoff - Saint-Donatien","icon":"livraison"},"geometry":{"type":"Point","coordinates":[-1.54341768125942,47.2182761748179]}},{"type":"Feature","properties":{"title":"9 rue Paul Bellamy","Disque de livraison":"Oui","Longueur":12.5,"Largeur":2.5,"Quartier":"Hauts Pavés - Saint Félix","icon":"livraison"},"geometry":{"type":"Point","coordinates":[-1.55594206544268,47.2213860833819]}},{"type":"Feature","properties":{"title":"22 rue paul bellamy","Disque de livraison":"Oui","Longueur":8.2,"Largeur":2.5,"Quartier":"Hauts Pavés - Saint Félix","icon":"livraison"},"geometry":{"type":"Point","coordinates":[-1.55625172153373,47.221978249032]}},{"type":"Feature","properties":{"title":"29 rue paul bellamy","Disque de livraison":"Oui","Longueur":5,"Largeur":2,"Quartier":"Hauts Pavés - Saint Félix","icon":"livraison"},"geometry":{"type":"Point","coordinates":[-1.55789384970308,47.2236047619866]}},