{"type":"FeatureCollection","features":[{"type":"Feature","properties":{"geo":{"name":"1 Station Abonnement Préfecture"},"_l":[47.2201950669957,-1.55417604861584],"LIBTHEME":"DEPLACEMENT","CODE_POSTAL":44000,"WEB":"www.bicloo.nantesmetropole.fr","STATUT":null,"TELEPHONE":"01 30 79 33 44","THEME":10,"COMMUNE":"NANTES","LIBCATEGORIE":"Vélo","ADRESSE":"5 Quai Ceineray","LIBTYPE":"Bicloo","_IDOBJ":3685,"TYPE":100601,"CATEGORIE":1006},"geometry":{"type":"Point","coordinates":[-1.55417604861584,47.2201950669957]}},{"type":"Feature","properties":{"geo":{"name":"2 Station Accueil Hôtel de Ville"},"_l":[47.2185640015645,-1.55354426853678],"LIBTHEME":"DEPLACEMENT","CODE_POSTAL":44000,"WEB":"www.bicloo.nantesmetropole.fr","STATUT":null,"TELEPHONE":"01 30 79 33 44","THEME":10,"COMMUNE":"NANTES","LIBCATEGORIE":"Vélo","ADRESSE":"29 Rue de Strasbourg","LIBTYPE":"Bicloo","_IDOBJ":3686,"TYPE":100601,"CATEGORIE":1006},"geometry":{"type":"Point","coordinates":[-1.55354426853678,47.2185640015645]}},{"type":"Feature","properties":{"geo":{"name":"3 Station Accueil Strasbourg"},"_l":[47.216532854728,-1.55161756498412],"LIBTHEME":"DEPLACEMENT","CODE_POSTAL":44000,"WEB":"www.bicloo.nantesmetropole.fr","STATUT":null,"TELEPHONE":"01 30 79 33 44","THEME":10,"COMMUNE":"NANTES","LIBCATEGORIE":"Vélo","ADRESSE":"Place Tirant Lo Blanc","LIBTYPE":"Bicloo","_IDOBJ":3687,"TYPE":100601,"CATEGORIE":1006},"geometry":{"type":"Point","coordinates":[-1.55161756498412,47.216532854728]}},{"type":"Feature","properties":{"geo":{"name":"4 Station Accueil Moulin"},"_l":[47.2166468712003,-1.55442584710721],"LIBTHEME":"DEPLACEMENT","CODE_POSTAL":44000,"WEB":"www.bicloo.nantesmetropole.fr","STATUT":null,"TELEPHONE":"01 30 79 33 44","THEME":10,"COMMUNE":"NANTES","LIBCATEGORIE":"Vélo","ADRESSE":"18 Rue du Moulin","LIBTYPE":"Bicloo","_IDOBJ":3688,"TYPE":100601,"CATEGORIE":1006},"geometry":{"type":"Point","coordinates":[-1.55442584710721,47.2166468712003]}},{"type":"Feature","properties":{"geo":{"name":"5 Station Accueil Brossard"},"_l":[47.2188225831247,-1.5563270902907],"LIBTHEME":"DEPLACEMENT","CODE_POSTAL":44000,"WEB":"www.bicloo.nantesmetropole.fr","STATUT":null,"TELEPHONE":"01 30 79 33 44","THEME":10,"COMMUNE":"NANTES","LIBCATEGORIE":"Vélo","ADRESSE":"12 Allée Duquesne","LIBTYPE":"Bicloo","_IDOBJ":3689,"TYPE":100601,"CATEGORIE":1006},"geometry":{"type":"Point","coordinates":[-1.5563270902907,47.2188225831247]}},{"type":"Feature","properties":{"geo":{"name":"6 Station Abonnement Place du Cirque"},"_l":[47.2176522877325,-1.55686962933674],"LIBTHEME":"DEPLACEMENT","CODE_POSTAL":44000,"WEB":"www.bicloo.nantesmetropole.fr","STATUT":null,"TELEPHONE":"01 30 79 33 44","THEME":10,"COMMUNE":"NANTES","LIBCATEGORIE":"Vélo","ADRESSE":"7 Allée Duquesne","LIBTYPE":"Bicloo","_IDOBJ":3690,"TYPE":100601,"CATEGORIE":1006},"geometry":{"type":"Point","coordinates":[-1.55686962933674,47.2176522877325]}},{"type":"Feature","properties":{"geo":{"name":"7 Station Accueil Barillerie"},"_l":[47.2154096299385,-1.5561003799956],"LIBTHEME":"DEPLACEMENT","CODE_POSTAL":44000,"WEB":"www.bicloo.nantesmetropole.fr","STATUT":null,"TELEPHONE":"01 30 79 33 44","THEME":10,"COMMUNE":"NANTES","LIBCATEGORIE":"Vélo","ADRESSE":"2 Allée Penthiévre","LIBTYPE":"Bicloo","_IDOBJ":3691,"TYPE":100601,"CATEGORIE":1006},"geometry":{"type":"Point","coordinates":[-1.5561003799956,47.2154096299385]}},{"type":"Feature","properties":{"geo":{"name":"8 Station Abonnement Boucherie"},"_l":[47.2162081426351,-1.55709068678671],"LIBTHEME":"DEPLACEMENT","CODE_POSTAL":44000,"WEB":"www.bicloo.nantesmetropole.fr","STATUT":null,"TELEPHONE":"01 30 79 33 44","THEME":10,"COMMUNE":"NANTES","LIBCATEGORIE":"Vélo","ADRESSE":"Rue de la Boucherie","LIBTYPE":"Bicloo","_IDOBJ":3692,"TYPE":100601,"CATEGORIE":1006},"geometry":{"type":"Point","coordinates":[-1.55709068678671,47.2162081426351]}},{"type":"Feature","properties":{"geo":{"name":"9 Station Accueil Guépin"},"_l":[47.2158294340716,-1.55915573787153],"LIBTHEME":"DEPLACEMENT","CODE_POSTAL":44000,"WEB":"www.bicloo.nantesmetropole.fr","STATUT":null,"TELEPHONE":"01 30 79 33 44","THEME":10,"COMMUNE":"NANTES","LIBCATEGORIE":"Vélo","ADRESSE":"2 Rue du Calvaire","LIBTYPE":"Bicloo","_IDOBJ":3693,"TYPE":100601,"CATEGORIE":1006},"geometry":{"type":"Point","coordinates":[-1.55915573787153,47.2158294340716]}},{"type":"Feature","properties":{"geo":{"name":"11 Station Accueil Calvaire"},"_l":[47.2155991819633,-1.56060630687651],"LIBTHEME":"DEPLACEMENT","CODE_POSTAL":44000,"WEB":"www.bicloo.nantesmetropole.fr","STATUT":null,"TELEPHONE":"01 30 79 33 44","THEME":10,"COMMUNE":"NANTES","LIBCATEGORIE":"Vélo","ADRESSE":"Place des Volontaires de la Défense Passive","LIBTYPE":"Bicloo","_IDOBJ":3695,"TYPE":100601,"CATEGORIE":1006},"geometry":{"type":"Point","coordinates":[-1.56060630687651,47.2155991819633]}},{"type":"Feature","properties":{"geo":{"name":"12 Station Abonnement et Bonus Place Delorme"},"_l":[47.2151581344299,-1.56396356682832],"LIBTHEME":"DEPLACEMENT","CODE_POSTAL":44000,"WEB":"www.bicloo.nantesmetropole.fr","STATUT":null,"TELEPHONE":"01 30 79 33 44","THEME":10,"COMMUNE":"NANTES","LIBCATEGORIE":"Vélo","ADRESSE":"Boulevard Gabriel Guist'Hau","LIBTYPE":"Bicloo","_IDOBJ":3696,"TYPE":100601,"CATEGORIE":1006},"geometry":{"type":"Point","coordinates":[-1.56396356682832,47.2151581344299]}},{"type":"Feature","properties":{"geo":{"name":"13 Station Abonnement et Bonus Bretagne Sud"},"_l":[47.2167500594478,-1.55915731787571],"LIBTHEME":"DEPLACEMENT","CODE_POSTAL":44000,"WEB":"www.bicloo.nantesmetropole.fr","STATUT":null,"TELEPHONE":"01 30 79 33 44","THEME":10,"COMMUNE":"NANTES","LIBCATEGORIE":"Vélo","ADRESSE":"1 Rue Pierre Chéreau","LIBTYPE":"Bicloo","_IDOBJ":3697,"TYPE":100601,"CATEGORIE":1006},"geometry":{"type":"Point","coordinates":[-1.55915731787571,47.2167500594478]}},{"type":"Feature","properties":{"geo":{"name":"14 Station Accueil Saint-Félix"},"_l":[47.2306076047205,-1.55623411620874],"LIBTHEME":"DEPLACEMENT","CODE_POSTAL":44000,"WEB":"www.bicloo.nantesmetropole.fr","STATUT":null,"TELEPHONE":"01 30 79 33 44","THEME":10,"COMMUNE":"NANTES","LIBCATEGORIE":"Vélo","ADRESSE":"Boulevard Amiral Courbet","LIBTYPE":"Bicloo","_IDOBJ":3698,"TYPE":100601,"CATEGORIE":1006},"geometry":{"type":"Point","coordinates":[-1.55623411620874,47.2306076047205]}},{"type":"Feature","properties":{"geo":{"name":"15 Station Accueil Place Aristide Briand"},"_l":[47.2171962876433,-1.56300550348212],"LIBTHEME":"DEPLACEMENT","CODE_POSTAL":44000,"WEB":"www.bicloo.nantesmetropole.fr","STATUT":null,"TELEPHONE":"01 30 79 33 44","THEME":10,"COMMUNE":"NANTES","LIBCATEGORIE":"Vélo","ADRESSE":"Place Aristide Briand","LIBTYPE":"Bicloo","_IDOBJ":3699,"TYPE":100601,"CATEGORIE":1006},"geometry":{"type":"Point","coordinates":[-1.56300550348212,47.2171962876433]}},{"type":"Feature","properties":{"geo":{"name":"16 Station Accueil Place Edouard Normand"},"_l":[47.2190280325433,-1.56349473337675],"LIBTHEME":"DEPLACEMENT","CODE_POSTAL":44000,"WEB":"www.bicloo.nantesmetropole.fr","STATUT":null,"TELEPHONE":"01 30 79 33 44","THEME":10,"COMMUNE":"NANTES","LIBCATEGORIE":"Vélo","ADRESSE":"Place Edouard Normand","LIBTYPE":"Bicloo","_IDOBJ":3700,"TYPE":100601,"CATEGORIE":1006},"geometry":{"type":"Point","coordinates":[-1.56349473337675,47.2190280325433]}},{"type":"Feature","properties":{"geo":{"name":"17 Station Accueil Sainte Elisabeth"},"_l":[47.219225442242,-1.56158876841816],"LIBTHEME":"DEPLACEMENT","CODE_POSTAL":44000,"WEB":"www.bicloo.nantesmetropole.fr","STATUT":null,"TELEPHONE":"01 30 79 33 44","THEME":10,"COMMUNE":"NANTES","LIBCATEGORIE":"Vélo","ADRESSE":"3 Place Sainte Elisabeth","LIBTYPE":"Bicloo","_IDOBJ":3701,"TYPE":100601,"CATEGORIE":1006},"geometry":{"type":"Point","coordinates":[-1.56158876841816,47.219225442242]}},{"type":"Feature","properties":{"geo":{"name":"18 Station Abonnement et Bonus Place Viarme"},"_l":[47.2214408780072,-1.56332698114374],"LIBTHEME":"DEPLACEMENT","CODE_POSTAL":44000,"WEB":"www.bicloo.nantesmetropole.fr","STATUT":null,"TELEPHONE":"01 30 79 33 44","THEME":10,"COMMUNE":"NANTES","LIBCATEGORIE":"Vélo","ADRESSE":"23 Place Viarme","LIBTYPE":"Bicloo","_IDOBJ":3702,"TYPE":100601,"CATEGORIE":1006},"geometry":{"type":"Point","coordinates":[-1.56332698114374,47.2214408780072]}},{"type":"Feature","properties":{"geo":{"name":"19 Station Accueil Saint Similien"},"_l":[47.219835952652,-1.55892890964265],"LIBTHEME":"DEPLACEMENT","CODE_POSTAL":44000,"WEB":"www.bicloo.nantesmetropole.fr","STATUT":null,"TELEPHONE":"01 30 79 33 44","THEME":10,"COMMUNE":"NANTES","LIBCATEGORIE":"Vélo","ADRESSE":"1 Place Saint Similien","LIBTYPE":"Bicloo","_IDOBJ":3703,"TYPE":100601,"CATEGORIE":1006},"geometry":{"type":"Point","coordinates":[-1.55892890964265,47.219835952652]}},{"type":"Feature","properties":{"geo":{"name":"20 Station Abonnement Bellamy"},"_l":[47.223348795628,-1.55765985443575],"LIBTHEME":"DEPLACEMENT","CODE_POSTAL":44000,"WEB":"www.bicloo.nantesmetropole.fr","STATUT":null,"TELEPHONE":"01 30 79 33 44","THEME":10,"COMMUNE":"NANTES","LIBCATEGORIE":"Vélo","ADRESSE":"29 Rue Paul Bellamy","LIBTYPE":"Bicloo","_IDOBJ":3704,"TYPE":100601,"CATEGORIE":1006},"geometry":{"type":"Point","coordinates":[-1.55765985443575,47.223348795628]}},{"type":"Feature","properties":{"geo":{"name":"21 Station Accueil Marché Talensac Sud"},"_l":[47.221154818394,-1.55649477179845],"LIBTHEME":"DEPLACEMENT","CODE_POSTAL":44000,"WEB":"www.bicloo.nantesmetropole.fr","STATUT":null,"TELEPHONE":"01 30 79 33 44","THEME":10,"COMMUNE":"NANTES","LIBCATEGORIE":"Vélo","ADRESSE":"Rue de Talensac","LIBTYPE":"Bicloo","_IDOBJ":3705,"TYPE":100601,"CATEGORIE":1006},"geometry":{"type":"Point","coordinates":[-1.55649477179845,47.221154818394]}},{"type":"Feature","properties":{"geo":{"name":"22 Station Accueil Moquechien"},"_l":[47.2203790474815,-1.55558297927192],"LIBTHEME":"DEPLACEMENT","CODE_POSTAL":44000,"WEB":"www.bicloo.nantesmetropole.fr","STATUT":null,"TELEPHONE":"01 30 79 33 44","THEME":10,"COMMUNE":"NANTES","LIBCATEGORIE":"Vélo","ADRESSE":"8 Rue Moquechien","LIBTYPE":"Bicloo","_IDOBJ":3706,"TYPE":100601,"CATEGORIE":1006},"geometry":{"type":"Point","coordinates":[-1.55558297927192,47.2203790474815]}},{"type":"Feature","properties":{"geo":{"name":"23 Station Accueil Buat"},"_l":[47.2271569726,-1.54242264341268],"LIBTHEME":"DEPLACEMENT","CODE_POSTAL":44000,"WEB":"www.bicloo.nantesmetropole.fr","STATUT":null,"TELEPHONE":"01 30 79 33 44","THEME":10,"COMMUNE":"NANTES","LIBCATEGORIE":"Vélo","ADRESSE":"101 Rue Général Buat","LIBTYPE":"Bicloo","_IDOBJ":3707,"TYPE":100601,"CATEGORIE":1006},"geometry":{"type":"Point","coordinates":[-1.54242264341268,47.2271569726]}},{"type":"Feature","properties":{"geo":{"name":"24 Station Accueil Versailles"},"_l":[47.2244233838765,-1.55372803210723],"LIBTHEME":"DEPLACEMENT","CODE_POSTAL":44000,"WEB":"www.bicloo.nantesmetropole.fr","STATUT":null,"TELEPHONE":"01 30 79 33 44","THEME":10,"COMMUNE":"NANTES","LIBCATEGORIE":"Vélo","ADRESSE":"Quai de Versailles","LIBTYPE":"Bicloo","_IDOBJ":3708,"TYPE":100601,"CATEGORIE":1006},"geometry":{"type":"Point","coordinates":[-1.55372803210723,47.2244233838765]}},{"type":"Feature","properties":{"geo":{"name":"25 Station Abonnement Dalby"},"_l":[47.2236126488755,-1.53010845738847],"LIBTHEME":"DEPLACEMENT","CODE_POSTAL":44000,"WEB":"www.bicloo.nantesmetropole.fr","STATUT":null,"TELEPHONE":"01 30 79 33 44","THEME":10,"COMMUNE":"NANTES","LIBCATEGORIE":"Vélo","ADRESSE":"Boulevard Ernest Dalby","LIBTYPE":"Bicloo","_IDOBJ":3709,"TYPE":100601,"CATEGORIE":1006},"geometry":{"type":"Point","coordinates":[-1.53010845738847,47.2236126488755]}},{"type":"Feature","properties":{"geo":{"name":"27 Station Accueil Guist'hau Nord"},"_l":[47.2179401852254,-1.56926720618524],"LIBTHEME":"DEPLACEMENT","CODE_POSTAL":44000,"WEB":"www.bicloo.nantesmetropole.fr","STATUT":null,"TELEPHONE":"01 30 79 33 44","THEME":10,"COMMUNE":"NANTES","LIBCATEGORIE":"Vélo","ADRESSE":"44 Boulevard Gabriel Guist'Hau","LIBTYPE":"Bicloo","_IDOBJ":3710,"TYPE":100601,"CATEGORIE":1006},"geometry":{"type":"Point","coordinates":[-1.56926720618524,47.2179401852254]}},{"type":"Feature","properties":{"geo":{"name":"26 Station Abonnement et Bonus Guist'hau Sud"},"_l":[47.2168394453051,-1.56702335731262],"LIBTHEME":"DEPLACEMENT","CODE_POSTAL":44000,"WEB":"www.bicloo.nantesmetropole.fr","STATUT":null,"TELEPHONE":"01 30 79 33 44","THEME":10,"COMMUNE":"NANTES","LIBCATEGORIE":"Vélo","ADRESSE":"26T Boulevard Gabriel Guist'Hau","LIBTYPE":"Bicloo","_IDOBJ":3711,"TYPE":100601,"CATEGORIE":1006},"geometry":{"type":"Point","coordinates":[-1.56702335731262,47.2168394453051]}},{"type":"Feature","properties":{"geo":{"name":"28 Station Accueil Place Edit de Nantes"},"_l":[47.2144590279511,-1.56761075012927],"LIBTHEME":"DEPLACEMENT","CODE_POSTAL":44100,"WEB":"www.bicloo.nantesmetropole.fr","STATUT":null,"TELEPHONE":"01 30 79 33 44","THEME":10,"COMMUNE":"NANTES","LIBCATEGORIE":"Vélo","ADRESSE":"Place de l'Edit de Nantes","LIBTYPE":"Bicloo","_IDOBJ":3712,"TYPE":100601,"CATEGORIE":1006},"geometry":{"type":"Point","coordinates":[-1.56761075012927,47.2144590279511]}},{"type":"Feature","properties":{"geo":{"name":"29 Station Accueil Duguay Trouin"},"_l":[47.2134615787904,-1.55528850840637],"LIBTHEME":"DEPLACEMENT","CODE_POSTAL":44000,"WEB":"www.bicloo.nantesmetropole.fr","STATUT":null,"TELEPHONE":"01 30 79 33 44","THEME":10,"COMMUNE":"NANTES","LIBCATEGORIE":"Vélo","ADRESSE":"7 Allée Duguay Trouin","LIBTYPE":"Bicloo","_IDOBJ":3714,"TYPE":100601,"CATEGORIE":1006},"geometry":{"type":"Point","coordinates":[-1.55528850840637,47.2134615787904]}},{"type":"Feature","properties":{"geo":{"name":"30 Station Abonnement Commerce"},"_l":[47.2131450294256,-1.55738072263822],"LIBTHEME":"DEPLACEMENT","CODE_POSTAL":44000,"WEB":"www.bicloo.nantesmetropole.fr","STATUT":null,"TELEPHONE":"01 30 79 33 44","THEME":10,"COMMUNE":"NANTES","LIBCATEGORIE":"Vélo","ADRESSE":"Allée Brancas","LIBTYPE":"Bicloo","_IDOBJ":3715,"TYPE":100601,"CATEGORIE":1006},"geometry":{"type":"Point","coordinates":[-1.55738072263822,47.2131450294256]}},{"type":"Feature","properties":{"geo":{"name":"31 Station Accueil Bourse"},"_l":[47.2120943808486,-1.55910527758924],"LIBTHEME":"DEPLACEMENT","CODE_POSTAL":44000,"WEB":"www.bicloo.nantesmetropole.fr","STATUT":null,"TELEPHONE":"01 30 79 33 44","THEME":10,"COMMUNE":"NANTES","LIBCATEGORIE":"Vélo","ADRESSE":"Allée de la Bourse","LIBTYPE":"Bicloo","_IDOBJ":3716,"TYPE":100601,"CATEGORIE":1006},"geometry":{"type":"Point","coordinates":[-1.55910527758924,47.2120943808486]}},{"type":"Feature","properties":{"geo":{"name":"32 Station Accueil Rubens"},"_l":[47.2143514409189,-1.56028729072365],"LIBTHEME":"DEPLACEMENT","CODE_POSTAL":44000,"WEB":"www.bicloo.nantesmetropole.fr","STATUT":null,"TELEPHONE":"01 30 79 33 44","THEME":10,"COMMUNE":"NANTES","LIBCATEGORIE":"Vélo","ADRESSE":"Rue Rubens","LIBTYPE":"Bicloo","_IDOBJ":3717,"TYPE":100601,"CATEGORIE":1006},"geometry":{"type":"Point","coordinates":[-1.56028729072365,47.2143514409189]}},{"type":"Feature","properties":{"geo":{"name":"33 Station Accueil Racine"},"_l":[47.2134832603266,-1.5631877058962],"LIBTHEME":"DEPLACEMENT","CODE_POSTAL":44000,"WEB":"www.bicloo.nantesmetropole.fr","STATUT":null,"TELEPHONE":"01 30 79 33 44","THEME":10,"COMMUNE":"NANTES","LIBCATEGORIE":"Vélo","ADRESSE":"5 Rue Racine","LIBTYPE":"Bicloo","_IDOBJ":3718,"TYPE":100601,"CATEGORIE":1006},"geometry":{"type":"Point","coordinates":[-1.5631877058962,47.2134832603266]}},{"type":"Feature","properties":{"geo":{"name":"34 Station Abonnement Médiathèque"},"_l":[47.2109126549257,-1.5618418449525],"LIBTHEME":"DEPLACEMENT","CODE_POSTAL":44000,"WEB":"www.bicloo.nantesmetropole.fr","STATUT":null,"TELEPHONE":"01 30 79 33 44","THEME":10,"COMMUNE":"NANTES","LIBCATEGORIE":"Vélo","ADRESSE":"24 Quai de la Fosse","LIBTYPE":"Bicloo","_IDOBJ":3719,"TYPE":100601,"CATEGORIE":1006},"geometry":{"type":"Point","coordinates":[-1.5618418449525,47.2109126549257]}},{"type":"Feature","properties":{"geo":{"name":"35 Station Abonnement Jean V"},"_l":[47.212180370735,-1.56556289207478],"LIBTHEME":"DEPLACEMENT","CODE_POSTAL":44000,"WEB":"www.bicloo.nantesmetropole.fr","STATUT":null,"TELEPHONE":"01 30 79 33 44","THEME":10,"COMMUNE":"NANTES","LIBCATEGORIE":"Vélo","ADRESSE":"Place Jean V","LIBTYPE":"Bicloo","_IDOBJ":3720,"TYPE":100601,"CATEGORIE":1006},"geometry":{"type":"Point","coordinates":[-1.56556289207478,47.212180370735]}},{"type":"Feature","properties":{"geo":{"name":"36 Station Accueil Alger"},"_l":[47.210705238574,-1.5666743136651],"LIBTHEME":"DEPLACEMENT","CODE_POSTAL":44100,"WEB":"www.bicloo.nantesmetropole.fr","STATUT":null,"TELEPHONE":"01 30 79 33 44","THEME":10,"COMMUNE":"NANTES","LIBCATEGORIE":"Vélo","ADRESSE":"5 Rue d'Alger","LIBTYPE":"Bicloo","_IDOBJ":3721,"TYPE":100601,"CATEGORIE":1006},"geometry":{"type":"Point","coordinates":[-1.5666743136651,47.210705238574]}},{"type":"Feature","properties":{"geo":{"name":"37 Station Accueil Feydeau"},"_l":[47.2114728989176,-1.55688248342545],"LIBTHEME":"DEPLACEMENT","CODE_POSTAL":44000,"WEB":"www.bicloo.nantesmetropole.fr","STATUT":null,"TELEPHONE":"01 30 79 33 44","THEME":10,"COMMUNE":"NANTES","LIBCATEGORIE":"Vélo","ADRESSE":"Rue Gaston Veil","LIBTYPE":"Bicloo","_IDOBJ":3722,"TYPE":100601,"CATEGORIE":1006},"geometry":{"type":"Point","coordinates":[-1.55688248342545,47.2114728989176]}},{"type":"Feature","properties":{"geo":{"name":"38 Station Abonnement Place Ricordeau"},"_l":[47.2120904234566,-1.55313666650746],"LIBTHEME":"DEPLACEMENT","CODE_POSTAL":44000,"WEB":"www.bicloo.nantesmetropole.fr","STATUT":null,"TELEPHONE":"01 30 79 33 44","THEME":10,"COMMUNE":"NANTES","LIBCATEGORIE":"Vélo","ADRESSE":"Chaussée de la Madeleine","LIBTYPE":"Bicloo","_IDOBJ":3723,"TYPE":100601,"CATEGORIE":1006},"geometry":{"type":"Point","coordinates":[-1.55313666650746,47.2120904234566]}},{"type":"Feature","properties":{"geo":{"name":"39 Station Accueil Quai Moncousu"},"_l":[47.2093654560619,-1.555248414263],"LIBTHEME":"DEPLACEMENT","CODE_POSTAL":44000,"WEB":"www.bicloo.nantesmetropole.fr","STATUT":null,"TELEPHONE":"01 30 79 33 44","THEME":10,"COMMUNE":"NANTES","LIBCATEGORIE":"Vélo","ADRESSE":"10 Quai Moncousu","LIBTYPE":"Bicloo","_IDOBJ":3724,"TYPE":100601,"CATEGORIE":1006},"geometry":{"type":"Point","coordinates":[-1.555248414263,47.2093654560619]}},{"type":"Feature","properties":{"geo":{"name":"40 Station Accueil Madeleine"},"_l":[47.208815874652,-1.5504304749082],"LIBTHEME":"DEPLACEMENT","CODE_POSTAL":44000,"WEB":"www.bicloo.nantesmetropole.fr","STATUT":null,"TELEPHONE":"01 30 79 33 44","THEME":10,"COMMUNE":"NANTES","LIBCATEGORIE":"Vélo","ADRESSE":"2 Quai Moncousu","LIBTYPE":"Bicloo","_IDOBJ":3725,"TYPE":100601,"CATEGORIE":1006},"geometry":{"type":"Point","coordinates":[-1.5504304749082,47.208815874652]}},{"type":"Feature","properties":{"geo":{"name":"41 Station Accueil Chantier Naval"},"_l":[47.2083688395591,-1.56954316224266],"LIBTHEME":"DEPLACEMENT","CODE_POSTAL":44100,"WEB":"www.bicloo.nantesmetropole.fr","STATUT":null,"TELEPHONE":"01 30 79 33 44","THEME":10,"COMMUNE":"NANTES","LIBCATEGORIE":"Vélo","ADRESSE":"Rue Mathurin Brissonneau","LIBTYPE":"Bicloo","_IDOBJ":3726,"TYPE":100601,"CATEGORIE":1006},"geometry":{"type":"Point","coordinates":[-1.56954316224266,47.2083688395591]}},{"type":"Feature","properties":{"geo":{"name":"42 Station Abonnement Gare Maritime"},"_l":[47.2066090811753,-1.57262953237793],"LIBTHEME":"DEPLACEMENT","CODE_POSTAL":44100,"WEB":"www.bicloo.nantesmetropole.fr","STATUT":null,"TELEPHONE":"01 30 79 33 44","THEME":10,"COMMUNE":"NANTES","LIBCATEGORIE":"Vélo","ADRESSE":"Quai Ernest Renaud","LIBTYPE":"Bicloo","_IDOBJ":3727,"TYPE":100601,"CATEGORIE":1006},"geometry":{"type":"Point","coordinates":[-1.57262953237793,47.2066090811753]}},{"type":"Feature","properties":{"geo":{"name":"43 Station Abonnement Machines de l'Ile"},"_l":[47.2069302605475,-1.56482580615095],"LIBTHEME":"DEPLACEMENT","CODE_POSTAL":44200,"WEB":"www.bicloo.nantesmetropole.fr","STATUT":null,"TELEPHONE":"01 30 79 33 44","THEME":10,"COMMUNE":"NANTES","LIBCATEGORIE":"Vélo","ADRESSE":"2 Boulevard Léon Bureau","LIBTYPE":"Bicloo","_IDOBJ":3728,"TYPE":100601,"CATEGORIE":1006},"geometry":{"type":"Point","coordinates":[-1.56482580615095,47.2069302605475]}},{"type":"Feature","properties":{"geo":{"name":"44 Station Accueil Palais de Justice"},"_l":[47.2083631782056,-1.56124245373142],"LIBTHEME":"DEPLACEMENT","CODE_POSTAL":44200,"WEB":"www.bicloo.nantesmetropole.fr","STATUT":null,"TELEPHONE":"01 30 79 33 44","THEME":10,"COMMUNE":"NANTES","LIBCATEGORIE":"Vélo","ADRESSE":"19 Quai François Mitterrand","LIBTYPE":"Bicloo","_IDOBJ":3729,"TYPE":100601,"CATEGORIE":1006},"geometry":{"type":"Point","coordinates":[-1.56124245373142,47.2083631782056]}},{"type":"Feature","properties":{"geo":{"name":"45 Station Accueil Prairie au Duc"},"_l":[47.2047848192062,-1.55888284017234],"LIBTHEME":"DEPLACEMENT","CODE_POSTAL":44200,"WEB":"www.bicloo.nantesmetropole.fr","STATUT":null,"TELEPHONE":"01 30 79 33 44","THEME":10,"COMMUNE":"NANTES","LIBCATEGORIE":"Vélo","ADRESSE":"Boulevard de la Prairie au Duc","LIBTYPE":"Bicloo","_IDOBJ":3730,"TYPE":100601,"CATEGORIE":1006},"geometry":{"type":"Point","coordinates":[-1.55888284017234,47.2047848192062]}},{"type":"Feature","properties":{"geo":{"name":"46 Station Accueil Place République"},"_l":[47.2054012265916,-1.55519386163571],"LIBTHEME":"DEPLACEMENT","CODE_POSTAL":44200,"WEB":"www.bicloo.nantesmetropole.fr","STATUT":null,"TELEPHONE":"01 30 79 33 44","THEME":10,"COMMUNE":"NANTES","LIBCATEGORIE":"Vélo","ADRESSE":"3 Place de la République","LIBTYPE":"Bicloo","_IDOBJ":3731,"TYPE":100601,"CATEGORIE":1006},"geometry":{"type":"Point","coordinates":[-1.55519386163571,47.2054012265916]}},{"type":"Feature","properties":{"geo":{"name":"47 Station Abonnement Martyrs Nantais"},"_l":[47.207035364629,-1.54817985054706],"LIBTHEME":"DEPLACEMENT","CODE_POSTAL":44200,"WEB":"www.bicloo.nantesmetropole.fr","STATUT":null,"TELEPHONE":"01 30 79 33 44","THEME":10,"COMMUNE":"NANTES","LIBCATEGORIE":"Vélo","ADRESSE":"21 Boulevard Gaston Doumergue","LIBTYPE":"Bicloo","_IDOBJ":3732,"TYPE":100601,"CATEGORIE":1006},"geometry":{"type":"Point","coordinates":[-1.54817985054706,47.207035364629]}},{"type":"Feature","properties":{"geo":{"name":"48 Station Abonnement Verdun"},"_l":[47.217516769716,-1.55186817651381],"LIBTHEME":"DEPLACEMENT","CODE_POSTAL":44000,"WEB":"www.bicloo.nantesmetropole.fr","STATUT":null,"TELEPHONE":"01 30 79 33 44","THEME":10,"COMMUNE":"NANTES","LIBCATEGORIE":"Vélo","ADRESSE":"17 Rue de Verdun","LIBTYPE":"Bicloo","_IDOBJ":3733,"TYPE":100601,"CATEGORIE":1006},"geometry":{"type":"Point","coordinates":[-1.55186817651381,47.217516769716]}},{"type":"Feature","properties":{"geo":{"name":"49 Station Accueil Duchesse Anne"},"_l":[47.2165287485861,-1.54707722079028],"LIBTHEME":"DEPLACEMENT","CODE_POSTAL":44000,"WEB":"www.bicloo.nantesmetropole.fr","STATUT":null,"TELEPHONE":"01 30 79 33 44","THEME":10,"COMMUNE":"NANTES","LIBCATEGORIE":"Vélo","ADRESSE":"Rue Henri IV","LIBTYPE":"Bicloo","_IDOBJ":3734,"TYPE":100601,"CATEGORIE":1006},"geometry":{"type":"Point","coordinates":[-1.54707722079028,47.2165287485861]}},{"type":"Feature","properties":{"geo":{"name":"50 Station Abonnement Château"},"_l":[47.2151359323236,-1.55027600234498],"LIBTHEME":"DEPLACEMENT","CODE_POSTAL":44000,"WEB":"www.bicloo.nantesmetropole.fr","STATUT":null,"TELEPHONE":"01 30 79 33 44","THEME":10,"COMMUNE":"NANTES","LIBCATEGORIE":"Vélo","ADRESSE":"2 Rue des Etats","LIBTYPE":"Bicloo","_IDOBJ":3735,"TYPE":100601,"CATEGORIE":1006},"geometry":{"type":"Point","coordinates":[-1.55027600234498,47.2151359323236]}},{"type":"Feature","properties":{"geo":{"name":"52 Station Accueil Baco"},"_l":[47.2143388426474,-1.54876893751898],"LIBTHEME":"DEPLACEMENT","CODE_POSTAL":44000,"WEB":"www.bicloo.nantesmetropole.fr","STATUT":null,"TELEPHONE":"01 30 79 33 44","THEME":10,"COMMUNE":"NANTES","LIBCATEGORIE":"Vélo","ADRESSE":"Allée Baco","LIBTYPE":"Bicloo","_IDOBJ":3737,"TYPE":100601,"CATEGORIE":1006},"geometry":{"type":"Point","coordinates":[-1.54876893751898,47.2143388426474]}},{"type":"Feature","properties":{"geo":{"name":"53 Station Accueil Olivettes"},"_l":[47.2117494265765,-1.54995935107843],"LIBTHEME":"DEPLACEMENT","CODE_POSTAL":44000,"WEB":"www.bicloo.nantesmetropole.fr","STATUT":null,"TELEPHONE":"01 30 79 33 44","THEME":10,"COMMUNE":"NANTES","LIBCATEGORIE":"Vélo","ADRESSE":"10 Rue des Olivettes","LIBTYPE":"Bicloo","_IDOBJ":3738,"TYPE":100601,"CATEGORIE":1006},"geometry":{"type":"Point","coordinates":[-1.54995935107843,47.2117494265765]}},{"type":"Feature","properties":{"geo":{"name":"54 Station Abonnement Cité Internationale des Congrès"},"_l":[47.2131685540285,-1.54502748383111],"LIBTHEME":"DEPLACEMENT","CODE_POSTAL":44000,"WEB":"www.bicloo.nantesmetropole.fr","STATUT":null,"TELEPHONE":"01 30 79 33 44","THEME":10,"COMMUNE":"NANTES","LIBCATEGORIE":"Vélo","ADRESSE":"Rue de Jemmapes","LIBTYPE":"Bicloo","_IDOBJ":3739,"TYPE":100601,"CATEGORIE":1006},"geometry":{"type":"Point","coordinates":[-1.54502748383111,47.2131685540285]}},{"type":"Feature","properties":{"geo":{"name":"55 Station Accueil Magellan"},"_l":[47.2106839754833,-1.54424826339243],"LIBTHEME":"DEPLACEMENT","CODE_POSTAL":44000,"WEB":"www.bicloo.nantesmetropole.fr","STATUT":null,"TELEPHONE":"01 30 79 33 44","THEME":10,"COMMUNE":"NANTES","LIBCATEGORIE":"Vélo","ADRESSE":"11 Rue de Belfort","LIBTYPE":"Bicloo","_IDOBJ":3740,"TYPE":100601,"CATEGORIE":1006},"geometry":{"type":"Point","coordinates":[-1.54424826339243,47.2106839754833]}},{"type":"Feature","properties":{"geo":{"name":"56 Station Accueil Vincent Gache"},"_l":[47.2068847351676,-1.54185096726864],"LIBTHEME":"DEPLACEMENT","CODE_POSTAL":44200,"WEB":"www.bicloo.nantesmetropole.fr","STATUT":null,"TELEPHONE":"01 30 79 33 44","THEME":10,"COMMUNE":"NANTES","LIBCATEGORIE":"Vélo","ADRESSE":"9 Rue François Albert","LIBTYPE":"Bicloo","_IDOBJ":3741,"TYPE":100601,"CATEGORIE":1006},"geometry":{"type":"Point","coordinates":[-1.54185096726864,47.2068847351676]}},{"type":"Feature","properties":{"geo":{"name":"57 Station Abonnement Gaëtan Rondeau"},"_l":[47.2054072118627,-1.53760013962524],"LIBTHEME":"DEPLACEMENT","CODE_POSTAL":44200,"WEB":"www.bicloo.nantesmetropole.fr","STATUT":null,"TELEPHONE":"01 30 79 33 44","THEME":10,"COMMUNE":"NANTES","LIBCATEGORIE":"Vélo","ADRESSE":"20 Rue Gaëtan Rondeau","LIBTYPE":"Bicloo","_IDOBJ":3742,"TYPE":100601,"CATEGORIE":1006},"geometry":{"type":"Point","coordinates":[-1.53760013962524,47.2054072118627]}},{"type":"Feature","properties":{"geo":{"name":"58 Station Accueil Palais des Sports"},"_l":[47.2084771961567,-1.53599916068622],"LIBTHEME":"DEPLACEMENT","CODE_POSTAL":44200,"WEB":"www.bicloo.nantesmetropole.fr","STATUT":null,"TELEPHONE":"01 30 79 33 44","THEME":10,"COMMUNE":"NANTES","LIBCATEGORIE":"Vélo","ADRESSE":"21 Rue René Viviani","LIBTYPE":"Bicloo","_IDOBJ":3743,"TYPE":100601,"CATEGORIE":1006},"geometry":{"type":"Point","coordinates":[-1.53599916068622,47.2084771961567]}},{"type":"Feature","properties":{"geo":{"name":"59 Station Accueil Stade Saupin"},"_l":[47.2139780010056,-1.53963958134972],"LIBTHEME":"DEPLACEMENT","CODE_POSTAL":44000,"WEB":"www.bicloo.nantesmetropole.fr","STATUT":null,"TELEPHONE":"01 30 79 33 44","THEME":10,"COMMUNE":"NANTES","LIBCATEGORIE":"Vélo","ADRESSE":"35 Quai Malakoff","LIBTYPE":"Bicloo","_IDOBJ":3744,"TYPE":100601,"CATEGORIE":1006},"geometry":{"type":"Point","coordinates":[-1.53963958134972,47.2139780010056]}},{"type":"Feature","properties":{"geo":{"name":"60 Station Abonnement Gare Sud"},"_l":[47.2159307421474,-1.54286596091712],"LIBTHEME":"DEPLACEMENT","CODE_POSTAL":44000,"WEB":"www.bicloo.nanresmetropole.fr","STATUT":null,"TELEPHONE":"01 30 79 33 44","THEME":10,"COMMUNE":"NANTES","LIBCATEGORIE":"Vélo","ADRESSE":"12 Rue de Lourmel","LIBTYPE":"Bicloo","_IDOBJ":3745,"TYPE":100601,"CATEGORIE":1006},"geometry":{"type":"Point","coordinates":[-1.54286596091712,47.2159307421474]}},{"type":"Feature","properties":{"geo":{"name":"61 Station Accueil LU Lieu Unique"},"_l":[47.2156027850142,-1.54592421117785],"LIBTHEME":"DEPLACEMENT","CODE_POSTAL":44000,"WEB":"www.bicloo.nantesmetropole.fr","STATUT":null,"TELEPHONE":"01 30 79 33 44","THEME":10,"COMMUNE":"NANTES","LIBCATEGORIE":"Vélo","ADRESSE":"Quai Malakoff","LIBTYPE":"Bicloo","_IDOBJ":3746,"TYPE":100601,"CATEGORIE":1006},"geometry":{"type":"Point","coordinates":[-1.54592421117785,47.2156027850142]}},{"type":"Feature","properties":{"geo":{"name":"62 Station Abonnement Gare Nord"},"_l":[47.2181414046142,-1.54224096840209],"LIBTHEME":"DEPLACEMENT","CODE_POSTAL":44000,"WEB":"www.bicloo.nantesmetropole.fr","STATUT":null,"TELEPHONE":"01 30 79 33 44","THEME":10,"COMMUNE":"NANTES","LIBCATEGORIE":"Vélo","ADRESSE":"1 Place Charles le Roux","LIBTYPE":"Bicloo","_IDOBJ":3747,"TYPE":100601,"CATEGORIE":1006},"geometry":{"type":"Point","coordinates":[-1.54224096840209,47.2181414046142]}},{"type":"Feature","properties":{"geo":{"name":"63 Station Accueil Jardins des Plantes"},"_l":[47.2199317719337,-1.54476410962437],"LIBTHEME":"DEPLACEMENT","CODE_POSTAL":44000,"WEB":"www.bicloo.nantesmetropole.fr","STATUT":null,"TELEPHONE":"01 30 79 33 44","THEME":10,"COMMUNE":"NANTES","LIBCATEGORIE":"Vélo","ADRESSE":"6 Rue Stanislas Baudry","LIBTYPE":"Bicloo","_IDOBJ":3748,"TYPE":100601,"CATEGORIE":1006},"geometry":{"type":"Point","coordinates":[-1.54476410962437,47.2199317719337]}},{"type":"Feature","properties":{"geo":{"name":"64 Station Abonnement et Bonus Saint Clément"},"_l":[47.2217983948072,-1.54717172480906],"LIBTHEME":"DEPLACEMENT","CODE_POSTAL":44000,"WEB":"www.bicloo.nantesmetropole.fr","STATUT":null,"TELEPHONE":"01 30 79 33 44","THEME":10,"COMMUNE":"NANTES","LIBCATEGORIE":"Vélo","ADRESSE":"37 Rue Maréchal Joffre","LIBTYPE":"Bicloo","_IDOBJ":3750,"TYPE":100601,"CATEGORIE":1006},"geometry":{"type":"Point","coordinates":[-1.54717172480906,47.2217983948072]}},{"type":"Feature","properties":{"geo":{"name":"65 Station Accueil Sully"},"_l":[47.2225988184658,-1.5516848391931],"LIBTHEME":"DEPLACEMENT","CODE_POSTAL":44000,"WEB":"www.bicloo.nantesmetropole.fr","STATUT":null,"TELEPHONE":"01 30 79 33 44","THEME":10,"COMMUNE":"NANTES","LIBCATEGORIE":"Vélo","ADRESSE":"7 Cours Sully","LIBTYPE":"Bicloo","_IDOBJ":3751,"TYPE":100601,"CATEGORIE":1006},"geometry":{"type":"Point","coordinates":[-1.5516848391931,47.2225988184658]}},{"type":"Feature","properties":{"geo":{"name":"66 Station Accueil Chanzy"},"_l":[47.2254413947716,-1.54801802179078],"LIBTHEME":"DEPLACEMENT","CODE_POSTAL":44000,"WEB":"www.bicloo.nantesmetropole.fr","STATUT":null,"TELEPHONE":"01 30 79 33 44","THEME":10,"COMMUNE":"NANTES","LIBCATEGORIE":"Vélo","ADRESSE":"Avenue Chanzy","LIBTYPE":"Bicloo","_IDOBJ":3752,"TYPE":100601,"CATEGORIE":1006},"geometry":{"type":"Point","coordinates":[-1.54801802179078,47.2254413947716]}},{"type":"Feature","properties":{"geo":{"name":"67 Station Accueil Place Waldeck Rousseau"},"_l":[47.2277863381608,-1.55216613912966],"LIBTHEME":"DEPLACEMENT","CODE_POSTAL":44000,"WEB":"www.bicloo.nantesmetropole.fr","STATUT":null,"TELEPHONE":"01 30 79 33 44","THEME":10,"COMMUNE":"NANTES","LIBCATEGORIE":"Vélo","ADRESSE":"Place Waldeck Rousseau","LIBTYPE":"Bicloo","_IDOBJ":3753,"TYPE":100601,"CATEGORIE":1006},"geometry":{"type":"Point","coordinates":[-1.55216613912966,47.2277863381608]}},{"type":"Feature","properties":{"geo":{"name":"68 Station Accueil Livet"},"_l":[47.2240954955051,-1.54521632095855],"LIBTHEME":"DEPLACEMENT","CODE_POSTAL":44000,"WEB":"www.bicloo.nanresmetropole.fr","STATUT":null,"TELEPHONE":"01 30 79 33 44","THEME":10,"COMMUNE":"NANTES","LIBCATEGORIE":"Vélo","ADRESSE":"65 Rue Dufour","LIBTYPE":"Bicloo","_IDOBJ":3754,"TYPE":100601,"CATEGORIE":1006},"geometry":{"type":"Point","coordinates":[-1.54521632095855,47.2240954955051]}},{"type":"Feature","properties":{"geo":{"name":"69 Station Accueil Manufacture"},"_l":[47.2192276992993,-1.53586535019784],"LIBTHEME":"DEPLACEMENT","CODE_POSTAL":44000,"WEB":"www.bicloo.nantesmetropole.fr","STATUT":null,"TELEPHONE":"01 30 79 33 44","THEME":10,"COMMUNE":"NANTES","LIBCATEGORIE":"Vélo","ADRESSE":"11 Boulevard de Stalingrad","LIBTYPE":"Bicloo","_IDOBJ":3755,"TYPE":100601,"CATEGORIE":1006},"geometry":{"type":"Point","coordinates":[-1.53586535019784,47.2192276992993]}},{"type":"Feature","properties":{"geo":{"name":"70 Station Abonnement et Bonus Foch Cathédrale"},"_l":[47.2186945659362,-1.55048013677801],"LIBTHEME":"DEPLACEMENT","CODE_POSTAL":44000,"WEB":"www.bicloo.nantesmetropole.fr","STATUT":null,"TELEPHONE":"01 30 79 33 44","THEME":10,"COMMUNE":"NANTES","LIBCATEGORIE":"Vélo","ADRESSE":"Rue de l'Evêché","LIBTYPE":"Bicloo","_IDOBJ":3756,"TYPE":100601,"CATEGORIE":1006},"geometry":{"type":"Point","coordinates":[-1.55048013677801,47.2186945659362]}},{"type":"Feature","properties":{"geo":{"name":"71 Station Abonnement et Bonus Marché Talensac Nord"},"_l":[47.2219103419541,-1.55906934287743],"LIBTHEME":"DEPLACEMENT","CODE_POSTAL":44000,"WEB":"www.bicloo.nantesmetropole.fr","STATUT":null,"TELEPHONE":"01 30 79 33 44","THEME":10,"COMMUNE":"NANTES","LIBCATEGORIE":"Vélo","ADRESSE":"17 Rue de Bel Air","LIBTYPE":"Bicloo","_IDOBJ":3757,"TYPE":100601,"CATEGORIE":1006},"geometry":{"type":"Point","coordinates":[-1.55906934287743,47.2219103419541]}},{"type":"Feature","properties":{"geo":{"name":"73 Station Accueil Sarradin"},"_l":[47.2208837667212,-1.57050717785263],"LIBTHEME":"DEPLACEMENT","CODE_POSTAL":44000,"WEB":"www.bicloo.nantesmetropole.fr","STATUT":null,"TELEPHONE":"01 30 79 33 44","THEME":10,"COMMUNE":"NANTES","LIBCATEGORIE":"Vélo","ADRESSE":"4 Place Emile Sarradin","LIBTYPE":"Bicloo","_IDOBJ":3759,"TYPE":100601,"CATEGORIE":1006},"geometry":{"type":"Point","coordinates":[-1.57050717785263,47.2208837667212]}},{"type":"Feature","properties":{"geo":{"name":"74 Station Accueil Place Canclaux"},"_l":[47.2143716842925,-1.57500608192678],"LIBTHEME":"DEPLACEMENT","CODE_POSTAL":44100,"WEB":"www.bicloo.nantesmetropole.fr","STATUT":null,"TELEPHONE":"01 30 79 33 44","THEME":10,"COMMUNE":"NANTES","LIBCATEGORIE":"Vélo","ADRESSE":"8 Place Canclaux","LIBTYPE":"Bicloo","_IDOBJ":3760,"TYPE":100601,"CATEGORIE":1006},"geometry":{"type":"Point","coordinates":[-1.57500608192678,47.2143716842925]}},{"type":"Feature","properties":{"geo":{"name":"75 Station Accueil Lamoricière"},"_l":[47.212365614395,-1.57139899840128],"LIBTHEME":"DEPLACEMENT","CODE_POSTAL":44100,"WEB":"www.bicloo.nantesmetropole.fr","STATUT":null,"TELEPHONE":"01 30 79 33 44","THEME":10,"COMMUNE":"NANTES","LIBCATEGORIE":"Vélo","ADRESSE":"Rue Lamoricière","LIBTYPE":"Bicloo","_IDOBJ":3761,"TYPE":100601,"CATEGORIE":1006},"geometry":{"type":"Point","coordinates":[-1.57139899840128,47.212365614395]}},{"type":"Feature","properties":{"geo":{"name":"76 Station Accueil Place René Bouhier"},"_l":[47.2094420409641,-1.57058928666779],"LIBTHEME":"DEPLACEMENT","CODE_POSTAL":44100,"WEB":"www.bicloo.nantesmetropole.fr","STATUT":null,"TELEPHONE":"01 30 79 33 44","THEME":10,"COMMUNE":"NANTES","LIBCATEGORIE":"Vélo","ADRESSE":"8 Place René Bouhier","LIBTYPE":"Bicloo","_IDOBJ":3762,"TYPE":100601,"CATEGORIE":1006},"geometry":{"type":"Point","coordinates":[-1.57058928666779,47.2094420409641]}},{"type":"Feature","properties":{"geo":{"name":"77 Station Accueil Ecole d'Architecture"},"_l":[47.2076169020017,-1.55755125966966],"LIBTHEME":"DEPLACEMENT","CODE_POSTAL":44200,"WEB":"www.bicloo.nantesmetropole.fr","STATUT":null,"TELEPHONE":"01 30 79 33 44","THEME":10,"COMMUNE":"NANTES","LIBCATEGORIE":"Vélo","ADRESSE":"Quai François Mitterrand","LIBTYPE":"Bicloo","_IDOBJ":3763,"TYPE":100601,"CATEGORIE":1006},"geometry":{"type":"Point","coordinates":[-1.55755125966966,47.2076169020017]}},{"type":"Feature","properties":{"geo":{"name":"78 Station Accueil De Gaulle"},"_l":[47.2084603783954,-1.54056873329161],"LIBTHEME":"DEPLACEMENT","CODE_POSTAL":44200,"WEB":"www.bicloo.nantesmetropole.fr","STATUT":null,"TELEPHONE":"01 30 79 33 44","THEME":10,"COMMUNE":"NANTES","LIBCATEGORIE":"Vélo","ADRESSE":"Boulevard Général de Gaulle","LIBTYPE":"Bicloo","_IDOBJ":3764,"TYPE":100601,"CATEGORIE":1006},"geometry":{"type":"Point","coordinates":[-1.54056873329161,47.2084603783954]}},{"type":"Feature","properties":{"geo":{"name":"79 Station Accueil Malakoff"},"_l":[47.2132345266324,-1.53642071591634],"LIBTHEME":"DEPLACEMENT","CODE_POSTAL":44000,"WEB":"www.bicloo.nantesmetropole.fr","STATUT":null,"TELEPHONE":"01 30 79 33 44","THEME":10,"COMMUNE":"NANTES","LIBCATEGORIE":"Vélo","ADRESSE":"13 Quai Malakoff","LIBTYPE":"Bicloo","_IDOBJ":3765,"TYPE":100601,"CATEGORIE":1006},"geometry":{"type":"Point","coordinates":[-1.53642071591634,47.2132345266324]}},{"type":"Feature","properties":{"geo":{"name":"87 Station Accueil Anatole-France"},"_l":[47.2236164437223,-1.57139236049388],"LIBTHEME":"DEPLACEMENT","CODE_POSTAL":44000,"WEB":"www.bicloo.nantesmetropole.fr","STATUT":null,"TELEPHONE":"01 30 79 33 44","THEME":10,"COMMUNE":"NANTES","LIBCATEGORIE":"Vélo","ADRESSE":"34 Rue Alexandre Dumas","LIBTYPE":"Bicloo","_IDOBJ":3830,"TYPE":100601,"CATEGORIE":1006},"geometry":{"type":"Point","coordinates":[-1.57139236049388,47.2236164437223]}},{"type":"Feature","properties":{"geo":{"name":"86 Station Accueil Hauts-Pavés"},"_l":[47.2254822618338,-1.56752047182291],"LIBTHEME":"DEPLACEMENT","CODE_POSTAL":44000,"WEB":"www.bicloo.nantesmetropole.fr","STATUT":null,"TELEPHONE":"01 30 79 33 44","THEME":10,"COMMUNE":"NANTES","LIBCATEGORIE":"Vélo","ADRESSE":"Rue des Hauts Pavés","LIBTYPE":"Bicloo","_IDOBJ":3831,"TYPE":100601,"CATEGORIE":1006},"geometry":{"type":"Point","coordinates":[-1.56752047182291,47.2254822618338]}},{"type":"Feature","properties":{"geo":{"name":"88 Station Accueil Mellinet"},"_l":[47.211489622114,-1.57712676541886],"LIBTHEME":"DEPLACEMENT","CODE_POSTAL":44100,"WEB":"www.bicloo.nantesmetropole.fr","STATUT":null,"TELEPHONE":"01 30 79 33 44","THEME":10,"COMMUNE":"NANTES","LIBCATEGORIE":"Vélo","ADRESSE":"1 Boulevard Allard","LIBTYPE":"Bicloo","_IDOBJ":3833,"TYPE":100601,"CATEGORIE":1006},"geometry":{"type":"Point","coordinates":[-1.57712676541886,47.211489622114]}},{"type":"Feature","properties":{"geo":{"name":"89 Station Accueil Saint-Aignan"},"_l":[47.2074440639466,-1.57871509661417],"LIBTHEME":"DEPLACEMENT","CODE_POSTAL":44100,"WEB":"www.bicloo.nantesmetropole.fr","STATUT":null,"TELEPHONE":"01 30 79 33 44","THEME":10,"COMMUNE":"NANTES","LIBCATEGORIE":"Vélo","ADRESSE":"65 Boulevard Saint Aignan","LIBTYPE":"Bicloo","_IDOBJ":3834,"TYPE":100601,"CATEGORIE":1006},"geometry":{"type":"Point","coordinates":[-1.57871509661417,47.2074440639466]}},{"type":"Feature","properties":{"geo":{"name":"80 Station Accueil Victor-Hugo"},"_l":[47.2040143599928,-1.55156732506795],"LIBTHEME":"DEPLACEMENT","CODE_POSTAL":44200,"WEB":"www.bicloo.nantesmetropole.fr","STATUT":null,"TELEPHONE":"01 30 79 33 44","THEME":10,"COMMUNE":"NANTES","LIBCATEGORIE":"Vélo","ADRESSE":"Boulevard Victor Hugo","LIBTYPE":"Bicloo","_IDOBJ":3835,"TYPE":100601,"CATEGORIE":1006},"geometry":{"type":"Point","coordinates":[-1.55156732506795,47.2040143599928]}},{"type":"Feature","properties":{"geo":{"name":"81 Station Abonnement Mangin"},"_l":[47.2010219272,-1.54549762740334],"LIBTHEME":"DEPLACEMENT","CODE_POSTAL":44200,"WEB":"www.bicloo.nantesmetropole.fr","STATUT":null,"TELEPHONE":"01 30 79 33 44","THEME":10,"COMMUNE":"NANTES","LIBCATEGORIE":"Vélo","ADRESSE":"8 Place Victor Mangin","LIBTYPE":"Bicloo","_IDOBJ":3836,"TYPE":100601,"CATEGORIE":1006},"geometry":{"type":"Point","coordinates":[-1.54549762740334,47.2010219272]}},{"type":"Feature","properties":{"geo":{"name":"82 Station Accueil Sébilleau"},"_l":[47.2067685846983,-1.53313636292619],"LIBTHEME":"DEPLACEMENT","CODE_POSTAL":44200,"WEB":"www.bicloo.nantesmetropole.fr","STATUT":null,"TELEPHONE":"01 30 79 33 44","THEME":10,"COMMUNE":"NANTES","LIBCATEGORIE":"Vélo","ADRESSE":"Rue Docteur Jules Sébilleau","LIBTYPE":"Bicloo","_IDOBJ":3837,"TYPE":100601,"CATEGORIE":1006},"geometry":{"type":"Point","coordinates":[-1.53313636292619,47.2067685846983]}},{"type":"Feature","properties":{"geo":{"name":"83 Station Abonnement Millerand"},"_l":[47.208217819463,-1.53016141349475],"LIBTHEME":"DEPLACEMENT","CODE_POSTAL":44200,"WEB":"www.bicloo.nantesmetropole.fr","STATUT":null,"TELEPHONE":"01 30 79 33 44","THEME":10,"COMMUNE":"NANTES","LIBCATEGORIE":"Vélo","ADRESSE":"9 Boulevard Alexandre Millerand","LIBTYPE":"Bicloo","_IDOBJ":3838,"TYPE":100601,"CATEGORIE":1006},"geometry":{"type":"Point","coordinates":[-1.53016141349475,47.208217819463]}},{"type":"Feature","properties":{"geo":{"name":"84 Station Accueil Région"},"_l":[47.2107532371851,-1.52595127548116],"LIBTHEME":"DEPLACEMENT","CODE_POSTAL":44200,"WEB":"www.bicloo.nantesmetropole.fr","STATUT":null,"TELEPHONE":"01 30 79 33 44","THEME":10,"COMMUNE":"NANTES","LIBCATEGORIE":"Vélo","ADRESSE":"Place Gaston Defferre","LIBTYPE":"Bicloo","_IDOBJ":3839,"TYPE":100601,"CATEGORIE":1006},"geometry":{"type":"Point","coordinates":[-1.52595127548116,47.2107532371851]}},{"type":"Feature","properties":{"geo":{"name":"85 Station Accueil et Bonus Bel Air"},"_l":[47.2264060339437,-1.56004122137593],"LIBTHEME":"DEPLACEMENT","CODE_POSTAL":44000,"WEB":"www.bicloo.nantesmetropole.fr","STATUT":null,"TELEPHONE":"01 30 79 33 44","THEME":10,"COMMUNE":"NANTES","LIBCATEGORIE":"Vélo","ADRESSE":"102 Rue Paul Bellamy","LIBTYPE":"Bicloo","_IDOBJ":3952,"TYPE":100601,"CATEGORIE":1006},"geometry":{"type":"Point","coordinates":[-1.56004122137593,47.2264060339437]}},{"type":"Feature","properties":{"geo":{"name":"10 Station Accueil Picasso"},"_l":[47.2163435868477,-1.53422912101255],"LIBTHEME":"DEPLACEMENT","CODE_POSTAL":44000,"WEB":"www.bicloo.nantesmetropole.fr","STATUT":null,"TELEPHONE":"01 30 79 33 44","THEME":10,"COMMUNE":"NANTES","LIBCATEGORIE":"Vélo","ADRESSE":"Mail Pablo Picasso","LIBTYPE":"Bicloo","_IDOBJ":3973,"TYPE":100601,"CATEGORIE":1006},"geometry":{"type":"Point","coordinates":[-1.53422912101255,47.2163435868477]}},{"type":"Feature","properties":{"geo":{"name":"51 Station Abonnement Berlin"},"_l":[47.2143914699763,-1.53007250061588],"LIBTHEME":"DEPLACEMENT","CODE_POSTAL":44000,"WEB":"www.bicloo.nantesmetropole.fr","STATUT":null,"TELEPHONE":"01 30 79 33 44","THEME":10,"COMMUNE":"NANTES","LIBCATEGORIE":"Vélo","ADRESSE":"Boulevard de Sarrebruck","LIBTYPE":"Bicloo","_IDOBJ":3974,"TYPE":100601,"CATEGORIE":1006},"geometry":{"type":"Point","coordinates":[-1.53007250061588,47.2143914699763]}},{"type":"Feature","properties":{"geo":{"name":"92 Station Abonnement Rond Point Rennes"},"_l":[47.2330917037559,-1.56601698077602],"LIBTHEME":"DEPLACEMENT","CODE_POSTAL":44000,"WEB":"www.bicloo.nantesmetropole.fr","STATUT":null,"TELEPHONE":"01 30 79 33 44","THEME":10,"COMMUNE":"NANTES","LIBCATEGORIE":"Vélo","ADRESSE":"Rond-Point de Rennes","LIBTYPE":"Bicloo","_IDOBJ":3993,"TYPE":100601,"CATEGORIE":1006},"geometry":{"type":"Point","coordinates":[-1.56601698077602,47.2330917037559]}},{"type":"Feature","properties":{"geo":{"name":"91 Station Abonnement Rond Point Vannes"},"_l":[47.229675345348,-1.57201209125591],"LIBTHEME":"DEPLACEMENT","CODE_POSTAL":44000,"WEB":"www.bicloo.nantesmetropole.fr","STATUT":null,"TELEPHONE":"01 30 79 33 44","THEME":10,"COMMUNE":"NANTES","LIBCATEGORIE":"Vélo","ADRESSE":"63B Boulevard Lelasseur","LIBTYPE":"Bicloo","_IDOBJ":3994,"TYPE":100601,"CATEGORIE":1006},"geometry":{"type":"Point","coordinates":[-1.57201209125591,47.229675345348]}},{"type":"Feature","properties":{"geo":{"name":"90 Station Abonnement Procé"},"_l":[47.2243215861999,-1.57658356660229],"LIBTHEME":"DEPLACEMENT","CODE_POSTAL":44000,"WEB":"www.bicloo.nantesmetropole.fr","STATUT":null,"TELEPHONE":"01 30 79 33 44","THEME":10,"COMMUNE":"NANTES","LIBCATEGORIE":"Vélo","ADRESSE":"Boulevard Gaston Serpette","LIBTYPE":"Bicloo","_IDOBJ":3995,"TYPE":100601,"CATEGORIE":1006},"geometry":{"type":"Point","coordinates":[-1.57658356660229,47.2243215861999]}},{"type":"Feature","properties":{"geo":{"name":"102 Station Abonnement Gare Pont Rousseau"},"_l":[47.1931492766954,-1.54900545446362],"LIBTHEME":"DEPLACEMENT","CODE_POSTAL":44400,"WEB":"www.bicloo.nantesmetropole.fr","STATUT":null,"TELEPHONE":"01 30 79 33 44","THEME":10,"COMMUNE":"REZE","LIBCATEGORIE":"Vélo","ADRESSE":"Rue de la Gare","LIBTYPE":"Bicloo","_IDOBJ":3996,"TYPE":100601,"CATEGORIE":1006},"geometry":{"type":"Point","coordinates":[-1.54900545446362,47.1931492766954]}},{"type":"Feature","properties":{"geo":{"name":"101 Station Abonnement Pirmil"},"_l":[47.1966294882289,-1.54145063364339],"LIBTHEME":"DEPLACEMENT","CODE_POSTAL":44200,"WEB":"www.bicloo.nantesmetropole.fr","STATUT":null,"TELEPHONE":"01 30 79 33 44","THEME":10,"COMMUNE":"NANTES","LIBCATEGORIE":"Vélo","ADRESSE":"Rue Esnoult des Châtelets","LIBTYPE":"Bicloo","_IDOBJ":3997,"TYPE":100601,"CATEGORIE":1006},"geometry":{"type":"Point","coordinates":[-1.54145063364339,47.1966294882289]}},{"type":"Feature","properties":{"geo":{"name":"99 Station Accueil Saint-Jacques"},"_l":[47.1958591605985,-1.53658962887906],"LIBTHEME":"DEPLACEMENT","CODE_POSTAL":44200,"WEB":"www.bicloo.nantesmetropole.fr","STATUT":null,"TELEPHONE":"01 30 79 33 44","THEME":10,"COMMUNE":"NANTES","LIBCATEGORIE":"Vélo","ADRESSE":"85 Rue Saint Jacques","LIBTYPE":"Bicloo","_IDOBJ":3998,"TYPE":100601,"CATEGORIE":1006},"geometry":{"type":"Point","coordinates":[-1.53658962887906,47.1958591605985]}},{"type":"Feature","properties":{"geo":{"name":"100 Station Abonnement Gréneraie"},"_l":[47.1999707101929,-1.5346071537874],"LIBTHEME":"DEPLACEMENT","CODE_POSTAL":44200,"WEB":"www.bicloo.nantesmetropole.fr","STATUT":null,"TELEPHONE":"01 30 79 33 44","THEME":10,"COMMUNE":"NANTES","LIBCATEGORIE":"Vélo","ADRESSE":"Côte Saint Sébastien","LIBTYPE":"Bicloo","_IDOBJ":3999,"TYPE":100601,"CATEGORIE":1006},"geometry":{"type":"Point","coordinates":[-1.5346071537874,47.1999707101929]}},{"type":"Feature","properties":{"geo":{"name":"96 Station Abonnement Tortière"},"_l":[47.2353448001876,-1.54947343741177],"LIBTHEME":"DEPLACEMENT","CODE_POSTAL":44000,"WEB":"www.bicloo.nantesmetropole.fr","STATUT":null,"TELEPHONE":"01 30 79 33 44","THEME":10,"COMMUNE":"NANTES","LIBCATEGORIE":"Vélo","ADRESSE":"Boulevard Eugène Orieux","LIBTYPE":"Bicloo","_IDOBJ":4000,"TYPE":100601,"CATEGORIE":1006},"geometry":{"type":"Point","coordinates":[-1.54947343741177,47.2353448001876]}},{"type":"Feature","properties":{"geo":{"name":"95 Station Abonnement Michelet"},"_l":[47.2350837066755,-1.55638870204855],"LIBTHEME":"DEPLACEMENT","CODE_POSTAL":44300,"WEB":"www.bicloo.nantesmetropole.fr","STATUT":null,"TELEPHONE":"01 30 79 33 44","THEME":10,"COMMUNE":"NANTES","LIBCATEGORIE":"Vélo","ADRESSE":"38 Boulevard Michelet","LIBTYPE":"Bicloo","_IDOBJ":4001,"TYPE":100601,"CATEGORIE":1006},"geometry":{"type":"Point","coordinates":[-1.55638870204855,47.2350837066755]}},{"type":"Feature","properties":{"geo":{"name":"94 Station Abonnement Petit Port"},"_l":[47.2432626440766,-1.55638098635507],"LIBTHEME":"DEPLACEMENT","CODE_POSTAL":44300,"WEB":"www.bicloo.nantesmetropole.fr","STATUT":null,"TELEPHONE":"01 30 79 33 44","THEME":10,"COMMUNE":"NANTES","LIBCATEGORIE":"Vélo","ADRESSE":"Place du Huit Mai 1945","LIBTYPE":"Bicloo","_IDOBJ":4002,"TYPE":100601,"CATEGORIE":1006},"geometry":{"type":"Point","coordinates":[-1.55638098635507,47.2432626440766]}},{"type":"Feature","properties":{"geo":{"name":"93 Station Abonnement Facultés"},"_l":[47.2463232883454,-1.5553383498054],"LIBTHEME":"DEPLACEMENT","CODE_POSTAL":44300,"WEB":"www.bicloo.nantesmetropole.fr","STATUT":null,"TELEPHONE":"01 30 79 33 44","THEME":10,"COMMUNE":"NANTES","LIBCATEGORIE":"Vélo","ADRESSE":"Boulevard Guy Mollet","LIBTYPE":"Bicloo","_IDOBJ":4003,"TYPE":100601,"CATEGORIE":1006},"geometry":{"type":"Point","coordinates":[-1.5553383498054,47.2463232883454]}},{"type":"Feature","properties":{"geo":{"name":"97 Station Accueil Saint-Donatien"},"_l":[47.2291287626691,-1.5404024174378],"LIBTHEME":"DEPLACEMENT","CODE_POSTAL":44000,"WEB":"www.bicloo.nantesmetropole.fr","STATUT":null,"TELEPHONE":"01 30 79 33 44","THEME":10,"COMMUNE":"NANTES","LIBCATEGORIE":"Vélo","ADRESSE":"69 Rue Général Buat","LIBTYPE":"Bicloo","_IDOBJ":4004,"TYPE":100601,"CATEGORIE":1006},"geometry":{"type":"Point","coordinates":[-1.5404024174378,47.2291287626691]}},{"type":"Feature","properties":{"geo":{"name":"98 Station Abonnement Huit Mai"},"_l":[47.1891485324905,-1.55093306486444],"LIBTHEME":"DEPLACEMENT","CODE_POSTAL":44400,"WEB":"www.bicloo.nantesmetropole.fr","STATUT":null,"TELEPHONE":"01 30 79 33 44","THEME":10,"COMMUNE":"REZE","LIBCATEGORIE":"Vélo","ADRESSE":"Avenue de la Libération","LIBTYPE":"Bicloo","_IDOBJ":4005,"TYPE":100601,"CATEGORIE":1006},"geometry":{"type":"Point","coordinates":[-1.55093306486444,47.1891485324905]}},{"type":"Feature","properties":{"geo":{"name":"103 Station Mobile"},"_l":[47.2059145067047,-1.56970373529113],"LIBTHEME":"DEPLACEMENT","CODE_POSTAL":44200,"WEB":"www.bicloo.nantesmetropole.fr","STATUT":null,"TELEPHONE":"01 30 79 33 44","THEME":10,"COMMUNE":"NANTES","LIBCATEGORIE":"Vélo","ADRESSE":"Quai Fernand Crouan","LIBTYPE":"Bicloo","_IDOBJ":4053,"TYPE":100601,"CATEGORIE":1006},"geometry":{"type":"Point","coordinates":[-1.56970373529113,47.2059145067047]}},{"type":"Feature","properties":{"geo":{"name":"72 Station Accueil Bellamy Gué-Moreau"},"_l":[47.2286141235376,-1.56192014921017],"LIBTHEME":"DEPLACEMENT","CODE_POSTAL":44000,"WEB":"www.bicloo.nantesmetropole.fr","STATUT":null,"TELEPHONE":"01 30 79 33 44","THEME":10,"COMMUNE":"NANTES","LIBCATEGORIE":"Vélo","ADRESSE":"Rue Paul Bellamy","LIBTYPE":"Bicloo","_IDOBJ":4077,"TYPE":100601,"CATEGORIE":1006},"geometry":{"type":"Point","coordinates":[-1.56192014921017,47.2286141235376]}},{"type":"Feature","properties":{"geo":{"name":"70 Station Accueil Quai Malakoff"},"_l":[47.2154852089099,-1.54293730193395],"LIBTHEME":"DEPLACEMENT","CODE_POSTAL":44000,"WEB":"www.bicloo.nantesmetropole.fr","STATUT":null,"TELEPHONE":"01 30 79 33 44","THEME":10,"COMMUNE":"NANTES","LIBCATEGORIE":"Vélo","ADRESSE":"Quai Malakoff","LIBTYPE":"Bicloo","_IDOBJ":4562,"TYPE":100601,"CATEGORIE":1006},"geometry":{"type":"Point","coordinates":[-1.54293730193395,47.2154852089099]}}]}