{"type":"FeatureCollection","features":[{"type":"Feature","properties":{"geo":{"name":"Parking ouvrage Médiathèque"},"_l":[47.2108708271003,-1.5623381759623],"LIBTHEME":"DEPLACEMENT","CODE_POSTAL":44000,"WEB":"www.parkings-nantes.fr","STATUT":null,"TELEPHONE":"02 51 84 94 51","THEME":10,"COMMUNE":"NANTES","LIBCATEGORIE":"Parking Ouvrage","ADRESSE":"Rue Neuve des Capucins","LIBTYPE":"Mixte","_IDOBJ":134,"TYPE":100103,"CATEGORIE":1001},"geometry":{"type":"Point","coordinates":[-1.5623381759623,47.2108708271003]}},{"type":"Feature","properties":{"geo":{"name":"Gare SNCF de Doulon"},"_l":[47.2285285048663,-1.51724402726267],"LIBTHEME":"DEPLACEMENT","CODE_POSTAL":44300,"WEB":"www.gares-connexions.com","STATUT":null,"TELEPHONE":"36 35","THEME":10,"COMMUNE":"NANTES","LIBCATEGORIE":"Transport en commun","ADRESSE":"Rue des Perrines","LIBTYPE":"Rail","_IDOBJ":245,"TYPE":100403,"CATEGORIE":1004},"geometry":{"type":"Point","coordinates":[-1.51724402726267,47.2285285048663]}},{"type":"Feature","properties":{"geo":{"name":"Gare SNCF de Chantenay"},"_l":[47.1972022454039,-1.59435499316903],"LIBTHEME":"DEPLACEMENT","CODE_POSTAL":44100,"WEB":"www.gares-connexions.com","STATUT":null,"TELEPHONE":"36 35","THEME":10,"COMMUNE":"NANTES","LIBCATEGORIE":"Transport en commun","ADRESSE":"Rue de la Gare de Chantenay","LIBTYPE":"Rail","_IDOBJ":261,"TYPE":100403,"CATEGORIE":1004},"geometry":{"type":"Point","coordinates":[-1.59435499316903,47.1972022454039]}},{"type":"Feature","properties":{"geo":{"name":"Parking ouvrage Gare Nord"},"_l":[47.2166890401729,-1.54498433411572],"LIBTHEME":"DEPLACEMENT","CODE_POSTAL":44000,"WEB":"www.resaplace.com","STATUT":null,"TELEPHONE":"08 25 88 88 26","THEME":10,"COMMUNE":"NANTES","LIBCATEGORIE":"Parking Ouvrage","ADRESSE":"Cours John Kennedy","LIBTYPE":"Elévation","_IDOBJ":280,"TYPE":100102,"CATEGORIE":1001},"geometry":{"type":"Point","coordinates":[-1.54498433411572,47.2166890401729]}},{"type":"Feature","properties":{"geo":{"name":"Gare SNCF de Nantes Nord - Direction régionale"},"_l":[47.2174911129885,-1.54205106482655],"LIBTHEME":"DEPLACEMENT","CODE_POSTAL":44000,"WEB":"www.gares-connexions.com","STATUT":null,"TELEPHONE":"36 35","THEME":10,"COMMUNE":"NANTES","LIBCATEGORIE":"Transport en commun","ADRESSE":"Boulevard de Stalingrad","LIBTYPE":"Rail","_IDOBJ":281,"TYPE":100403,"CATEGORIE":1004},"geometry":{"type":"Point","coordinates":[-1.54205106482655,47.2174911129885]}},{"type":"Feature","properties":{"geo":{"name":"Gare Fluviale Bateaux Nantais"},"_l":[47.2279684766427,-1.5516367391695],"LIBTHEME":"DEPLACEMENT","CODE_POSTAL":44000,"WEB":"www.bateaux-nantais.fr","STATUT":null,"TELEPHONE":"02 40 14 51 14","THEME":10,"COMMUNE":"NANTES","LIBCATEGORIE":"Transport en commun","ADRESSE":"15 Place Waldeck Rousseau","LIBTYPE":"Fluvial","_IDOBJ":282,"TYPE":100402,"CATEGORIE":1004},"geometry":{"type":"Point","coordinates":[-1.5516367391695,47.2279684766427]}},{"type":"Feature","properties":{"geo":{"name":"Parking ouvrage Decré-Bouffay"},"_l":[47.2166626199643,-1.55400463227177],"LIBTHEME":"DEPLACEMENT","CODE_POSTAL":44000,"WEB":"www.parkings-nantes.fr","STATUT":null,"TELEPHONE":"02 51 84 94 51","THEME":10,"COMMUNE":"NANTES","LIBCATEGORIE":"Parking Ouvrage","ADRESSE":"18 Rue du Moulin","LIBTYPE":"Mixte","_IDOBJ":284,"TYPE":100103,"CATEGORIE":1001},"geometry":{"type":"Point","coordinates":[-1.55400463227177,47.2166626199643]}},{"type":"Feature","properties":{"geo":{"name":"Parking ouvrage Graslin"},"_l":[47.2143102105068,-1.56257181621741],"LIBTHEME":"DEPLACEMENT","CODE_POSTAL":44000,"WEB":"www.parkings-nantes.fr","STATUT":null,"TELEPHONE":"02 51 84 94 51","THEME":10,"COMMUNE":"NANTES","LIBCATEGORIE":"Parking Ouvrage","ADRESSE":"Rue Scribe","LIBTYPE":"Elévation","_IDOBJ":288,"TYPE":100102,"CATEGORIE":1001},"geometry":{"type":"Point","coordinates":[-1.56257181621741,47.2143102105068]}},{"type":"Feature","properties":{"geo":{"name":"Parking ouvrage Tour Bretagne"},"_l":[47.2178428948398,-1.55825001902681],"LIBTHEME":"DEPLACEMENT","CODE_POSTAL":44000,"WEB":"www.parkings-nantes.fr","STATUT":null,"TELEPHONE":"02 51 84 94 51","THEME":10,"COMMUNE":"NANTES","LIBCATEGORIE":"Parking Ouvrage","ADRESSE":"4 Place de Bretagne","LIBTYPE":"Mixte","_IDOBJ":299,"TYPE":100103,"CATEGORIE":1001},"geometry":{"type":"Point","coordinates":[-1.55825001902681,47.2178428948398]}},{"type":"Feature","properties":{"geo":{"name":"Gare Routière Baco Eurolines"},"_l":[47.2127402501474,-1.55276077185068],"LIBTHEME":"DEPLACEMENT","CODE_POSTAL":44000,"WEB":"www.eurolines.fr","STATUT":null,"TELEPHONE":"08 92 89 90 91","THEME":10,"COMMUNE":"NANTES","LIBCATEGORIE":"Transport en commun","ADRESSE":"Allée de la Maison Rouge","LIBTYPE":"Route","_IDOBJ":663,"TYPE":100404,"CATEGORIE":1004},"geometry":{"type":"Point","coordinates":[-1.55276077185068,47.2127402501474]}},{"type":"Feature","properties":{"geo":{"name":"Parking ouvrage Commerce"},"_l":[47.2131202858024,-1.55771321969051],"LIBTHEME":"DEPLACEMENT","CODE_POSTAL":44000,"WEB":"www.parkings-nantes.fr","STATUT":null,"TELEPHONE":"02 51 84 94 51","THEME":10,"COMMUNE":"NANTES","LIBCATEGORIE":"Parking Ouvrage","ADRESSE":"Place du Commerce","LIBTYPE":"Souterrain","_IDOBJ":677,"TYPE":100101,"CATEGORIE":1001},"geometry":{"type":"Point","coordinates":[-1.55771321969051,47.2131202858024]}},{"type":"Feature","properties":{"geo":{"name":"Gare SNCF de Nantes Sud"},"_l":[47.216448854427,-1.54155846026517],"LIBTHEME":"DEPLACEMENT","CODE_POSTAL":44000,"WEB":"www.gares-connexions.com","STATUT":null,"TELEPHONE":"36 35","THEME":10,"COMMUNE":"NANTES","LIBCATEGORIE":"Transport en commun","ADRESSE":"2 Rue de Lourmel","LIBTYPE":"Rail","_IDOBJ":1042,"TYPE":100403,"CATEGORIE":1004},"geometry":{"type":"Point","coordinates":[-1.54155846026517,47.216448854427]}},{"type":"Feature","properties":{"geo":{"name":"Parking ouvrage Aristide Briand"},"_l":[47.2170936048579,-1.56293641808053],"LIBTHEME":"DEPLACEMENT","CODE_POSTAL":44000,"WEB":"www.vincipark.com","STATUT":null,"TELEPHONE":"08 10 26 30 00","THEME":10,"COMMUNE":"NANTES","LIBCATEGORIE":"Parking Ouvrage","ADRESSE":"Place Aristide Briand","LIBTYPE":"Souterrain","_IDOBJ":1043,"TYPE":100101,"CATEGORIE":1001},"geometry":{"type":"Point","coordinates":[-1.56293641808053,47.2170936048579]}},{"type":"Feature","properties":{"geo":{"name":"Parking ouvrage Cité des Congrès"},"_l":[47.2129016709023,-1.54397127716684],"LIBTHEME":"DEPLACEMENT","CODE_POSTAL":44000,"WEB":"www.parkings-nantes.fr","STATUT":null,"TELEPHONE":"02 51 84 94 51","THEME":10,"COMMUNE":"NANTES","LIBCATEGORIE":"Parking Ouvrage","ADRESSE":"Avenue Jean Claude Bonduelle","LIBTYPE":"Souterrain","_IDOBJ":1044,"TYPE":100101,"CATEGORIE":1001},"geometry":{"type":"Point","coordinates":[-1.54397127716684,47.2129016709023]}},{"type":"Feature","properties":{"geo":{"name":"Parking ouvrage Gare Sud 1"},"_l":[47.2161496359544,-1.54103682846398],"LIBTHEME":"DEPLACEMENT","CODE_POSTAL":44000,"WEB":"www.resaplace.com","STATUT":null,"TELEPHONE":"08 25 88 88 26","THEME":10,"COMMUNE":"NANTES","LIBCATEGORIE":"Parking Ouvrage","ADRESSE":"Rue de Lourmel","LIBTYPE":"Elévation","_IDOBJ":1045,"TYPE":100102,"CATEGORIE":1001},"geometry":{"type":"Point","coordinates":[-1.54103682846398,47.2161496359544]}},{"type":"Feature","properties":{"geo":{"name":"Parking ouvrage Talensac"},"_l":[47.2202559810468,-1.55835729990237],"LIBTHEME":"DEPLACEMENT","CODE_POSTAL":44000,"WEB":"www.parkings-nantes.fr","STATUT":null,"TELEPHONE":"02 51 84 94 51","THEME":10,"COMMUNE":"NANTES","LIBCATEGORIE":"Parking Ouvrage","ADRESSE":"Rue Le Nôtre","LIBTYPE":"Elévation","_IDOBJ":1046,"TYPE":100102,"CATEGORIE":1001},"geometry":{"type":"Point","coordinates":[-1.55835729990237,47.2202559810468]}},{"type":"Feature","properties":{"geo":{"name":"Parc relais tramway Recteur Schmitt 1"},"_l":[47.2517352538688,-1.55290310437924],"LIBTHEME":"DEPLACEMENT","CODE_POSTAL":44300,"WEB":"www.tan.fr","STATUT":null,"TELEPHONE":"02 40 44 44 44","THEME":10,"COMMUNE":"NANTES","LIBCATEGORIE":"Parc Relais","ADRESSE":"Rue Recteur Schmitt","LIBTYPE":"Ouvrage","_IDOBJ":1341,"TYPE":100201,"CATEGORIE":1002},"geometry":{"type":"Point","coordinates":[-1.55290310437924,47.2517352538688]}},{"type":"Feature","properties":{"geo":{"name":"Capitainerie du Port Atlantique Nantes Saint Nazaire"},"_l":[47.2054007823477,-1.57398139134178],"LIBTHEME":"DEPLACEMENT","CODE_POSTAL":44100,"WEB":"www.nantes.port.fr","STATUT":null,"TELEPHONE":"02 40 44 20 53","THEME":10,"COMMUNE":"NANTES","LIBCATEGORIE":"Transport en commun","ADRESSE":"Quai Ernest Renaud","LIBTYPE":"Fluvial","_IDOBJ":1581,"TYPE":100402,"CATEGORIE":1004},"geometry":{"type":"Point","coordinates":[-1.57398139134178,47.2054007823477]}},{"type":"Feature","properties":{"geo":{"name":"Port Autonome de Nantes Saint Nazaire"},"_l":[47.2055111148953,-1.57471135472788],"LIBTHEME":"DEPLACEMENT","CODE_POSTAL":44100,"WEB":"www.nantes.port.fr","STATUT":null,"TELEPHONE":"02 40 44 20 20","THEME":10,"COMMUNE":"NANTES","LIBCATEGORIE":"Transport en commun","ADRESSE":"18 Quai Ernest Renaud","LIBTYPE":"Fluvial","_IDOBJ":1583,"TYPE":100402,"CATEGORIE":1004},"geometry":{"type":"Point","coordinates":[-1.57471135472788,47.2055111148953]}},{"type":"Feature","properties":{"geo":{"name":"Port de l'Erdre"},"_l":[47.2252035773148,-1.55372459801084],"LIBTHEME":"DEPLACEMENT","CODE_POSTAL":44000,"WEB":"www.nge-nantes.fr","STATUT":null,"TELEPHONE":"02 40 37 04 62","THEME":10,"COMMUNE":"NANTES","LIBCATEGORIE":"Transport en commun","ADRESSE":"Quai de Versailles","LIBTYPE":"Fluvial","_IDOBJ":1624,"TYPE":100402,"CATEGORIE":1004},"geometry":{"type":"Point","coordinates":[-1.55372459801084,47.2252035773148]}},{"type":"Feature","properties":{"geo":{"name":"Service Maritime et Navigation Ecluse Saint Félix"},"_l":[47.2125286072856,-1.54089899952201],"LIBTHEME":"DEPLACEMENT","CODE_POSTAL":44000,"WEB":"www.equipement.gouv.fr","STATUT":null,"TELEPHONE":"02 40 71 02 19","THEME":10,"COMMUNE":"NANTES","LIBCATEGORIE":"Transport en commun","ADRESSE":"Quai Ferdinand Favre","LIBTYPE":"Fluvial","_IDOBJ":1658,"TYPE":100402,"CATEGORIE":1004},"geometry":{"type":"Point","coordinates":[-1.54089899952201,47.2125286072856]}},{"type":"Feature","properties":{"geo":{"name":"Gare SNCF de Basse Indre St-Herblain"},"_l":[47.2040832390443,-1.66031284128023],"LIBTHEME":"DEPLACEMENT","CODE_POSTAL":44800,"WEB":"www.gares-connexions.com","STATUT":null,"TELEPHONE":"36 35","THEME":10,"COMMUNE":"ST-HERBLAIN","LIBCATEGORIE":"Transport en commun","ADRESSE":"Rue de la Gare","LIBTYPE":"Rail","_IDOBJ":1805,"TYPE":100403,"CATEGORIE":1004},"geometry":{"type":"Point","coordinates":[-1.66031284128023,47.2040832390443]}},{"type":"Feature","properties":{"geo":{"name":"Aéroport Nantes Atlantique"},"_l":[47.1575191481928,-1.60178206983725],"LIBTHEME":"DEPLACEMENT","CODE_POSTAL":44340,"WEB":"www.nantes.aeroport.fr","STATUT":"Public","TELEPHONE":"02 40 84 80 00","THEME":10,"COMMUNE":"BOUGUENAIS","LIBCATEGORIE":"Transport en commun","ADRESSE":"Rue Clément Ader","LIBTYPE":"Aérien","_IDOBJ":2109,"TYPE":100401,"CATEGORIE":1004},"geometry":{"type":"Point","coordinates":[-1.60178206983725,47.1575191481928]}},{"type":"Feature","properties":{"geo":{"name":"Bacs de Loire entre Basse-Indre et Indret"},"_l":[47.1974591309304,-1.67361043471387],"LIBTHEME":"DEPLACEMENT","CODE_POSTAL":44610,"WEB":"www.loire-atlantique.fr","STATUT":null,"TELEPHONE":"02 40 86 01 29","THEME":10,"COMMUNE":"INDRE","LIBCATEGORIE":"Transport en commun","ADRESSE":"Quai Besnard","LIBTYPE":"Fluvial","_IDOBJ":2374,"TYPE":100402,"CATEGORIE":1004},"geometry":{"type":"Point","coordinates":[-1.67361043471387,47.1974591309304]}},{"type":"Feature","properties":{"geo":{"name":"Gare SNCF de Bouaye"},"_l":[47.1380452446435,-1.68110358820185],"LIBTHEME":"DEPLACEMENT","CODE_POSTAL":44830,"WEB":"www.ter-sncf.com","STATUT":null,"TELEPHONE":"36 35","THEME":10,"COMMUNE":"BOUAYE","LIBCATEGORIE":"Transport en commun","ADRESSE":"Allée Louis Armand","LIBTYPE":"Rail","_IDOBJ":2375,"TYPE":100403,"CATEGORIE":1004},"geometry":{"type":"Point","coordinates":[-1.68110358820185,47.1380452446435]}},{"type":"Feature","properties":{"geo":{"name":"Gare SNCF de Couëron"},"_l":[47.2219441875147,-1.72359939991892],"LIBTHEME":"DEPLACEMENT","CODE_POSTAL":44220,"WEB":"www.gares-connexions.com","STATUT":null,"TELEPHONE":"36 35","THEME":10,"COMMUNE":"COUERON","LIBCATEGORIE":"Transport en commun","ADRESSE":"Rue de la Gare","LIBTYPE":"Rail","_IDOBJ":2452,"TYPE":100403,"CATEGORIE":1004},"geometry":{"type":"Point","coordinates":[-1.72359939991892,47.2219441875147]}},{"type":"Feature","properties":{"geo":{"name":"Bacs de Loire entre Couëron et Le Pellerin"},"_l":[47.2059462443778,-1.75212411426107],"LIBTHEME":"DEPLACEMENT","CODE_POSTAL":44220,"WEB":"www.loire-atlantique.fr","STATUT":null,"TELEPHONE":"02 40 86 01 29","THEME":10,"COMMUNE":"COUERON","LIBCATEGORIE":"Transport en commun","ADRESSE":"RD 91","LIBTYPE":"Fluvial","_IDOBJ":2497,"TYPE":100402,"CATEGORIE":1004},"geometry":{"type":"Point","coordinates":[-1.75212411426107,47.2059462443778]}},{"type":"Feature","properties":{"geo":{"name":"Gare SNCF de Rezé Pont-Rousseau"},"_l":[47.193331595479,-1.54939210542755],"LIBTHEME":"DEPLACEMENT","CODE_POSTAL":44400,"WEB":"www.gares-connexions.com","STATUT":null,"TELEPHONE":"36 35","THEME":10,"COMMUNE":"REZE","LIBCATEGORIE":"Transport en commun","ADRESSE":"Rue de la Gare","LIBTYPE":"Rail","_IDOBJ":2517,"TYPE":100403,"CATEGORIE":1004},"geometry":{"type":"Point","coordinates":[-1.54939210542755,47.193331595479]}},{"type":"Feature","properties":{"geo":{"name":"Gare SNCF de Thouaré-sur-Loire"},"_l":[47.2651201184653,-1.44096386071447],"LIBTHEME":"DEPLACEMENT","CODE_POSTAL":44470,"WEB":"www.gares-connexions.com","STATUT":null,"TELEPHONE":"36 35","THEME":10,"COMMUNE":"THOUARE-SUR-LOIRE","LIBCATEGORIE":"Transport en commun","ADRESSE":"Place de la République","LIBTYPE":"Rail","_IDOBJ":2518,"TYPE":100403,"CATEGORIE":1004},"geometry":{"type":"Point","coordinates":[-1.44096386071447,47.2651201184653]}},{"type":"Feature","properties":{"geo":{"name":"Gare SNCF de Mauves-sur-Loire"},"_l":[47.2930081697889,-1.38930347898703],"LIBTHEME":"DEPLACEMENT","CODE_POSTAL":44470,"WEB":"www.voyages-sncf.com","STATUT":null,"TELEPHONE":"36 35","THEME":10,"COMMUNE":"MAUVES-SUR-LOIRE","LIBCATEGORIE":"Transport en commun","ADRESSE":"2 Place de la Gare","LIBTYPE":"Rail","_IDOBJ":2519,"TYPE":100403,"CATEGORIE":1004},"geometry":{"type":"Point","coordinates":[-1.38930347898703,47.2930081697889]}},{"type":"Feature","properties":{"geo":{"name":"Gare SNCF de Vertou"},"_l":[47.1861434794643,-1.47803194855925],"LIBTHEME":"DEPLACEMENT","CODE_POSTAL":44120,"WEB":"www.gares-connexions.com","STATUT":null,"TELEPHONE":"36 35","THEME":10,"COMMUNE":"VERTOU","LIBCATEGORIE":"Transport en commun","ADRESSE":"Impasse de la Gare","LIBTYPE":"Rail","_IDOBJ":2520,"TYPE":100403,"CATEGORIE":1004},"geometry":{"type":"Point","coordinates":[-1.47803194855925,47.1861434794643]}},{"type":"Feature","properties":{"geo":{"name":"Port de Trentemoult"},"_l":[47.1955772998858,-1.57837788591499],"LIBTHEME":"DEPLACEMENT","CODE_POSTAL":44400,"WEB":"www.nge-nantes.fr","STATUT":null,"TELEPHONE":"02 51 84 94 51","THEME":10,"COMMUNE":"REZE","LIBCATEGORIE":"Transport en commun","ADRESSE":"Allée Claude Choëmet","LIBTYPE":"Fluvial","_IDOBJ":2532,"TYPE":100402,"CATEGORIE":1004},"geometry":{"type":"Point","coordinates":[-1.57837788591499,47.1955772998858]}},{"type":"Feature","properties":{"geo":{"name":"Port de Couëron"},"_l":[47.2091256884984,-1.72995922379383],"LIBTHEME":"DEPLACEMENT","CODE_POSTAL":44220,"WEB":"www.nge-nantes.fr","STATUT":null,"TELEPHONE":"02 51 84 94 51","THEME":10,"COMMUNE":"COUERON","LIBCATEGORIE":"Transport en commun","ADRESSE":"Quai Gambetta","LIBTYPE":"Fluvial","_IDOBJ":2533,"TYPE":100402,"CATEGORIE":1004},"geometry":{"type":"Point","coordinates":[-1.72995922379383,47.2091256884984]}},{"type":"Feature","properties":{"geo":{"name":"Parc relais tramway Frachon"},"_l":[47.2186961365515,-1.62163336178234],"LIBTHEME":"DEPLACEMENT","CODE_POSTAL":44800,"WEB":"www.tan.fr","STATUT":null,"TELEPHONE":"02 40 44 44 44","THEME":10,"COMMUNE":"ST-HERBLAIN","LIBCATEGORIE":"Parc Relais","ADRESSE":"Boulevard Salvador Allende","LIBTYPE":"Libre","_IDOBJ":3188,"TYPE":100203,"CATEGORIE":1002},"geometry":{"type":"Point","coordinates":[-1.62163336178234,47.2186961365515]}},{"type":"Feature","properties":{"geo":{"name":"Parc relais tramway Le Cardo"},"_l":[47.2625020936155,-1.58451198079141],"LIBTHEME":"DEPLACEMENT","CODE_POSTAL":44700,"WEB":"www.tan.fr","STATUT":null,"TELEPHONE":"02 40 44 44 44","THEME":10,"COMMUNE":"ORVAULT","LIBCATEGORIE":"Parc Relais","ADRESSE":"Esplanade du Cardo","LIBTYPE":"Ouvrage","_IDOBJ":3189,"TYPE":100201,"CATEGORIE":1002},"geometry":{"type":"Point","coordinates":[-1.58451198079141,47.2625020936155]}},{"type":"Feature","properties":{"geo":{"name":"Parc relais tramway François Mitterrand"},"_l":[47.22170620087,-1.63948414305523],"LIBTHEME":"DEPLACEMENT","CODE_POSTAL":44800,"WEB":"www.tan.fr","STATUT":null,"TELEPHONE":"02 40 44 44 44","THEME":10,"COMMUNE":"ST-HERBLAIN","LIBCATEGORIE":"Parc Relais","ADRESSE":"Rue Virginia Woolf","LIBTYPE":"Ouvrage","_IDOBJ":3190,"TYPE":100201,"CATEGORIE":1002},"geometry":{"type":"Point","coordinates":[-1.63948414305523,47.22170620087]}},{"type":"Feature","properties":{"geo":{"name":"Parc relais tramway Recteur Schmitt 2"},"_l":[47.2520277017386,-1.55247038464754],"LIBTHEME":"DEPLACEMENT","CODE_POSTAL":44300,"WEB":"www.tan.fr","STATUT":null,"TELEPHONE":"02 40 44 44 44","THEME":10,"COMMUNE":"NANTES","LIBCATEGORIE":"Parc Relais","ADRESSE":"Rue Recteur Schmitt","LIBTYPE":"Libre","_IDOBJ":3191,"TYPE":100203,"CATEGORIE":1002},"geometry":{"type":"Point","coordinates":[-1.55247038464754,47.2520277017386]}},{"type":"Feature","properties":{"geo":{"name":"Parc relais tramway La Beaujoire"},"_l":[47.2594833036504,-1.52739847057661],"LIBTHEME":"DEPLACEMENT","CODE_POSTAL":44300,"WEB":"www.tan.fr","STATUT":null,"TELEPHONE":"02 40 44 44 44","THEME":10,"COMMUNE":"NANTES","LIBCATEGORIE":"Parc Relais","ADRESSE":"Rue Colette","LIBTYPE":"Enclos","_IDOBJ":3192,"TYPE":100202,"CATEGORIE":1002},"geometry":{"type":"Point","coordinates":[-1.52739847057661,47.2594833036504]}},{"type":"Feature","properties":{"geo":{"name":"Parc relais tramway 8 Mai"},"_l":[47.1900337520995,-1.55143945054574],"LIBTHEME":"DEPLACEMENT","CODE_POSTAL":44400,"WEB":"www.tan.fr","STATUT":null,"TELEPHONE":"02 40 44 44 44","THEME":10,"COMMUNE":"REZE","LIBCATEGORIE":"Parc Relais","ADRESSE":"Avenue André Malraux","LIBTYPE":"Ouvrage","_IDOBJ":3194,"TYPE":100201,"CATEGORIE":1002},"geometry":{"type":"Point","coordinates":[-1.55143945054574,47.1900337520995]}},{"type":"Feature","properties":{"geo":{"name":"Parc relais tramway Trocardière"},"_l":[47.1832927458839,-1.57109558940531],"LIBTHEME":"DEPLACEMENT","CODE_POSTAL":44400,"WEB":"www.tan.fr","STATUT":null,"TELEPHONE":"02 40 44 44 44","THEME":10,"COMMUNE":"REZE","LIBCATEGORIE":"Parc Relais","ADRESSE":"Avenue Léon Blum","LIBTYPE":"Libre","_IDOBJ":3195,"TYPE":100203,"CATEGORIE":1002},"geometry":{"type":"Point","coordinates":[-1.57109558940531,47.1832927458839]}},{"type":"Feature","properties":{"geo":{"name":"Parc relais tramway René Cassin"},"_l":[47.2639509260101,-1.57499790750312],"LIBTHEME":"DEPLACEMENT","CODE_POSTAL":44300,"WEB":"www.tan.fr","STATUT":null,"TELEPHONE":"02 40 44 44 44","THEME":10,"COMMUNE":"NANTES","LIBCATEGORIE":"Parc Relais","ADRESSE":"Route de la Chapelle Sur Erdre","LIBTYPE":"Libre","_IDOBJ":3196,"TYPE":100203,"CATEGORIE":1002},"geometry":{"type":"Point","coordinates":[-1.57499790750312,47.2639509260101]}},{"type":"Feature","properties":{"geo":{"name":"Parc relais tramway Pirmil"},"_l":[47.1973586776381,-1.54153359455402],"LIBTHEME":"DEPLACEMENT","CODE_POSTAL":44200,"WEB":"www.tan.fr","STATUT":null,"TELEPHONE":"02 40 44 44 44","THEME":10,"COMMUNE":"NANTES","LIBCATEGORIE":"Parc Relais","ADRESSE":"Rue Esnoult des Châtelets","LIBTYPE":"Libre","_IDOBJ":3197,"TYPE":100203,"CATEGORIE":1002},"geometry":{"type":"Point","coordinates":[-1.54153359455402,47.1973586776381]}},{"type":"Feature","properties":{"geo":{"name":"Parc relais tramway Goudy"},"_l":[47.1960989467374,-1.5410477469437],"LIBTHEME":"DEPLACEMENT","CODE_POSTAL":44200,"WEB":"www.tan.fr","STATUT":null,"TELEPHONE":"02 40 44 44 44","THEME":10,"COMMUNE":"NANTES","LIBCATEGORIE":"Parc Relais","ADRESSE":"Rue Gabriel Goudy","LIBTYPE":"Enclos","_IDOBJ":3198,"TYPE":100202,"CATEGORIE":1002},"geometry":{"type":"Point","coordinates":[-1.5410477469437,47.1960989467374]}},{"type":"Feature","properties":{"geo":{"name":"Parc relais TER Frêne Rond"},"_l":[47.1906228420922,-1.49618578979617],"LIBTHEME":"DEPLACEMENT","CODE_POSTAL":44230,"WEB":"www.tan.fr","STATUT":null,"TELEPHONE":"02 40 44 44 44","THEME":10,"COMMUNE":"ST-SEBASTIEN","LIBCATEGORIE":"Parc Relais","ADRESSE":"Rue de l'Ouche Quinet","LIBTYPE":"Libre","_IDOBJ":3200,"TYPE":100203,"CATEGORIE":1002},"geometry":{"type":"Point","coordinates":[-1.49618578979617,47.1906228420922]}},{"type":"Feature","properties":{"geo":{"name":"Parc relais TER Gare de Vertou Nord"},"_l":[47.1864023763705,-1.47916185458301],"LIBTHEME":"DEPLACEMENT","CODE_POSTAL":44120,"WEB":"www.tan.fr","STATUT":null,"TELEPHONE":"02 40 44 44 44","THEME":10,"COMMUNE":"VERTOU","LIBCATEGORIE":"Parc Relais","ADRESSE":"Impasse de la Gare","LIBTYPE":"Libre","_IDOBJ":3201,"TYPE":100203,"CATEGORIE":1002},"geometry":{"type":"Point","coordinates":[-1.47916185458301,47.1864023763705]}},{"type":"Feature","properties":{"geo":{"name":"Parc relais TER Gare de Vertou Sud"},"_l":[47.1856830197378,-1.4785719721858],"LIBTHEME":"DEPLACEMENT","CODE_POSTAL":44120,"WEB":"www.tan.fr","STATUT":null,"TELEPHONE":"02 40 44 44 44","THEME":10,"COMMUNE":"VERTOU","LIBCATEGORIE":"Parc Relais","ADRESSE":"Rue du Bois Rigaud","LIBTYPE":"Libre","_IDOBJ":3202,"TYPE":100203,"CATEGORIE":1002},"geometry":{"type":"Point","coordinates":[-1.4785719721858,47.1856830197378]}},{"type":"Feature","properties":{"geo":{"name":"Parc relais tramway Plaisance"},"_l":[47.2405326620207,-1.59344052396589],"LIBTHEME":"DEPLACEMENT","CODE_POSTAL":44800,"WEB":"www.tan.fr","STATUT":null,"TELEPHONE":"02 40 44 44 44","THEME":10,"COMMUNE":"ST-HERBLAIN","LIBCATEGORIE":"Parc Relais","ADRESSE":"Route de Vannes","LIBTYPE":"Libre","_IDOBJ":3227,"TYPE":100203,"CATEGORIE":1002},"geometry":{"type":"Point","coordinates":[-1.59344052396589,47.2405326620207]}},{"type":"Feature","properties":{"geo":{"name":"Gare SNCF de St-Sébastien Frêne Rond"},"_l":[47.1906163481095,-1.4958313646506],"LIBTHEME":"DEPLACEMENT","CODE_POSTAL":44230,"WEB":"www.gares-connexions.com","STATUT":null,"TELEPHONE":"36 35","THEME":10,"COMMUNE":"ST-SEBASTIEN","LIBCATEGORIE":"Transport en commun","ADRESSE":"Rue de l'Ouche Quinet","LIBTYPE":"Rail","_IDOBJ":3353,"TYPE":100403,"CATEGORIE":1004},"geometry":{"type":"Point","coordinates":[-1.4958313646506,47.1906163481095]}},{"type":"Feature","properties":{"geo":{"name":"Parc en enclos Gloriette 1"},"_l":[47.2111796553233,-1.55843872950464],"LIBTHEME":"DEPLACEMENT","CODE_POSTAL":44000,"WEB":"www.parkings-nantes.fr","STATUT":null,"TELEPHONE":"02 51 84 94 51","THEME":10,"COMMUNE":"NANTES","LIBCATEGORIE":"Parc en Enclos","ADRESSE":"Allée de l'Ile Gloriette","LIBTYPE":null,"_IDOBJ":3549,"TYPE":null,"CATEGORIE":1005},"geometry":{"type":"Point","coordinates":[-1.55843872950464,47.2111796553233]}},{"type":"Feature","properties":{"geo":{"name":"Parc en enclos Hôtel Dieu"},"_l":[47.2110570860299,-1.55198311230427],"LIBTHEME":"DEPLACEMENT","CODE_POSTAL":44000,"WEB":"www.parkings-nantes.fr","STATUT":null,"TELEPHONE":"02 51 84 94 51","THEME":10,"COMMUNE":"NANTES","LIBCATEGORIE":"Parc en Enclos","ADRESSE":"Chaussée de la Madeleine","LIBTYPE":null,"_IDOBJ":3550,"TYPE":null,"CATEGORIE":1005},"geometry":{"type":"Point","coordinates":[-1.55198311230427,47.2110570860299]}},{"type":"Feature","properties":{"geo":{"name":"Parc en enclos Baco-LU 2 côté CHU"},"_l":[47.2131509800273,-1.55160425745185],"LIBTHEME":"DEPLACEMENT","CODE_POSTAL":44000,"WEB":"www.parkings-nantes.fr","STATUT":null,"TELEPHONE":"02 51 84 94 51","THEME":10,"COMMUNE":"NANTES","LIBCATEGORIE":"Parc en Enclos","ADRESSE":"Allée Baco","LIBTYPE":null,"_IDOBJ":3551,"TYPE":null,"CATEGORIE":1005},"geometry":{"type":"Point","coordinates":[-1.55160425745185,47.2131509800273]}},{"type":"Feature","properties":{"geo":{"name":"Parc relais TER Gare des Pas Enchantés"},"_l":[47.2082290545652,-1.51299644307533],"LIBTHEME":"DEPLACEMENT","CODE_POSTAL":44230,"WEB":"www.tan.fr","STATUT":null,"TELEPHONE":"02 40 44 44 44","THEME":10,"COMMUNE":"ST-SEBASTIEN","LIBCATEGORIE":"Parc Relais","ADRESSE":"Rue de la Loire","LIBTYPE":"Libre","_IDOBJ":3552,"TYPE":100203,"CATEGORIE":1002},"geometry":{"type":"Point","coordinates":[-1.51299644307533,47.2082290545652]}},{"type":"Feature","properties":{"geo":{"name":"Gare SNCF de St-Sébastien Pas Enchantés"},"_l":[47.2070087740385,-1.51111306351385],"LIBTHEME":"DEPLACEMENT","CODE_POSTAL":44230,"WEB":"www.gares-connexions.com","STATUT":null,"TELEPHONE":"36 35","THEME":10,"COMMUNE":"ST-SEBASTIEN","LIBCATEGORIE":"Transport en commun","ADRESSE":"Rue du Docteur Paul Michaux","LIBTYPE":"Rail","_IDOBJ":3553,"TYPE":100403,"CATEGORIE":1004},"geometry":{"type":"Point","coordinates":[-1.51111306351385,47.2070087740385]}},{"type":"Feature","properties":{"geo":{"name":"Parc en enclos Château"},"_l":[47.2169899609793,-1.54785044968527],"LIBTHEME":"DEPLACEMENT","CODE_POSTAL":44000,"WEB":"www.parkings-nantes.fr","STATUT":null,"TELEPHONE":"02 51 84 94 51","THEME":10,"COMMUNE":"NANTES","LIBCATEGORIE":"Parc en Enclos","ADRESSE":"Rue Henri IV","LIBTYPE":null,"_IDOBJ":3554,"TYPE":null,"CATEGORIE":1005},"geometry":{"type":"Point","coordinates":[-1.54785044968527,47.2169899609793]}},{"type":"Feature","properties":{"geo":{"name":"Parc en enclos Gare Sud 3"},"_l":[47.216135859474,-1.53789482834948],"LIBTHEME":"DEPLACEMENT","CODE_POSTAL":44000,"WEB":"www.resaplace.com","STATUT":null,"TELEPHONE":"08 25 88 88 26","THEME":10,"COMMUNE":"NANTES","LIBCATEGORIE":"Parc en Enclos","ADRESSE":"Rue Marcel Paul","LIBTYPE":null,"_IDOBJ":3555,"TYPE":null,"CATEGORIE":1005},"geometry":{"type":"Point","coordinates":[-1.53789482834948,47.216135859474]}},{"type":"Feature","properties":{"geo":{"name":"Parc en enclos Les Fonderies"},"_l":[47.2049704647258,-1.54433295436521],"LIBTHEME":"DEPLACEMENT","CODE_POSTAL":44200,"WEB":null,"STATUT":null,"TELEPHONE":null,"THEME":10,"COMMUNE":"NANTES","LIBCATEGORIE":"Parc en Enclos","ADRESSE":"Rue de la Porte Gellée","LIBTYPE":null,"_IDOBJ":4319,"TYPE":null,"CATEGORIE":1005},"geometry":{"type":"Point","coordinates":[-1.54433295436521,47.2049704647258]}},{"type":"Feature","properties":{"geo":{"name":"Parc relais TER Gare de Couëron"},"_l":[47.2217771934083,-1.72363750160792],"LIBTHEME":"DEPLACEMENT","CODE_POSTAL":44220,"WEB":"www.tan.fr","STATUT":null,"TELEPHONE":"02 40 44 44 44","THEME":10,"COMMUNE":"COUERON","LIBCATEGORIE":"Parc Relais","ADRESSE":"Rue de la Gare","LIBTYPE":"Libre","_IDOBJ":3556,"TYPE":100203,"CATEGORIE":1002},"geometry":{"type":"Point","coordinates":[-1.72363750160792,47.2217771934083]}},{"type":"Feature","properties":{"geo":{"name":"Parc relais tramway Neustrie 2"},"_l":[47.176672451111,-1.59339969648243],"LIBTHEME":"DEPLACEMENT","CODE_POSTAL":44340,"WEB":"www.tan.fr","STATUT":null,"TELEPHONE":"02 40 44 44 44","THEME":10,"COMMUNE":"BOUGUENAIS","LIBCATEGORIE":"Parc Relais","ADRESSE":"Rue de la Neustrie","LIBTYPE":"Enclos","_IDOBJ":3558,"TYPE":100202,"CATEGORIE":1002},"geometry":{"type":"Point","coordinates":[-1.59339969648243,47.176672451111]}},{"type":"Feature","properties":{"geo":{"name":"Parc relais navibus Trentemoult-Roquios"},"_l":[47.1952525112789,-1.57778393206355],"LIBTHEME":"DEPLACEMENT","CODE_POSTAL":44400,"WEB":"www.tan.fr","STATUT":null,"TELEPHONE":"02 40 44 44 44","THEME":10,"COMMUNE":"REZE","LIBCATEGORIE":"Parc Relais","ADRESSE":"Quai Surcouf","LIBTYPE":"Libre","_IDOBJ":3560,"TYPE":100203,"CATEGORIE":1002},"geometry":{"type":"Point","coordinates":[-1.57778393206355,47.1952525112789]}},{"type":"Feature","properties":{"geo":{"name":"Parc relais TER Gare de Basse-Indre Saint-Herblain"},"_l":[47.2041579741319,-1.66103809646199],"LIBTHEME":"DEPLACEMENT","CODE_POSTAL":44800,"WEB":"www.tan.fr","STATUT":null,"TELEPHONE":"02 40 44 44 44","THEME":10,"COMMUNE":"ST-HERBLAIN","LIBCATEGORIE":"Parc Relais","ADRESSE":"Rue de la Gare","LIBTYPE":"Libre","_IDOBJ":3561,"TYPE":100203,"CATEGORIE":1002},"geometry":{"type":"Point","coordinates":[-1.66103809646199,47.2041579741319]}},{"type":"Feature","properties":{"geo":{"name":"Parc relais tramway Neustrie 1"},"_l":[47.1754532342509,-1.59309648041537],"LIBTHEME":"DEPLACEMENT","CODE_POSTAL":44340,"WEB":"www.tan.fr","STATUT":null,"TELEPHONE":"02 40 44 44 44","THEME":10,"COMMUNE":"BOUGUENAIS","LIBCATEGORIE":"Parc Relais","ADRESSE":"Chemin de la Neustrie","LIBTYPE":"Enclos","_IDOBJ":3562,"TYPE":100202,"CATEGORIE":1002},"geometry":{"type":"Point","coordinates":[-1.59309648041537,47.1754532342509]}},{"type":"Feature","properties":{"geo":{"name":"Parc Relais TER de Thouaré-sur_Loire"},"_l":[47.2647119908848,-1.4413893536783],"LIBTHEME":"DEPLACEMENT","CODE_POSTAL":44470,"WEB":"www.tan.fr","STATUT":null,"TELEPHONE":"02 40 44 44 44","THEME":10,"COMMUNE":"THOUARE-SUR-LOIRE","LIBCATEGORIE":"Parc Relais","ADRESSE":"Rue des Ponts","LIBTYPE":"Libre","_IDOBJ":3564,"TYPE":100203,"CATEGORIE":1002},"geometry":{"type":"Point","coordinates":[-1.4413893536783,47.2647119908848]}},{"type":"Feature","properties":{"geo":{"name":"Parc relais TER Gare de Mauves-sur-Loire"},"_l":[47.2932583339329,-1.388904886686],"LIBTHEME":"DEPLACEMENT","CODE_POSTAL":44470,"WEB":"www.tan.fr","STATUT":null,"TELEPHONE":"02 40 44 44 44","THEME":10,"COMMUNE":"MAUVES-SUR-LOIRE","LIBCATEGORIE":"Parc Relais","ADRESSE":"2 Place de la Gare","LIBTYPE":"Libre","_IDOBJ":3565,"TYPE":100203,"CATEGORIE":1002},"geometry":{"type":"Point","coordinates":[-1.388904886686,47.2932583339329]}},{"type":"Feature","properties":{"geo":{"name":"Parc relais TER Gare de Bouaye"},"_l":[47.1383223686803,-1.68257543659362],"LIBTHEME":"DEPLACEMENT","CODE_POSTAL":44830,"WEB":"www.tan.fr","STATUT":null,"TELEPHONE":"02 40 44 44 44","THEME":10,"COMMUNE":"BOUAYE","LIBCATEGORIE":"Parc Relais","ADRESSE":"Allée Louis Armand","LIBTYPE":"Libre","_IDOBJ":3566,"TYPE":100203,"CATEGORIE":1002},"geometry":{"type":"Point","coordinates":[-1.68257543659362,47.1383223686803]}},{"type":"Feature","properties":{"geo":{"name":"Parc relais navibus Trentemoult-Dépôt"},"_l":[47.1919649895095,-1.58068768637466],"LIBTHEME":"DEPLACEMENT","CODE_POSTAL":44400,"WEB":"www.tan.fr","STATUT":null,"TELEPHONE":"02 40 44 44 44","THEME":10,"COMMUNE":"REZE","LIBCATEGORIE":"Parc Relais","ADRESSE":"Rue Ordronneau","LIBTYPE":"Libre","_IDOBJ":3582,"TYPE":100203,"CATEGORIE":1002},"geometry":{"type":"Point","coordinates":[-1.58068768637466,47.1919649895095]}},{"type":"Feature","properties":{"geo":{"name":"Parc relais tramway Morlière Paquelais"},"_l":[47.2478235218625,-1.60283874722482],"LIBTHEME":"DEPLACEMENT","CODE_POSTAL":44700,"WEB":"www.tan.fr","STATUT":null,"TELEPHONE":"02 40 44 44 44","THEME":10,"COMMUNE":"ORVAULT","LIBCATEGORIE":"Parc Relais","ADRESSE":"Avenue de la Paquelais","LIBTYPE":"Libre","_IDOBJ":3583,"TYPE":100203,"CATEGORIE":1002},"geometry":{"type":"Point","coordinates":[-1.60283874722482,47.2478235218625]}},{"type":"Feature","properties":{"geo":{"name":"Parc relais tramway Orvault Morlière"},"_l":[47.2467766477065,-1.60304946676259],"LIBTHEME":"DEPLACEMENT","CODE_POSTAL":44700,"WEB":"www.tan.fr","STATUT":null,"TELEPHONE":"02 40 44 44 44","THEME":10,"COMMUNE":"ORVAULT","LIBCATEGORIE":"Parc Relais","ADRESSE":"Avenue de la Morlière","LIBTYPE":"Ouvrage","_IDOBJ":3584,"TYPE":100201,"CATEGORIE":1002},"geometry":{"type":"Point","coordinates":[-1.60304946676259,47.2467766477065]}},{"type":"Feature","properties":{"geo":{"name":"Parc relais tramway Beauséjour"},"_l":[47.2384135213971,-1.5873437488368],"LIBTHEME":"DEPLACEMENT","CODE_POSTAL":44100,"WEB":"www.tan.fr","STATUT":null,"TELEPHONE":"02 40 44 44 44","THEME":10,"COMMUNE":"NANTES","LIBCATEGORIE":"Parc Relais","ADRESSE":"Route de Vannes","LIBTYPE":"Libre","_IDOBJ":3586,"TYPE":100203,"CATEGORIE":1002},"geometry":{"type":"Point","coordinates":[-1.5873437488368,47.2384135213971]}},{"type":"Feature","properties":{"geo":{"name":"Parc en enclos Gare Sud 2"},"_l":[47.2142340366163,-1.54134337584288],"LIBTHEME":"DEPLACEMENT","CODE_POSTAL":44000,"WEB":"www.resaplace.com","STATUT":null,"TELEPHONE":"08 25 88 88 26","THEME":10,"COMMUNE":"NANTES","LIBCATEGORIE":"Parc en Enclos","ADRESSE":"Quai Malakoff","LIBTYPE":null,"_IDOBJ":3589,"TYPE":null,"CATEGORIE":1005},"geometry":{"type":"Point","coordinates":[-1.54134337584288,47.2142340366163]}},{"type":"Feature","properties":{"geo":{"name":"Parc en enclos Gare Sud 2 limité 1h"},"_l":[47.2152021232956,-1.54267513884661],"LIBTHEME":"DEPLACEMENT","CODE_POSTAL":44000,"WEB":"www.resaplace.com","STATUT":null,"TELEPHONE":"08 25 88 88 26","THEME":10,"COMMUNE":"NANTES","LIBCATEGORIE":"Parc en Enclos","ADRESSE":"Quai Malakoff","LIBTYPE":null,"_IDOBJ":3590,"TYPE":null,"CATEGORIE":1005},"geometry":{"type":"Point","coordinates":[-1.54267513884661,47.2152021232956]}},{"type":"Feature","properties":{"geo":{"name":"Parc relais busway Porte de Vertou"},"_l":[47.1801752959869,-1.50516017764927],"LIBTHEME":"DEPLACEMENT","CODE_POSTAL":44120,"WEB":"www.tan.fr","STATUT":null,"TELEPHONE":"02 40 44 44 44","THEME":10,"COMMUNE":"VERTOU","LIBCATEGORIE":"Parc Relais","ADRESSE":"Boulevard Auguste Priou","LIBTYPE":"Enclos","_IDOBJ":3627,"TYPE":100202,"CATEGORIE":1002},"geometry":{"type":"Point","coordinates":[-1.50516017764927,47.1801752959869]}},{"type":"Feature","properties":{"geo":{"name":"Parc relais busway Gréneraie"},"_l":[47.2001390392692,-1.53333362324729],"LIBTHEME":"DEPLACEMENT","CODE_POSTAL":44200,"WEB":"www.tan.fr","STATUT":null,"TELEPHONE":"02 40 44 44 44","THEME":10,"COMMUNE":"NANTES","LIBCATEGORIE":"Parc Relais","ADRESSE":"Route de Saint Sébastien","LIBTYPE":"Enclos","_IDOBJ":3628,"TYPE":100202,"CATEGORIE":1002},"geometry":{"type":"Point","coordinates":[-1.53333362324729,47.2001390392692]}},{"type":"Feature","properties":{"geo":{"name":"Parc relais busway Bourdonnières 1"},"_l":[47.186255590967,-1.52115429456528],"LIBTHEME":"DEPLACEMENT","CODE_POSTAL":44200,"WEB":"www.tan.fr","STATUT":null,"TELEPHONE":"02 40 44 44 44","THEME":10,"COMMUNE":"NANTES","LIBCATEGORIE":"Parc Relais","ADRESSE":"Boulevard de Vendée","LIBTYPE":"Enclos","_IDOBJ":3629,"TYPE":100202,"CATEGORIE":1002},"geometry":{"type":"Point","coordinates":[-1.52115429456528,47.186255590967]}},{"type":"Feature","properties":{"geo":{"name":"Parc relais busway Chapeau Verni"},"_l":[47.1894575221521,-1.51151075562911],"LIBTHEME":"DEPLACEMENT","CODE_POSTAL":44230,"WEB":"www.tan.fr","STATUT":null,"TELEPHONE":"02 40 44 44 44","THEME":10,"COMMUNE":"ST-SEBASTIEN","LIBCATEGORIE":"Parc Relais","ADRESSE":"Route de Clisson","LIBTYPE":"Enclos","_IDOBJ":3630,"TYPE":100202,"CATEGORIE":1002},"geometry":{"type":"Point","coordinates":[-1.51151075562911,47.1894575221521]}},{"type":"Feature","properties":{"geo":{"name":"Parc relais TER Gare de Pont-Rousseau"},"_l":[47.1925010229049,-1.54828253376638],"LIBTHEME":"DEPLACEMENT","CODE_POSTAL":44400,"WEB":"www.tan.fr","STATUT":null,"TELEPHONE":"02 40 44 44 44","THEME":10,"COMMUNE":"REZE","LIBCATEGORIE":"Parc Relais","ADRESSE":"Avenue de la Libération","LIBTYPE":"Enclos","_IDOBJ":3648,"TYPE":100202,"CATEGORIE":1002},"geometry":{"type":"Point","coordinates":[-1.54828253376638,47.1925010229049]}},{"type":"Feature","properties":{"geo":{"name":"Parc relais tramway Bignon"},"_l":[47.2489752466115,-1.59820022515513],"LIBTHEME":"DEPLACEMENT","CODE_POSTAL":44700,"WEB":"www.tan.fr","STATUT":null,"TELEPHONE":"02 40 44 44 44","THEME":10,"COMMUNE":"ORVAULT","LIBCATEGORIE":"Parc Relais","ADRESSE":"Rue des Verts Prés","LIBTYPE":"Libre","_IDOBJ":3649,"TYPE":100203,"CATEGORIE":1002},"geometry":{"type":"Point","coordinates":[-1.59820022515513,47.2489752466115]}},{"type":"Feature","properties":{"geo":{"name":"Parc en enclos Bellamy"},"_l":[47.2223604161017,-1.55769369256355],"LIBTHEME":"DEPLACEMENT","CODE_POSTAL":44000,"WEB":"www.parkings-nantes.fr","STATUT":null,"TELEPHONE":"02 51 84 94 51","THEME":10,"COMMUNE":"NANTES","LIBCATEGORIE":"Parc en Enclos","ADRESSE":"Impasse de la Courtine","LIBTYPE":null,"_IDOBJ":3650,"TYPE":null,"CATEGORIE":1005},"geometry":{"type":"Point","coordinates":[-1.55769369256355,47.2223604161017]}},{"type":"Feature","properties":{"geo":{"name":"Parc en enclos CHU"},"_l":[47.2093619715999,-1.55725023399242],"LIBTHEME":"DEPLACEMENT","CODE_POSTAL":44000,"WEB":"www.parkings-nantes.fr","STATUT":null,"TELEPHONE":"02 51 84 94 51","THEME":10,"COMMUNE":"NANTES","LIBCATEGORIE":"Parc en Enclos","ADRESSE":"Quai de Tourville","LIBTYPE":null,"_IDOBJ":3651,"TYPE":null,"CATEGORIE":1005},"geometry":{"type":"Point","coordinates":[-1.55725023399242,47.2093619715999]}},{"type":"Feature","properties":{"geo":{"name":"Parking ouvrage Cathédrale"},"_l":[47.2208133510721,-1.55105616832611],"LIBTHEME":"DEPLACEMENT","CODE_POSTAL":44000,"WEB":"www.parkings-nantes.fr","STATUT":null,"TELEPHONE":"02 51 84 94 51","THEME":10,"COMMUNE":"NANTES","LIBCATEGORIE":"Parking Ouvrage","ADRESSE":"Rue Sully","LIBTYPE":"Souterrain","_IDOBJ":3652,"TYPE":100101,"CATEGORIE":1001},"geometry":{"type":"Point","coordinates":[-1.55105616832611,47.2208133510721]}},{"type":"Feature","properties":{"geo":{"name":"Parc relais busway Maraîchers"},"_l":[47.1851690235263,-1.51067420037066],"LIBTHEME":"DEPLACEMENT","CODE_POSTAL":44120,"WEB":"www.tan.fr","STATUT":null,"TELEPHONE":"02 40 44 44 44","THEME":10,"COMMUNE":"VERTOU","LIBCATEGORIE":"Parc Relais","ADRESSE":"Rue de la Grand' Maison","LIBTYPE":"Libre","_IDOBJ":3655,"TYPE":100203,"CATEGORIE":1002},"geometry":{"type":"Point","coordinates":[-1.51067420037066,47.1851690235263]}},{"type":"Feature","properties":{"geo":{"name":"1 Station Abonnement Préfecture"},"_l":[47.2201950669957,-1.55417604861584],"LIBTHEME":"DEPLACEMENT","CODE_POSTAL":44000,"WEB":"www.bicloo.nantesmetropole.fr","STATUT":null,"TELEPHONE":"01 30 79 33 44","THEME":10,"COMMUNE":"NANTES","LIBCATEGORIE":"Transport partagé","ADRESSE":"5 Quai Ceineray","LIBTYPE":"Bicloo","_IDOBJ":3685,"TYPE":100301,"CATEGORIE":1003},"geometry":{"type":"Point","coordinates":[-1.55417604861584,47.2201950669957]}},{"type":"Feature","properties":{"geo":{"name":"2 Station Accueil Hôtel de Ville"},"_l":[47.2185640015645,-1.55354426853678],"LIBTHEME":"DEPLACEMENT","CODE_POSTAL":44000,"WEB":"www.bicloo.nantesmetropole.fr","STATUT":null,"TELEPHONE":"01 30 79 33 44","THEME":10,"COMMUNE":"NANTES","LIBCATEGORIE":"Transport partagé","ADRESSE":"29 Rue de Strasbourg","LIBTYPE":"Bicloo","_IDOBJ":3686,"TYPE":100301,"CATEGORIE":1003},"geometry":{"type":"Point","coordinates":[-1.55354426853678,47.2185640015645]}},{"type":"Feature","properties":{"geo":{"name":"3 Station Accueil Strasbourg"},"_l":[47.216532854728,-1.55161756498412],"LIBTHEME":"DEPLACEMENT","CODE_POSTAL":44000,"WEB":"www.bicloo.nantesmetropole.fr","STATUT":null,"TELEPHONE":"01 30 79 33 44","THEME":10,"COMMUNE":"NANTES","LIBCATEGORIE":"Transport partagé","ADRESSE":"Place Tirant Lo Blanc","LIBTYPE":"Bicloo","_IDOBJ":3687,"TYPE":100301,"CATEGORIE":1003},"geometry":{"type":"Point","coordinates":[-1.55161756498412,47.216532854728]}},{"type":"Feature","properties":{"geo":{"name":"4 Station Accueil Moulin"},"_l":[47.2166468712003,-1.55442584710721],"LIBTHEME":"DEPLACEMENT","CODE_POSTAL":44000,"WEB":"www.bicloo.nantesmetropole.fr","STATUT":null,"TELEPHONE":"01 30 79 33 44","THEME":10,"COMMUNE":"NANTES","LIBCATEGORIE":"Transport partagé","ADRESSE":"18 Rue du Moulin","LIBTYPE":"Bicloo","_IDOBJ":3688,"TYPE":100301,"CATEGORIE":1003},"geometry":{"type":"Point","coordinates":[-1.55442584710721,47.2166468712003]}},{"type":"Feature","properties":{"geo":{"name":"5 Station Accueil Brossard"},"_l":[47.2188225831247,-1.5563270902907],"LIBTHEME":"DEPLACEMENT","CODE_POSTAL":44000,"WEB":"www.bicloo.nantesmetropole.fr","STATUT":null,"TELEPHONE":"01 30 79 33 44","THEME":10,"COMMUNE":"NANTES","LIBCATEGORIE":"Transport partagé","ADRESSE":"12 Allée Duquesne","LIBTYPE":"Bicloo","_IDOBJ":3689,"TYPE":100301,"CATEGORIE":1003},"geometry":{"type":"Point","coordinates":[-1.5563270902907,47.2188225831247]}},{"type":"Feature","properties":{"geo":{"name":"6 Station Abonnement Place du Cirque"},"_l":[47.2176522877325,-1.55686962933674],"LIBTHEME":"DEPLACEMENT","CODE_POSTAL":44000,"WEB":"www.bicloo.nantesmetropole.fr","STATUT":null,"TELEPHONE":"01 30 79 33 44","THEME":10,"COMMUNE":"NANTES","LIBCATEGORIE":"Transport partagé","ADRESSE":"7 Allée Duquesne","LIBTYPE":"Bicloo","_IDOBJ":3690,"TYPE":100301,"CATEGORIE":1003},"geometry":{"type":"Point","coordinates":[-1.55686962933674,47.2176522877325]}},{"type":"Feature","properties":{"geo":{"name":"7 Station Accueil Barillerie"},"_l":[47.2154096299385,-1.5561003799956],"LIBTHEME":"DEPLACEMENT","CODE_POSTAL":44000,"WEB":"www.bicloo.nantesmetropole.fr","STATUT":null,"TELEPHONE":"01 30 79 33 44","THEME":10,"COMMUNE":"NANTES","LIBCATEGORIE":"Transport partagé","ADRESSE":"2 Allée Penthiévre","LIBTYPE":"Bicloo","_IDOBJ":3691,"TYPE":100301,"CATEGORIE":1003},"geometry":{"type":"Point","coordinates":[-1.5561003799956,47.2154096299385]}},{"type":"Feature","properties":{"geo":{"name":"8 Station Abonnement Boucherie"},"_l":[47.2162081426351,-1.55709068678671],"LIBTHEME":"DEPLACEMENT","CODE_POSTAL":44000,"WEB":"www.bicloo.nantesmetropole.fr","STATUT":null,"TELEPHONE":"01 30 79 33 44","THEME":10,"COMMUNE":"NANTES","LIBCATEGORIE":"Transport partagé","ADRESSE":"Rue de la Boucherie","LIBTYPE":"Bicloo","_IDOBJ":3692,"TYPE":100301,"CATEGORIE":1003},"geometry":{"type":"Point","coordinates":[-1.55709068678671,47.2162081426351]}},{"type":"Feature","properties":{"geo":{"name":"9 Station Accueil Guépin"},"_l":[47.2158294340716,-1.55915573787153],"LIBTHEME":"DEPLACEMENT","CODE_POSTAL":44000,"WEB":"www.bicloo.nantesmetropole.fr","STATUT":null,"TELEPHONE":"01 30 79 33 44","THEME":10,"COMMUNE":"NANTES","LIBCATEGORIE":"Transport partagé","ADRESSE":"2 Rue du Calvaire","LIBTYPE":"Bicloo","_IDOBJ":3693,"TYPE":100301,"CATEGORIE":1003},"geometry":{"type":"Point","coordinates":[-1.55915573787153,47.2158294340716]}},{"type":"Feature","properties":{"geo":{"name":"11 Station Accueil Calvaire"},"_l":[47.2155991819633,-1.56060630687651],"LIBTHEME":"DEPLACEMENT","CODE_POSTAL":44000,"WEB":"www.bicloo.nantesmetropole.fr","STATUT":null,"TELEPHONE":"01 30 79 33 44","THEME":10,"COMMUNE":"NANTES","LIBCATEGORIE":"Transport partagé","ADRESSE":"Place des Volontaires de la Défense Passive","LIBTYPE":"Bicloo","_IDOBJ":3695,"TYPE":100301,"CATEGORIE":1003},"geometry":{"type":"Point","coordinates":[-1.56060630687651,47.2155991819633]}},{"type":"Feature","properties":{"geo":{"name":"12 Station Abonnement et Bonus Place Delorme"},"_l":[47.2151581344299,-1.56396356682832],"LIBTHEME":"DEPLACEMENT","CODE_POSTAL":44000,"WEB":"www.bicloo.nantesmetropole.fr","STATUT":null,"TELEPHONE":"01 30 79 33 44","THEME":10,"COMMUNE":"NANTES","LIBCATEGORIE":"Transport partagé","ADRESSE":"Boulevard Gabriel Guist'Hau","LIBTYPE":"Bicloo","_IDOBJ":3696,"TYPE":100301,"CATEGORIE":1003},"geometry":{"type":"Point","coordinates":[-1.56396356682832,47.2151581344299]}},{"type":"Feature","properties":{"geo":{"name":"13 Station Abonnement et Bonus Bretagne Sud"},"_l":[47.2167500594478,-1.55915731787571],"LIBTHEME":"DEPLACEMENT","CODE_POSTAL":44000,"WEB":"www.bicloo.nantesmetropole.fr","STATUT":null,"TELEPHONE":"01 30 79 33 44","THEME":10,"COMMUNE":"NANTES","LIBCATEGORIE":"Transport partagé","ADRESSE":"1 Rue Pierre Chéreau","LIBTYPE":"Bicloo","_IDOBJ":3697,"TYPE":100301,"CATEGORIE":1003},"geometry":{"type":"Point","coordinates":[-1.55915731787571,47.2167500594478]}},{"type":"Feature","properties":{"geo":{"name":"14 Station Accueil Saint-Félix"},"_l":[47.2306076047205,-1.55623411620874],"LIBTHEME":"DEPLACEMENT","CODE_POSTAL":44000,"WEB":"www.bicloo.nantesmetropole.fr","STATUT":null,"TELEPHONE":"01 30 79 33 44","THEME":10,"COMMUNE":"NANTES","LIBCATEGORIE":"Transport partagé","ADRESSE":"Boulevard Amiral Courbet","LIBTYPE":"Bicloo","_IDOBJ":3698,"TYPE":100301,"CATEGORIE":1003},"geometry":{"type":"Point","coordinates":[-1.55623411620874,47.2306076047205]}},{"type":"Feature","properties":{"geo":{"name":"15 Station Accueil Place Aristide Briand"},"_l":[47.2171962876433,-1.56300550348212],"LIBTHEME":"DEPLACEMENT","CODE_POSTAL":44000,"WEB":"www.bicloo.nantesmetropole.fr","STATUT":null,"TELEPHONE":"01 30 79 33 44","THEME":10,"COMMUNE":"NANTES","LIBCATEGORIE":"Transport partagé","ADRESSE":"Place Aristide Briand","LIBTYPE":"Bicloo","_IDOBJ":3699,"TYPE":100301,"CATEGORIE":1003},"geometry":{"type":"Point","coordinates":[-1.56300550348212,47.2171962876433]}},{"type":"Feature","properties":{"geo":{"name":"16 Station Accueil Place Edouard Normand"},"_l":[47.2190280325433,-1.56349473337675],"LIBTHEME":"DEPLACEMENT","CODE_POSTAL":44000,"WEB":"www.bicloo.nantesmetropole.fr","STATUT":null,"TELEPHONE":"01 30 79 33 44","THEME":10,"COMMUNE":"NANTES","LIBCATEGORIE":"Transport partagé","ADRESSE":"Place Edouard Normand","LIBTYPE":"Bicloo","_IDOBJ":3700,"TYPE":100301,"CATEGORIE":1003},"geometry":{"type":"Point","coordinates":[-1.56349473337675,47.2190280325433]}},{"type":"Feature","properties":{"geo":{"name":"17 Station Accueil Sainte Elisabeth"},"_l":[47.219225442242,-1.56158876841816],"LIBTHEME":"DEPLACEMENT","CODE_POSTAL":44000,"WEB":"www.bicloo.nantesmetropole.fr","STATUT":null,"TELEPHONE":"01 30 79 33 44","THEME":10,"COMMUNE":"NANTES","LIBCATEGORIE":"Transport partagé","ADRESSE":"3 Place Sainte Elisabeth","LIBTYPE":"Bicloo","_IDOBJ":3701,"TYPE":100301,"CATEGORIE":1003},"geometry":{"type":"Point","coordinates":[-1.56158876841816,47.219225442242]}},{"type":"Feature","properties":{"geo":{"name":"18 Station Abonnement et Bonus Place Viarme"},"_l":[47.2214408780072,-1.56332698114374],"LIBTHEME":"DEPLACEMENT","CODE_POSTAL":44000,"WEB":"www.bicloo.nantesmetropole.fr","STATUT":null,"TELEPHONE":"01 30 79 33 44","THEME":10,"COMMUNE":"NANTES","LIBCATEGORIE":"Transport partagé","ADRESSE":"23 Place Viarme","LIBTYPE":"Bicloo","_IDOBJ":3702,"TYPE":100301,"CATEGORIE":1003},"geometry":{"type":"Point","coordinates":[-1.56332698114374,47.2214408780072]}},{"type":"Feature","properties":{"geo":{"name":"19 Station Accueil Saint Similien"},"_l":[47.219835952652,-1.55892890964265],"LIBTHEME":"DEPLACEMENT","CODE_POSTAL":44000,"WEB":"www.bicloo.nantesmetropole.fr","STATUT":null,"TELEPHONE":"01 30 79 33 44","THEME":10,"COMMUNE":"NANTES","LIBCATEGORIE":"Transport partagé","ADRESSE":"1 Place Saint Similien","LIBTYPE":"Bicloo","_IDOBJ":3703,"TYPE":100301,"CATEGORIE":1003},"geometry":{"type":"Point","coordinates":[-1.55892890964265,47.219835952652]}},{"type":"Feature","properties":{"geo":{"name":"20 Station Abonnement Bellamy"},"_l":[47.223348795628,-1.55765985443575],"LIBTHEME":"DEPLACEMENT","CODE_POSTAL":44000,"WEB":"www.bicloo.nantesmetropole.fr","STATUT":null,"TELEPHONE":"01 30 79 33 44","THEME":10,"COMMUNE":"NANTES","LIBCATEGORIE":"Transport partagé","ADRESSE":"29 Rue Paul Bellamy","LIBTYPE":"Bicloo","_IDOBJ":3704,"TYPE":100301,"CATEGORIE":1003},"geometry":{"type":"Point","coordinates":[-1.55765985443575,47.223348795628]}},{"type":"Feature","properties":{"geo":{"name":"21 Station Accueil Marché Talensac Sud"},"_l":[47.221154818394,-1.55649477179845],"LIBTHEME":"DEPLACEMENT","CODE_POSTAL":44000,"WEB":"www.bicloo.nantesmetropole.fr","STATUT":null,"TELEPHONE":"01 30 79 33 44","THEME":10,"COMMUNE":"NANTES","LIBCATEGORIE":"Transport partagé","ADRESSE":"Rue de Talensac","LIBTYPE":"Bicloo","_IDOBJ":3705,"TYPE":100301,"CATEGORIE":1003},"geometry":{"type":"Point","coordinates":[-1.55649477179845,47.221154818394]}},{"type":"Feature","properties":{"geo":{"name":"22 Station Accueil Moquechien"},"_l":[47.2203790474815,-1.55558297927192],"LIBTHEME":"DEPLACEMENT","CODE_POSTAL":44000,"WEB":"www.bicloo.nantesmetropole.fr","STATUT":null,"TELEPHONE":"01 30 79 33 44","THEME":10,"COMMUNE":"NANTES","LIBCATEGORIE":"Transport partagé","ADRESSE":"8 Rue Moquechien","LIBTYPE":"Bicloo","_IDOBJ":3706,"TYPE":100301,"CATEGORIE":1003},"geometry":{"type":"Point","coordinates":[-1.55558297927192,47.2203790474815]}},{"type":"Feature","properties":{"geo":{"name":"23 Station Accueil Buat"},"_l":[47.2271569726,-1.54242264341268],"LIBTHEME":"DEPLACEMENT","CODE_POSTAL":44000,"WEB":"www.bicloo.nantesmetropole.fr","STATUT":null,"TELEPHONE":"01 30 79 33 44","THEME":10,"COMMUNE":"NANTES","LIBCATEGORIE":"Transport partagé","ADRESSE":"101 Rue Général Buat","LIBTYPE":"Bicloo","_IDOBJ":3707,"TYPE":100301,"CATEGORIE":1003},"geometry":{"type":"Point","coordinates":[-1.54242264341268,47.2271569726]}},{"type":"Feature","properties":{"geo":{"name":"24 Station Accueil Versailles"},"_l":[47.2244233838765,-1.55372803210723],"LIBTHEME":"DEPLACEMENT","CODE_POSTAL":44000,"WEB":"www.bicloo.nantesmetropole.fr","STATUT":null,"TELEPHONE":"01 30 79 33 44","THEME":10,"COMMUNE":"NANTES","LIBCATEGORIE":"Transport partagé","ADRESSE":"Quai de Versailles","LIBTYPE":"Bicloo","_IDOBJ":3708,"TYPE":100301,"CATEGORIE":1003},"geometry":{"type":"Point","coordinates":[-1.55372803210723,47.2244233838765]}},{"type":"Feature","properties":{"geo":{"name":"25 Station Abonnement Dalby"},"_l":[47.2236126488755,-1.53010845738847],"LIBTHEME":"DEPLACEMENT","CODE_POSTAL":44000,"WEB":"www.bicloo.nantesmetropole.fr","STATUT":null,"TELEPHONE":"01 30 79 33 44","THEME":10,"COMMUNE":"NANTES","LIBCATEGORIE":"Transport partagé","ADRESSE":"Boulevard Ernest Dalby","LIBTYPE":"Bicloo","_IDOBJ":3709,"TYPE":100301,"CATEGORIE":1003},"geometry":{"type":"Point","coordinates":[-1.53010845738847,47.2236126488755]}},{"type":"Feature","properties":{"geo":{"name":"27 Station Accueil Guist'hau Nord"},"_l":[47.2179401852254,-1.56926720618524],"LIBTHEME":"DEPLACEMENT","CODE_POSTAL":44000,"WEB":"www.bicloo.nantesmetropole.fr","STATUT":null,"TELEPHONE":"01 30 79 33 44","THEME":10,"COMMUNE":"NANTES","LIBCATEGORIE":"Transport partagé","ADRESSE":"44 Boulevard Gabriel Guist'Hau","LIBTYPE":"Bicloo","_IDOBJ":3710,"TYPE":100301,"CATEGORIE":1003},"geometry":{"type":"Point","coordinates":[-1.56926720618524,47.2179401852254]}},{"type":"Feature","properties":{"geo":{"name":"26 Station Abonnement et Bonus Guist'hau Sud"},"_l":[47.2168394453051,-1.56702335731262],"LIBTHEME":"DEPLACEMENT","CODE_POSTAL":44000,"WEB":"www.bicloo.nantesmetropole.fr","STATUT":null,"TELEPHONE":"01 30 79 33 44","THEME":10,"COMMUNE":"NANTES","LIBCATEGORIE":"Transport partagé","ADRESSE":"26T Boulevard Gabriel Guist'Hau","LIBTYPE":"Bicloo","_IDOBJ":3711,"TYPE":100301,"CATEGORIE":1003},"geometry":{"type":"Point","coordinates":[-1.56702335731262,47.2168394453051]}},{"type":"Feature","properties":{"geo":{"name":"28 Station Accueil Place Edit de Nantes"},"_l":[47.2144590279511,-1.56761075012927],"LIBTHEME":"DEPLACEMENT","CODE_POSTAL":44100,"WEB":"www.bicloo.nantesmetropole.fr","STATUT":null,"TELEPHONE":"01 30 79 33 44","THEME":10,"COMMUNE":"NANTES","LIBCATEGORIE":"Transport partagé","ADRESSE":"Place de l'Edit de Nantes","LIBTYPE":"Bicloo","_IDOBJ":3712,"TYPE":100301,"CATEGORIE":1003},"geometry":{"type":"Point","coordinates":[-1.56761075012927,47.2144590279511]}},{"type":"Feature","properties":{"geo":{"name":"29 Station Accueil Duguay Trouin"},"_l":[47.2134615787904,-1.55528850840637],"LIBTHEME":"DEPLACEMENT","CODE_POSTAL":44000,"WEB":"www.bicloo.nantesmetropole.fr","STATUT":null,"TELEPHONE":"01 30 79 33 44","THEME":10,"COMMUNE":"NANTES","LIBCATEGORIE":"Transport partagé","ADRESSE":"7 Allée Duguay Trouin","LIBTYPE":"Bicloo","_IDOBJ":3714,"TYPE":100301,"CATEGORIE":1003},"geometry":{"type":"Point","coordinates":[-1.55528850840637,47.2134615787904]}},{"type":"Feature","properties":{"geo":{"name":"30 Station Abonnement Commerce"},"_l":[47.2131450294256,-1.55738072263822],"LIBTHEME":"DEPLACEMENT","CODE_POSTAL":44000,"WEB":"www.bicloo.nantesmetropole.fr","STATUT":null,"TELEPHONE":"01 30 79 33 44","THEME":10,"COMMUNE":"NANTES","LIBCATEGORIE":"Transport partagé","ADRESSE":"Allée Brancas","LIBTYPE":"Bicloo","_IDOBJ":3715,"TYPE":100301,"CATEGORIE":1003},"geometry":{"type":"Point","coordinates":[-1.55738072263822,47.2131450294256]}},{"type":"Feature","properties":{"geo":{"name":"31 Station Accueil Bourse"},"_l":[47.2120943808486,-1.55910527758924],"LIBTHEME":"DEPLACEMENT","CODE_POSTAL":44000,"WEB":"www.bicloo.nantesmetropole.fr","STATUT":null,"TELEPHONE":"01 30 79 33 44","THEME":10,"COMMUNE":"NANTES","LIBCATEGORIE":"Transport partagé","ADRESSE":"Allée de la Bourse","LIBTYPE":"Bicloo","_IDOBJ":3716,"TYPE":100301,"CATEGORIE":1003},"geometry":{"type":"Point","coordinates":[-1.55910527758924,47.2120943808486]}},{"type":"Feature","properties":{"geo":{"name":"32 Station Accueil Rubens"},"_l":[47.2143514409189,-1.56028729072365],"LIBTHEME":"DEPLACEMENT","CODE_POSTAL":44000,"WEB":"www.bicloo.nantesmetropole.fr","STATUT":null,"TELEPHONE":"01 30 79 33 44","THEME":10,"COMMUNE":"NANTES","LIBCATEGORIE":"Transport partagé","ADRESSE":"Rue Rubens","LIBTYPE":"Bicloo","_IDOBJ":3717,"TYPE":100301,"CATEGORIE":1003},"geometry":{"type":"Point","coordinates":[-1.56028729072365,47.2143514409189]}},{"type":"Feature","properties":{"geo":{"name":"33 Station Accueil Racine"},"_l":[47.2134832603266,-1.5631877058962],"LIBTHEME":"DEPLACEMENT","CODE_POSTAL":44000,"WEB":"www.bicloo.nantesmetropole.fr","STATUT":null,"TELEPHONE":"01 30 79 33 44","THEME":10,"COMMUNE":"NANTES","LIBCATEGORIE":"Transport partagé","ADRESSE":"5 Rue Racine","LIBTYPE":"Bicloo","_IDOBJ":3718,"TYPE":100301,"CATEGORIE":1003},"geometry":{"type":"Point","coordinates":[-1.5631877058962,47.2134832603266]}},{"type":"Feature","properties":{"geo":{"name":"34 Station Abonnement Médiathèque"},"_l":[47.2109126549257,-1.5618418449525],"LIBTHEME":"DEPLACEMENT","CODE_POSTAL":44000,"WEB":"www.bicloo.nantesmetropole.fr","STATUT":null,"TELEPHONE":"01 30 79 33 44","THEME":10,"COMMUNE":"NANTES","LIBCATEGORIE":"Transport partagé","ADRESSE":"24 Quai de la Fosse","LIBTYPE":"Bicloo","_IDOBJ":3719,"TYPE":100301,"CATEGORIE":1003},"geometry":{"type":"Point","coordinates":[-1.5618418449525,47.2109126549257]}},{"type":"Feature","properties":{"geo":{"name":"35 Station Abonnement Jean V"},"_l":[47.212180370735,-1.56556289207478],"LIBTHEME":"DEPLACEMENT","CODE_POSTAL":44000,"WEB":"www.bicloo.nantesmetropole.fr","STATUT":null,"TELEPHONE":"01 30 79 33 44","THEME":10,"COMMUNE":"NANTES","LIBCATEGORIE":"Transport partagé","ADRESSE":"Place Jean V","LIBTYPE":"Bicloo","_IDOBJ":3720,"TYPE":100301,"CATEGORIE":1003},"geometry":{"type":"Point","coordinates":[-1.56556289207478,47.212180370735]}},{"type":"Feature","properties":{"geo":{"name":"36 Station Accueil Alger"},"_l":[47.210705238574,-1.5666743136651],"LIBTHEME":"DEPLACEMENT","CODE_POSTAL":44100,"WEB":"www.bicloo.nantesmetropole.fr","STATUT":null,"TELEPHONE":"01 30 79 33 44","THEME":10,"COMMUNE":"NANTES","LIBCATEGORIE":"Transport partagé","ADRESSE":"5 Rue d'Alger","LIBTYPE":"Bicloo","_IDOBJ":3721,"TYPE":100301,"CATEGORIE":1003},"geometry":{"type":"Point","coordinates":[-1.5666743136651,47.210705238574]}},{"type":"Feature","properties":{"geo":{"name":"37 Station Accueil Feydeau"},"_l":[47.2114728989176,-1.55688248342545],"LIBTHEME":"DEPLACEMENT","CODE_POSTAL":44000,"WEB":"www.bicloo.nantesmetropole.fr","STATUT":null,"TELEPHONE":"01 30 79 33 44","THEME":10,"COMMUNE":"NANTES","LIBCATEGORIE":"Transport partagé","ADRESSE":"Rue Gaston Veil","LIBTYPE":"Bicloo","_IDOBJ":3722,"TYPE":100301,"CATEGORIE":1003},"geometry":{"type":"Point","coordinates":[-1.55688248342545,47.2114728989176]}},{"type":"Feature","properties":{"geo":{"name":"38 Station Abonnement Place Ricordeau"},"_l":[47.2120904234566,-1.55313666650746],"LIBTHEME":"DEPLACEMENT","CODE_POSTAL":44000,"WEB":"www.bicloo.nantesmetropole.fr","STATUT":null,"TELEPHONE":"01 30 79 33 44","THEME":10,"COMMUNE":"NANTES","LIBCATEGORIE":"Transport partagé","ADRESSE":"Chaussée de la Madeleine","LIBTYPE":"Bicloo","_IDOBJ":3723,"TYPE":100301,"CATEGORIE":1003},"geometry":{"type":"Point","coordinates":[-1.55313666650746,47.2120904234566]}},{"type":"Feature","properties":{"geo":{"name":"39 Station Accueil Quai Moncousu"},"_l":[47.2093654560619,-1.555248414263],"LIBTHEME":"DEPLACEMENT","CODE_POSTAL":44000,"WEB":"www.bicloo.nantesmetropole.fr","STATUT":null,"TELEPHONE":"01 30 79 33 44","THEME":10,"COMMUNE":"NANTES","LIBCATEGORIE":"Transport partagé","ADRESSE":"10 Quai Moncousu","LIBTYPE":"Bicloo","_IDOBJ":3724,"TYPE":100301,"CATEGORIE":1003},"geometry":{"type":"Point","coordinates":[-1.555248414263,47.2093654560619]}},{"type":"Feature","properties":{"geo":{"name":"40 Station Accueil Madeleine"},"_l":[47.208815874652,-1.5504304749082],"LIBTHEME":"DEPLACEMENT","CODE_POSTAL":44000,"WEB":"www.bicloo.nantesmetropole.fr","STATUT":null,"TELEPHONE":"01 30 79 33 44","THEME":10,"COMMUNE":"NANTES","LIBCATEGORIE":"Transport partagé","ADRESSE":"2 Quai Moncousu","LIBTYPE":"Bicloo","_IDOBJ":3725,"TYPE":100301,"CATEGORIE":1003},"geometry":{"type":"Point","coordinates":[-1.5504304749082,47.208815874652]}},{"type":"Feature","properties":{"geo":{"name":"41 Station Accueil Chantier Naval"},"_l":[47.2083688395591,-1.56954316224266],"LIBTHEME":"DEPLACEMENT","CODE_POSTAL":44100,"WEB":"www.bicloo.nantesmetropole.fr","STATUT":null,"TELEPHONE":"01 30 79 33 44","THEME":10,"COMMUNE":"NANTES","LIBCATEGORIE":"Transport partagé","ADRESSE":"Rue Mathurin Brissonneau","LIBTYPE":"Bicloo","_IDOBJ":3726,"TYPE":100301,"CATEGORIE":1003},"geometry":{"type":"Point","coordinates":[-1.56954316224266,47.2083688395591]}},{"type":"Feature","properties":{"geo":{"name":"42 Station Abonnement Gare Maritime"},"_l":[47.2066090811753,-1.57262953237793],"LIBTHEME":"DEPLACEMENT","CODE_POSTAL":44100,"WEB":"www.bicloo.nantesmetropole.fr","STATUT":null,"TELEPHONE":"01 30 79 33 44","THEME":10,"COMMUNE":"NANTES","LIBCATEGORIE":"Transport partagé","ADRESSE":"Quai Ernest Renaud","LIBTYPE":"Bicloo","_IDOBJ":3727,"TYPE":100301,"CATEGORIE":1003},"geometry":{"type":"Point","coordinates":[-1.57262953237793,47.2066090811753]}},{"type":"Feature","properties":{"geo":{"name":"43 Station Abonnement Machines de l'Ile"},"_l":[47.2069302605475,-1.56482580615095],"LIBTHEME":"DEPLACEMENT","CODE_POSTAL":44200,"WEB":"www.bicloo.nantesmetropole.fr","STATUT":null,"TELEPHONE":"01 30 79 33 44","THEME":10,"COMMUNE":"NANTES","LIBCATEGORIE":"Transport partagé","ADRESSE":"2 Boulevard Léon Bureau","LIBTYPE":"Bicloo","_IDOBJ":3728,"TYPE":100301,"CATEGORIE":1003},"geometry":{"type":"Point","coordinates":[-1.56482580615095,47.2069302605475]}},{"type":"Feature","properties":{"geo":{"name":"44 Station Accueil Palais de Justice"},"_l":[47.2083631782056,-1.56124245373142],"LIBTHEME":"DEPLACEMENT","CODE_POSTAL":44200,"WEB":"www.bicloo.nantesmetropole.fr","STATUT":null,"TELEPHONE":"01 30 79 33 44","THEME":10,"COMMUNE":"NANTES","LIBCATEGORIE":"Transport partagé","ADRESSE":"19 Quai François Mitterrand","LIBTYPE":"Bicloo","_IDOBJ":3729,"TYPE":100301,"CATEGORIE":1003},"geometry":{"type":"Point","coordinates":[-1.56124245373142,47.2083631782056]}},{"type":"Feature","properties":{"geo":{"name":"45 Station Accueil Prairie au Duc"},"_l":[47.2047848192062,-1.55888284017234],"LIBTHEME":"DEPLACEMENT","CODE_POSTAL":44200,"WEB":"www.bicloo.nantesmetropole.fr","STATUT":null,"TELEPHONE":"01 30 79 33 44","THEME":10,"COMMUNE":"NANTES","LIBCATEGORIE":"Transport partagé","ADRESSE":"Boulevard de la Prairie au Duc","LIBTYPE":"Bicloo","_IDOBJ":3730,"TYPE":100301,"CATEGORIE":1003},"geometry":{"type":"Point","coordinates":[-1.55888284017234,47.2047848192062]}},{"type":"Feature","properties":{"geo":{"name":"46 Station Accueil Place République"},"_l":[47.2054012265916,-1.55519386163571],"LIBTHEME":"DEPLACEMENT","CODE_POSTAL":44200,"WEB":"www.bicloo.nantesmetropole.fr","STATUT":null,"TELEPHONE":"01 30 79 33 44","THEME":10,"COMMUNE":"NANTES","LIBCATEGORIE":"Transport partagé","ADRESSE":"3 Place de la République","LIBTYPE":"Bicloo","_IDOBJ":3731,"TYPE":100301,"CATEGORIE":1003},"geometry":{"type":"Point","coordinates":[-1.55519386163571,47.2054012265916]}},{"type":"Feature","properties":{"geo":{"name":"47 Station Abonnement Martyrs Nantais"},"_l":[47.207035364629,-1.54817985054706],"LIBTHEME":"DEPLACEMENT","CODE_POSTAL":44200,"WEB":"www.bicloo.nantesmetropole.fr","STATUT":null,"TELEPHONE":"01 30 79 33 44","THEME":10,"COMMUNE":"NANTES","LIBCATEGORIE":"Transport partagé","ADRESSE":"21 Boulevard Gaston Doumergue","LIBTYPE":"Bicloo","_IDOBJ":3732,"TYPE":100301,"CATEGORIE":1003},"geometry":{"type":"Point","coordinates":[-1.54817985054706,47.207035364629]}},{"type":"Feature","properties":{"geo":{"name":"48 Station Abonnement Verdun"},"_l":[47.217516769716,-1.55186817651381],"LIBTHEME":"DEPLACEMENT","CODE_POSTAL":44000,"WEB":"www.bicloo.nantesmetropole.fr","STATUT":null,"TELEPHONE":"01 30 79 33 44","THEME":10,"COMMUNE":"NANTES","LIBCATEGORIE":"Transport partagé","ADRESSE":"17 Rue de Verdun","LIBTYPE":"Bicloo","_IDOBJ":3733,"TYPE":100301,"CATEGORIE":1003},"geometry":{"type":"Point","coordinates":[-1.55186817651381,47.217516769716]}},{"type":"Feature","properties":{"geo":{"name":"49 Station Accueil Duchesse Anne"},"_l":[47.2165287485861,-1.54707722079028],"LIBTHEME":"DEPLACEMENT","CODE_POSTAL":44000,"WEB":"www.bicloo.nantesmetropole.fr","STATUT":null,"TELEPHONE":"01 30 79 33 44","THEME":10,"COMMUNE":"NANTES","LIBCATEGORIE":"Transport partagé","ADRESSE":"Rue Henri IV","LIBTYPE":"Bicloo","_IDOBJ":3734,"TYPE":100301,"CATEGORIE":1003},"geometry":{"type":"Point","coordinates":[-1.54707722079028,47.2165287485861]}},{"type":"Feature","properties":{"geo":{"name":"50 Station Abonnement Château"},"_l":[47.2151359323236,-1.55027600234498],"LIBTHEME":"DEPLACEMENT","CODE_POSTAL":44000,"WEB":"www.bicloo.nantesmetropole.fr","STATUT":null,"TELEPHONE":"01 30 79 33 44","THEME":10,"COMMUNE":"NANTES","LIBCATEGORIE":"Transport partagé","ADRESSE":"2 Rue des Etats","LIBTYPE":"Bicloo","_IDOBJ":3735,"TYPE":100301,"CATEGORIE":1003},"geometry":{"type":"Point","coordinates":[-1.55027600234498,47.2151359323236]}},{"type":"Feature","properties":{"geo":{"name":"52 Station Accueil Baco"},"_l":[47.2143388426474,-1.54876893751898],"LIBTHEME":"DEPLACEMENT","CODE_POSTAL":44000,"WEB":"www.bicloo.nantesmetropole.fr","STATUT":null,"TELEPHONE":"01 30 79 33 44","THEME":10,"COMMUNE":"NANTES","LIBCATEGORIE":"Transport partagé","ADRESSE":"Allée Baco","LIBTYPE":"Bicloo","_IDOBJ":3737,"TYPE":100301,"CATEGORIE":1003},"geometry":{"type":"Point","coordinates":[-1.54876893751898,47.2143388426474]}},{"type":"Feature","properties":{"geo":{"name":"53 Station Accueil Olivettes"},"_l":[47.2117494265765,-1.54995935107843],"LIBTHEME":"DEPLACEMENT","CODE_POSTAL":44000,"WEB":"www.bicloo.nantesmetropole.fr","STATUT":null,"TELEPHONE":"01 30 79 33 44","THEME":10,"COMMUNE":"NANTES","LIBCATEGORIE":"Transport partagé","ADRESSE":"10 Rue des Olivettes","LIBTYPE":"Bicloo","_IDOBJ":3738,"TYPE":100301,"CATEGORIE":1003},"geometry":{"type":"Point","coordinates":[-1.54995935107843,47.2117494265765]}},{"type":"Feature","properties":{"geo":{"name":"54 Station Abonnement Cité Internationale des Congrès"},"_l":[47.2131685540285,-1.54502748383111],"LIBTHEME":"DEPLACEMENT","CODE_POSTAL":44000,"WEB":"www.bicloo.nantesmetropole.fr","STATUT":null,"TELEPHONE":"01 30 79 33 44","THEME":10,"COMMUNE":"NANTES","LIBCATEGORIE":"Transport partagé","ADRESSE":"Rue de Jemmapes","LIBTYPE":"Bicloo","_IDOBJ":3739,"TYPE":100301,"CATEGORIE":1003},"geometry":{"type":"Point","coordinates":[-1.54502748383111,47.2131685540285]}},{"type":"Feature","properties":{"geo":{"name":"55 Station Accueil Magellan"},"_l":[47.2106839754833,-1.54424826339243],"LIBTHEME":"DEPLACEMENT","CODE_POSTAL":44000,"WEB":"www.bicloo.nantesmetropole.fr","STATUT":null,"TELEPHONE":"01 30 79 33 44","THEME":10,"COMMUNE":"NANTES","LIBCATEGORIE":"Transport partagé","ADRESSE":"11 Rue de Belfort","LIBTYPE":"Bicloo","_IDOBJ":3740,"TYPE":100301,"CATEGORIE":1003},"geometry":{"type":"Point","coordinates":[-1.54424826339243,47.2106839754833]}},{"type":"Feature","properties":{"geo":{"name":"56 Station Accueil Vincent Gache"},"_l":[47.2068847351676,-1.54185096726864],"LIBTHEME":"DEPLACEMENT","CODE_POSTAL":44200,"WEB":"www.bicloo.nantesmetropole.fr","STATUT":null,"TELEPHONE":"01 30 79 33 44","THEME":10,"COMMUNE":"NANTES","LIBCATEGORIE":"Transport partagé","ADRESSE":"9 Rue François Albert","LIBTYPE":"Bicloo","_IDOBJ":3741,"TYPE":100301,"CATEGORIE":1003},"geometry":{"type":"Point","coordinates":[-1.54185096726864,47.2068847351676]}},{"type":"Feature","properties":{"geo":{"name":"57 Station Abonnement Gaëtan Rondeau"},"_l":[47.2054072118627,-1.53760013962524],"LIBTHEME":"DEPLACEMENT","CODE_POSTAL":44200,"WEB":"www.bicloo.nantesmetropole.fr","STATUT":null,"TELEPHONE":"01 30 79 33 44","THEME":10,"COMMUNE":"NANTES","LIBCATEGORIE":"Transport partagé","ADRESSE":"20 Rue Gaëtan Rondeau","LIBTYPE":"Bicloo","_IDOBJ":3742,"TYPE":100301,"CATEGORIE":1003},"geometry":{"type":"Point","coordinates":[-1.53760013962524,47.2054072118627]}},{"type":"Feature","properties":{"geo":{"name":"58 Station Accueil Palais des Sports"},"_l":[47.2084771961567,-1.53599916068622],"LIBTHEME":"DEPLACEMENT","CODE_POSTAL":44200,"WEB":"www.bicloo.nantesmetropole.fr","STATUT":null,"TELEPHONE":"01 30 79 33 44","THEME":10,"COMMUNE":"NANTES","LIBCATEGORIE":"Transport partagé","ADRESSE":"21 Rue René Viviani","LIBTYPE":"Bicloo","_IDOBJ":3743,"TYPE":100301,"CATEGORIE":1003},"geometry":{"type":"Point","coordinates":[-1.53599916068622,47.2084771961567]}},{"type":"Feature","properties":{"geo":{"name":"59 Station Accueil Stade Saupin"},"_l":[47.2139780010056,-1.53963958134972],"LIBTHEME":"DEPLACEMENT","CODE_POSTAL":44000,"WEB":"www.bicloo.nantesmetropole.fr","STATUT":null,"TELEPHONE":"01 30 79 33 44","THEME":10,"COMMUNE":"NANTES","LIBCATEGORIE":"Transport partagé","ADRESSE":"35 Quai Malakoff","LIBTYPE":"Bicloo","_IDOBJ":3744,"TYPE":100301,"CATEGORIE":1003},"geometry":{"type":"Point","coordinates":[-1.53963958134972,47.2139780010056]}},{"type":"Feature","properties":{"geo":{"name":"60 Station Abonnement Gare Sud"},"_l":[47.2159307421474,-1.54286596091712],"LIBTHEME":"DEPLACEMENT","CODE_POSTAL":44000,"WEB":"www.bicloo.nanresmetropole.fr","STATUT":null,"TELEPHONE":"01 30 79 33 44","THEME":10,"COMMUNE":"NANTES","LIBCATEGORIE":"Transport partagé","ADRESSE":"12 Rue de Lourmel","LIBTYPE":"Bicloo","_IDOBJ":3745,"TYPE":100301,"CATEGORIE":1003},"geometry":{"type":"Point","coordinates":[-1.54286596091712,47.2159307421474]}},{"type":"Feature","properties":{"geo":{"name":"61 Station Accueil LU Lieu Unique"},"_l":[47.2156027850142,-1.54592421117785],"LIBTHEME":"DEPLACEMENT","CODE_POSTAL":44000,"WEB":"www.bicloo.nantesmetropole.fr","STATUT":null,"TELEPHONE":"01 30 79 33 44","THEME":10,"COMMUNE":"NANTES","LIBCATEGORIE":"Transport partagé","ADRESSE":"Quai Malakoff","LIBTYPE":"Bicloo","_IDOBJ":3746,"TYPE":100301,"CATEGORIE":1003},"geometry":{"type":"Point","coordinates":[-1.54592421117785,47.2156027850142]}},{"type":"Feature","properties":{"geo":{"name":"62 Station Abonnement Gare Nord"},"_l":[47.2181414046142,-1.54224096840209],"LIBTHEME":"DEPLACEMENT","CODE_POSTAL":44000,"WEB":"www.bicloo.nantesmetropole.fr","STATUT":null,"TELEPHONE":"01 30 79 33 44","THEME":10,"COMMUNE":"NANTES","LIBCATEGORIE":"Transport partagé","ADRESSE":"1 Place Charles le Roux","LIBTYPE":"Bicloo","_IDOBJ":3747,"TYPE":100301,"CATEGORIE":1003},"geometry":{"type":"Point","coordinates":[-1.54224096840209,47.2181414046142]}},{"type":"Feature","properties":{"geo":{"name":"63 Station Accueil Jardins des Plantes"},"_l":[47.2199317719337,-1.54476410962437],"LIBTHEME":"DEPLACEMENT","CODE_POSTAL":44000,"WEB":"www.bicloo.nantesmetropole.fr","STATUT":null,"TELEPHONE":"01 30 79 33 44","THEME":10,"COMMUNE":"NANTES","LIBCATEGORIE":"Transport partagé","ADRESSE":"6 Rue Stanislas Baudry","LIBTYPE":"Bicloo","_IDOBJ":3748,"TYPE":100301,"CATEGORIE":1003},"geometry":{"type":"Point","coordinates":[-1.54476410962437,47.2199317719337]}},{"type":"Feature","properties":{"geo":{"name":"64 Station Abonnement et Bonus Saint Clément"},"_l":[47.2217983948072,-1.54717172480906],"LIBTHEME":"DEPLACEMENT","CODE_POSTAL":44000,"WEB":"www.bicloo.nantesmetropole.fr","STATUT":null,"TELEPHONE":"01 30 79 33 44","THEME":10,"COMMUNE":"NANTES","LIBCATEGORIE":"Transport partagé","ADRESSE":"37 Rue Maréchal Joffre","LIBTYPE":"Bicloo","_IDOBJ":3750,"TYPE":100301,"CATEGORIE":1003},"geometry":{"type":"Point","coordinates":[-1.54717172480906,47.2217983948072]}},{"type":"Feature","properties":{"geo":{"name":"65 Station Accueil Sully"},"_l":[47.2225988184658,-1.5516848391931],"LIBTHEME":"DEPLACEMENT","CODE_POSTAL":44000,"WEB":"www.bicloo.nantesmetropole.fr","STATUT":null,"TELEPHONE":"01 30 79 33 44","THEME":10,"COMMUNE":"NANTES","LIBCATEGORIE":"Transport partagé","ADRESSE":"7 Cours Sully","LIBTYPE":"Bicloo","_IDOBJ":3751,"TYPE":100301,"CATEGORIE":1003},"geometry":{"type":"Point","coordinates":[-1.5516848391931,47.2225988184658]}},{"type":"Feature","properties":{"geo":{"name":"66 Station Accueil Chanzy"},"_l":[47.2254413947716,-1.54801802179078],"LIBTHEME":"DEPLACEMENT","CODE_POSTAL":44000,"WEB":"www.bicloo.nantesmetropole.fr","STATUT":null,"TELEPHONE":"01 30 79 33 44","THEME":10,"COMMUNE":"NANTES","LIBCATEGORIE":"Transport partagé","ADRESSE":"Avenue Chanzy","LIBTYPE":"Bicloo","_IDOBJ":3752,"TYPE":100301,"CATEGORIE":1003},"geometry":{"type":"Point","coordinates":[-1.54801802179078,47.2254413947716]}},{"type":"Feature","properties":{"geo":{"name":"67 Station Accueil Place Waldeck Rousseau"},"_l":[47.2277863381608,-1.55216613912966],"LIBTHEME":"DEPLACEMENT","CODE_POSTAL":44000,"WEB":"www.bicloo.nantesmetropole.fr","STATUT":null,"TELEPHONE":"01 30 79 33 44","THEME":10,"COMMUNE":"NANTES","LIBCATEGORIE":"Transport partagé","ADRESSE":"Place Waldeck Rousseau","LIBTYPE":"Bicloo","_IDOBJ":3753,"TYPE":100301,"CATEGORIE":1003},"geometry":{"type":"Point","coordinates":[-1.55216613912966,47.2277863381608]}},{"type":"Feature","properties":{"geo":{"name":"68 Station Accueil Livet"},"_l":[47.2240954955051,-1.54521632095855],"LIBTHEME":"DEPLACEMENT","CODE_POSTAL":44000,"WEB":"www.bicloo.nanresmetropole.fr","STATUT":null,"TELEPHONE":"01 30 79 33 44","THEME":10,"COMMUNE":"NANTES","LIBCATEGORIE":"Transport partagé","ADRESSE":"65 Rue Dufour","LIBTYPE":"Bicloo","_IDOBJ":3754,"TYPE":100301,"CATEGORIE":1003},"geometry":{"type":"Point","coordinates":[-1.54521632095855,47.2240954955051]}},{"type":"Feature","properties":{"geo":{"name":"69 Station Accueil Manufacture"},"_l":[47.2192276992993,-1.53586535019784],"LIBTHEME":"DEPLACEMENT","CODE_POSTAL":44000,"WEB":"www.bicloo.nantesmetropole.fr","STATUT":null,"TELEPHONE":"01 30 79 33 44","THEME":10,"COMMUNE":"NANTES","LIBCATEGORIE":"Transport partagé","ADRESSE":"11 Boulevard de Stalingrad","LIBTYPE":"Bicloo","_IDOBJ":3755,"TYPE":100301,"CATEGORIE":1003},"geometry":{"type":"Point","coordinates":[-1.53586535019784,47.2192276992993]}},{"type":"Feature","properties":{"geo":{"name":"70 Station Abonnement et Bonus Foch Cathédrale"},"_l":[47.2186945659362,-1.55048013677801],"LIBTHEME":"DEPLACEMENT","CODE_POSTAL":44000,"WEB":"www.bicloo.nantesmetropole.fr","STATUT":null,"TELEPHONE":"01 30 79 33 44","THEME":10,"COMMUNE":"NANTES","LIBCATEGORIE":"Transport partagé","ADRESSE":"Rue de l'Evêché","LIBTYPE":"Bicloo","_IDOBJ":3756,"TYPE":100301,"CATEGORIE":1003},"geometry":{"type":"Point","coordinates":[-1.55048013677801,47.2186945659362]}},{"type":"Feature","properties":{"geo":{"name":"71 Station Abonnement et Bonus Marché Talensac Nord"},"_l":[47.2219103419541,-1.55906934287743],"LIBTHEME":"DEPLACEMENT","CODE_POSTAL":44000,"WEB":"www.bicloo.nantesmetropole.fr","STATUT":null,"TELEPHONE":"01 30 79 33 44","THEME":10,"COMMUNE":"NANTES","LIBCATEGORIE":"Transport partagé","ADRESSE":"17 Rue de Bel Air","LIBTYPE":"Bicloo","_IDOBJ":3757,"TYPE":100301,"CATEGORIE":1003},"geometry":{"type":"Point","coordinates":[-1.55906934287743,47.2219103419541]}},{"type":"Feature","properties":{"geo":{"name":"73 Station Accueil Sarradin"},"_l":[47.2208837667212,-1.57050717785263],"LIBTHEME":"DEPLACEMENT","CODE_POSTAL":44000,"WEB":"www.bicloo.nantesmetropole.fr","STATUT":null,"TELEPHONE":"01 30 79 33 44","THEME":10,"COMMUNE":"NANTES","LIBCATEGORIE":"Transport partagé","ADRESSE":"4 Place Emile Sarradin","LIBTYPE":"Bicloo","_IDOBJ":3759,"TYPE":100301,"CATEGORIE":1003},"geometry":{"type":"Point","coordinates":[-1.57050717785263,47.2208837667212]}},{"type":"Feature","properties":{"geo":{"name":"74 Station Accueil Place Canclaux"},"_l":[47.2143716842925,-1.57500608192678],"LIBTHEME":"DEPLACEMENT","CODE_POSTAL":44100,"WEB":"www.bicloo.nantesmetropole.fr","STATUT":null,"TELEPHONE":"01 30 79 33 44","THEME":10,"COMMUNE":"NANTES","LIBCATEGORIE":"Transport partagé","ADRESSE":"8 Place Canclaux","LIBTYPE":"Bicloo","_IDOBJ":3760,"TYPE":100301,"CATEGORIE":1003},"geometry":{"type":"Point","coordinates":[-1.57500608192678,47.2143716842925]}},{"type":"Feature","properties":{"geo":{"name":"75 Station Accueil Lamoricière"},"_l":[47.212365614395,-1.57139899840128],"LIBTHEME":"DEPLACEMENT","CODE_POSTAL":44100,"WEB":"www.bicloo.nantesmetropole.fr","STATUT":null,"TELEPHONE":"01 30 79 33 44","THEME":10,"COMMUNE":"NANTES","LIBCATEGORIE":"Transport partagé","ADRESSE":"Rue Lamoricière","LIBTYPE":"Bicloo","_IDOBJ":3761,"TYPE":100301,"CATEGORIE":1003},"geometry":{"type":"Point","coordinates":[-1.57139899840128,47.212365614395]}},{"type":"Feature","properties":{"geo":{"name":"76 Station Accueil Place René Bouhier"},"_l":[47.2094420409641,-1.57058928666779],"LIBTHEME":"DEPLACEMENT","CODE_POSTAL":44100,"WEB":"www.bicloo.nantesmetropole.fr","STATUT":null,"TELEPHONE":"01 30 79 33 44","THEME":10,"COMMUNE":"NANTES","LIBCATEGORIE":"Transport partagé","ADRESSE":"8 Place René Bouhier","LIBTYPE":"Bicloo","_IDOBJ":3762,"TYPE":100301,"CATEGORIE":1003},"geometry":{"type":"Point","coordinates":[-1.57058928666779,47.2094420409641]}},{"type":"Feature","properties":{"geo":{"name":"77 Station Accueil Ecole d'Architecture"},"_l":[47.2076169020017,-1.55755125966966],"LIBTHEME":"DEPLACEMENT","CODE_POSTAL":44200,"WEB":"www.bicloo.nantesmetropole.fr","STATUT":null,"TELEPHONE":"01 30 79 33 44","THEME":10,"COMMUNE":"NANTES","LIBCATEGORIE":"Transport partagé","ADRESSE":"Quai François Mitterrand","LIBTYPE":"Bicloo","_IDOBJ":3763,"TYPE":100301,"CATEGORIE":1003},"geometry":{"type":"Point","coordinates":[-1.55755125966966,47.2076169020017]}},{"type":"Feature","properties":{"geo":{"name":"78 Station Accueil De Gaulle"},"_l":[47.2084603783954,-1.54056873329161],"LIBTHEME":"DEPLACEMENT","CODE_POSTAL":44200,"WEB":"www.bicloo.nantesmetropole.fr","STATUT":null,"TELEPHONE":"01 30 79 33 44","THEME":10,"COMMUNE":"NANTES","LIBCATEGORIE":"Transport partagé","ADRESSE":"Boulevard Général de Gaulle","LIBTYPE":"Bicloo","_IDOBJ":3764,"TYPE":100301,"CATEGORIE":1003},"geometry":{"type":"Point","coordinates":[-1.54056873329161,47.2084603783954]}},{"type":"Feature","properties":{"geo":{"name":"79 Station Accueil Malakoff"},"_l":[47.2132345266324,-1.53642071591634],"LIBTHEME":"DEPLACEMENT","CODE_POSTAL":44000,"WEB":"www.bicloo.nantesmetropole.fr","STATUT":null,"TELEPHONE":"01 30 79 33 44","THEME":10,"COMMUNE":"NANTES","LIBCATEGORIE":"Transport partagé","ADRESSE":"13 Quai Malakoff","LIBTYPE":"Bicloo","_IDOBJ":3765,"TYPE":100301,"CATEGORIE":1003},"geometry":{"type":"Point","coordinates":[-1.53642071591634,47.2132345266324]}},{"type":"Feature","properties":{"geo":{"name":"Parc relais tramway Marcel Paul"},"_l":[47.2459045698135,-1.61800834963946],"LIBTHEME":"DEPLACEMENT","CODE_POSTAL":44800,"WEB":"www.tan.fr","STATUT":null,"TELEPHONE":"02 40 44 44 44","THEME":10,"COMMUNE":"ST-HERBLAIN","LIBCATEGORIE":"Parc Relais","ADRESSE":"Boulevard Marcel Paul","LIBTYPE":"Enclos","_IDOBJ":3776,"TYPE":100202,"CATEGORIE":1002},"geometry":{"type":"Point","coordinates":[-1.61800834963946,47.2459045698135]}},{"type":"Feature","properties":{"geo":{"name":"Parc relais tramway Grande Ouche"},"_l":[47.1819948350479,-1.57947203525665],"LIBTHEME":"DEPLACEMENT","CODE_POSTAL":44340,"WEB":"www.tan.fr","STATUT":null,"TELEPHONE":"02 40 44 44 44","THEME":10,"COMMUNE":"BOUGUENAIS","LIBCATEGORIE":"Parc Relais","ADRESSE":"Rue de la Grande Ouche","LIBTYPE":"Libre","_IDOBJ":3777,"TYPE":100203,"CATEGORIE":1002},"geometry":{"type":"Point","coordinates":[-1.57947203525665,47.1819948350479]}},{"type":"Feature","properties":{"geo":{"name":"Parc relais busway Bourdonnières 2"},"_l":[47.1867242428305,-1.52315133155692],"LIBTHEME":"DEPLACEMENT","CODE_POSTAL":44200,"WEB":"www.tan.fr","STATUT":null,"TELEPHONE":"02 40 44 44 44","THEME":10,"COMMUNE":"NANTES","LIBCATEGORIE":"Parc Relais","ADRESSE":"Rue des Bourdonnières","LIBTYPE":"Libre","_IDOBJ":3778,"TYPE":100203,"CATEGORIE":1002},"geometry":{"type":"Point","coordinates":[-1.52315133155692,47.1867242428305]}},{"type":"Feature","properties":{"geo":{"name":"87 Station Accueil Anatole-France"},"_l":[47.2236164437223,-1.57139236049388],"LIBTHEME":"DEPLACEMENT","CODE_POSTAL":44000,"WEB":"www.bicloo.nantesmetropole.fr","STATUT":null,"TELEPHONE":"01 30 79 33 44","THEME":10,"COMMUNE":"NANTES","LIBCATEGORIE":"Transport partagé","ADRESSE":"34 Rue Alexandre Dumas","LIBTYPE":"Bicloo","_IDOBJ":3830,"TYPE":100301,"CATEGORIE":1003},"geometry":{"type":"Point","coordinates":[-1.57139236049388,47.2236164437223]}},{"type":"Feature","properties":{"geo":{"name":"86 Station Accueil Hauts-Pavés"},"_l":[47.2254822618338,-1.56752047182291],"LIBTHEME":"DEPLACEMENT","CODE_POSTAL":44000,"WEB":"www.bicloo.nantesmetropole.fr","STATUT":null,"TELEPHONE":"01 30 79 33 44","THEME":10,"COMMUNE":"NANTES","LIBCATEGORIE":"Transport partagé","ADRESSE":"Rue des Hauts Pavés","LIBTYPE":"Bicloo","_IDOBJ":3831,"TYPE":100301,"CATEGORIE":1003},"geometry":{"type":"Point","coordinates":[-1.56752047182291,47.2254822618338]}},{"type":"Feature","properties":{"geo":{"name":"88 Station Accueil Mellinet"},"_l":[47.211489622114,-1.57712676541886],"LIBTHEME":"DEPLACEMENT","CODE_POSTAL":44100,"WEB":"www.bicloo.nantesmetropole.fr","STATUT":null,"TELEPHONE":"01 30 79 33 44","THEME":10,"COMMUNE":"NANTES","LIBCATEGORIE":"Transport partagé","ADRESSE":"1 Boulevard Allard","LIBTYPE":"Bicloo","_IDOBJ":3833,"TYPE":100301,"CATEGORIE":1003},"geometry":{"type":"Point","coordinates":[-1.57712676541886,47.211489622114]}},{"type":"Feature","properties":{"geo":{"name":"89 Station Accueil Saint-Aignan"},"_l":[47.2074440639466,-1.57871509661417],"LIBTHEME":"DEPLACEMENT","CODE_POSTAL":44100,"WEB":"www.bicloo.nantesmetropole.fr","STATUT":null,"TELEPHONE":"01 30 79 33 44","THEME":10,"COMMUNE":"NANTES","LIBCATEGORIE":"Transport partagé","ADRESSE":"65 Boulevard Saint Aignan","LIBTYPE":"Bicloo","_IDOBJ":3834,"TYPE":100301,"CATEGORIE":1003},"geometry":{"type":"Point","coordinates":[-1.57871509661417,47.2074440639466]}},{"type":"Feature","properties":{"geo":{"name":"80 Station Accueil Victor-Hugo"},"_l":[47.2040143599928,-1.55156732506795],"LIBTHEME":"DEPLACEMENT","CODE_POSTAL":44200,"WEB":"www.bicloo.nantesmetropole.fr","STATUT":null,"TELEPHONE":"01 30 79 33 44","THEME":10,"COMMUNE":"NANTES","LIBCATEGORIE":"Transport partagé","ADRESSE":"Boulevard Victor Hugo","LIBTYPE":"Bicloo","_IDOBJ":3835,"TYPE":100301,"CATEGORIE":1003},"geometry":{"type":"Point","coordinates":[-1.55156732506795,47.2040143599928]}},{"type":"Feature","properties":{"geo":{"name":"81 Station Abonnement Mangin"},"_l":[47.2010219272,-1.54549762740334],"LIBTHEME":"DEPLACEMENT","CODE_POSTAL":44200,"WEB":"www.bicloo.nantesmetropole.fr","STATUT":null,"TELEPHONE":"01 30 79 33 44","THEME":10,"COMMUNE":"NANTES","LIBCATEGORIE":"Transport partagé","ADRESSE":"8 Place Victor Mangin","LIBTYPE":"Bicloo","_IDOBJ":3836,"TYPE":100301,"CATEGORIE":1003},"geometry":{"type":"Point","coordinates":[-1.54549762740334,47.2010219272]}},{"type":"Feature","properties":{"geo":{"name":"82 Station Accueil Sébilleau"},"_l":[47.2067685846983,-1.53313636292619],"LIBTHEME":"DEPLACEMENT","CODE_POSTAL":44200,"WEB":"www.bicloo.nantesmetropole.fr","STATUT":null,"TELEPHONE":"01 30 79 33 44","THEME":10,"COMMUNE":"NANTES","LIBCATEGORIE":"Transport partagé","ADRESSE":"Rue Docteur Jules Sébilleau","LIBTYPE":"Bicloo","_IDOBJ":3837,"TYPE":100301,"CATEGORIE":1003},"geometry":{"type":"Point","coordinates":[-1.53313636292619,47.2067685846983]}},{"type":"Feature","properties":{"geo":{"name":"83 Station Abonnement Millerand"},"_l":[47.208217819463,-1.53016141349475],"LIBTHEME":"DEPLACEMENT","CODE_POSTAL":44200,"WEB":"www.bicloo.nantesmetropole.fr","STATUT":null,"TELEPHONE":"01 30 79 33 44","THEME":10,"COMMUNE":"NANTES","LIBCATEGORIE":"Transport partagé","ADRESSE":"9 Boulevard Alexandre Millerand","LIBTYPE":"Bicloo","_IDOBJ":3838,"TYPE":100301,"CATEGORIE":1003},"geometry":{"type":"Point","coordinates":[-1.53016141349475,47.208217819463]}},{"type":"Feature","properties":{"geo":{"name":"84 Station Accueil Région"},"_l":[47.2107532371851,-1.52595127548116],"LIBTHEME":"DEPLACEMENT","CODE_POSTAL":44200,"WEB":"www.bicloo.nantesmetropole.fr","STATUT":null,"TELEPHONE":"01 30 79 33 44","THEME":10,"COMMUNE":"NANTES","LIBCATEGORIE":"Transport partagé","ADRESSE":"Place Gaston Defferre","LIBTYPE":"Bicloo","_IDOBJ":3839,"TYPE":100301,"CATEGORIE":1003},"geometry":{"type":"Point","coordinates":[-1.52595127548116,47.2107532371851]}},{"type":"Feature","properties":{"geo":{"name":"Parc en enclos Courte Durée Gare Nord"},"_l":[47.2172647322169,-1.54347875084443],"LIBTHEME":"DEPLACEMENT","CODE_POSTAL":44000,"WEB":"www.resaplace.com","STATUT":null,"TELEPHONE":"08 25 88 88 26","THEME":10,"COMMUNE":"NANTES","LIBCATEGORIE":"Parc en Enclos","ADRESSE":"Cours John Kennedy","LIBTYPE":null,"_IDOBJ":3950,"TYPE":null,"CATEGORIE":1005},"geometry":{"type":"Point","coordinates":[-1.54347875084443,47.2172647322169]}},{"type":"Feature","properties":{"geo":{"name":"Parking ouvrage Les Machines"},"_l":[47.2059006220645,-1.56272779236372],"LIBTHEME":"DEPLACEMENT","CODE_POSTAL":44200,"WEB":"www.resaplace.com","STATUT":null,"TELEPHONE":"08 25 88 88 26","THEME":10,"COMMUNE":"NANTES","LIBCATEGORIE":"Parking Ouvrage","ADRESSE":"Rue Arthur III","LIBTYPE":"Elévation","_IDOBJ":3951,"TYPE":100102,"CATEGORIE":1001},"geometry":{"type":"Point","coordinates":[-1.56272779236372,47.2059006220645]}},{"type":"Feature","properties":{"geo":{"name":"85 Station Accueil et Bonus Bel Air"},"_l":[47.2264060339437,-1.56004122137593],"LIBTHEME":"DEPLACEMENT","CODE_POSTAL":44000,"WEB":"www.bicloo.nantesmetropole.fr","STATUT":null,"TELEPHONE":"01 30 79 33 44","THEME":10,"COMMUNE":"NANTES","LIBCATEGORIE":"Transport partagé","ADRESSE":"102 Rue Paul Bellamy","LIBTYPE":"Bicloo","_IDOBJ":3952,"TYPE":100301,"CATEGORIE":1003},"geometry":{"type":"Point","coordinates":[-1.56004122137593,47.2264060339437]}},{"type":"Feature","properties":{"geo":{"name":"10 Station Accueil Picasso"},"_l":[47.2163435868477,-1.53422912101255],"LIBTHEME":"DEPLACEMENT","CODE_POSTAL":44000,"WEB":"www.bicloo.nantesmetropole.fr","STATUT":null,"TELEPHONE":"01 30 79 33 44","THEME":10,"COMMUNE":"NANTES","LIBCATEGORIE":"Transport partagé","ADRESSE":"Mail Pablo Picasso","LIBTYPE":"Bicloo","_IDOBJ":3973,"TYPE":100301,"CATEGORIE":1003},"geometry":{"type":"Point","coordinates":[-1.53422912101255,47.2163435868477]}},{"type":"Feature","properties":{"geo":{"name":"51 Station Abonnement Berlin"},"_l":[47.2143914699763,-1.53007250061588],"LIBTHEME":"DEPLACEMENT","CODE_POSTAL":44000,"WEB":"www.bicloo.nantesmetropole.fr","STATUT":null,"TELEPHONE":"01 30 79 33 44","THEME":10,"COMMUNE":"NANTES","LIBCATEGORIE":"Transport partagé","ADRESSE":"Boulevard de Sarrebruck","LIBTYPE":"Bicloo","_IDOBJ":3974,"TYPE":100301,"CATEGORIE":1003},"geometry":{"type":"Point","coordinates":[-1.53007250061588,47.2143914699763]}},{"type":"Feature","properties":{"geo":{"name":"Parking ouvrage Gare Sud 4"},"_l":[47.2151033663183,-1.53793389528195],"LIBTHEME":"DEPLACEMENT","CODE_POSTAL":44000,"WEB":"www.resaplace.com","STATUT":null,"TELEPHONE":"08 25 88 88 26","THEME":10,"COMMUNE":"NANTES","LIBCATEGORIE":"Parking Ouvrage","ADRESSE":"24 Mail Pablo Picasso","LIBTYPE":"Souterrain","_IDOBJ":3989,"TYPE":100101,"CATEGORIE":1001},"geometry":{"type":"Point","coordinates":[-1.53793389528195,47.2151033663183]}},{"type":"Feature","properties":{"geo":{"name":"Pac en enclos Viviani"},"_l":[47.2087756042897,-1.53619706978924],"LIBTHEME":"DEPLACEMENT","CODE_POSTAL":44200,"WEB":"www.parkings-nantes.fr","STATUT":null,"TELEPHONE":"02 51 84 94 51","THEME":10,"COMMUNE":"NANTES","LIBCATEGORIE":"Parc en Enclos","ADRESSE":"Rue René Viviani","LIBTYPE":null,"_IDOBJ":3990,"TYPE":null,"CATEGORIE":1005},"geometry":{"type":"Point","coordinates":[-1.53619706978924,47.2087756042897]}},{"type":"Feature","properties":{"geo":{"name":"92 Station Abonnement Rond Point Rennes"},"_l":[47.2330917037559,-1.56601698077602],"LIBTHEME":"DEPLACEMENT","CODE_POSTAL":44000,"WEB":"www.bicloo.nantesmetropole.fr","STATUT":null,"TELEPHONE":"01 30 79 33 44","THEME":10,"COMMUNE":"NANTES","LIBCATEGORIE":"Transport partagé","ADRESSE":"Rond-Point de Rennes","LIBTYPE":"Bicloo","_IDOBJ":3993,"TYPE":100301,"CATEGORIE":1003},"geometry":{"type":"Point","coordinates":[-1.56601698077602,47.2330917037559]}},{"type":"Feature","properties":{"geo":{"name":"91 Station Abonnement Rond Point Vannes"},"_l":[47.229675345348,-1.57201209125591],"LIBTHEME":"DEPLACEMENT","CODE_POSTAL":44000,"WEB":"www.bicloo.nantesmetropole.fr","STATUT":null,"TELEPHONE":"01 30 79 33 44","THEME":10,"COMMUNE":"NANTES","LIBCATEGORIE":"Transport partagé","ADRESSE":"63B Boulevard Lelasseur","LIBTYPE":"Bicloo","_IDOBJ":3994,"TYPE":100301,"CATEGORIE":1003},"geometry":{"type":"Point","coordinates":[-1.57201209125591,47.229675345348]}},{"type":"Feature","properties":{"geo":{"name":"90 Station Abonnement Procé"},"_l":[47.2243215861999,-1.57658356660229],"LIBTHEME":"DEPLACEMENT","CODE_POSTAL":44000,"WEB":"www.bicloo.nantesmetropole.fr","STATUT":null,"TELEPHONE":"01 30 79 33 44","THEME":10,"COMMUNE":"NANTES","LIBCATEGORIE":"Transport partagé","ADRESSE":"Boulevard Gaston Serpette","LIBTYPE":"Bicloo","_IDOBJ":3995,"TYPE":100301,"CATEGORIE":1003},"geometry":{"type":"Point","coordinates":[-1.57658356660229,47.2243215861999]}},{"type":"Feature","properties":{"geo":{"name":"102 Station Abonnement Gare Pont Rousseau"},"_l":[47.1931492766954,-1.54900545446362],"LIBTHEME":"DEPLACEMENT","CODE_POSTAL":44400,"WEB":"www.bicloo.nantesmetropole.fr","STATUT":null,"TELEPHONE":"01 30 79 33 44","THEME":10,"COMMUNE":"REZE","LIBCATEGORIE":"Transport partagé","ADRESSE":"Rue de la Gare","LIBTYPE":"Bicloo","_IDOBJ":3996,"TYPE":100301,"CATEGORIE":1003},"geometry":{"type":"Point","coordinates":[-1.54900545446362,47.1931492766954]}},{"type":"Feature","properties":{"geo":{"name":"101 Station Abonnement Pirmil"},"_l":[47.1966294882289,-1.54145063364339],"LIBTHEME":"DEPLACEMENT","CODE_POSTAL":44200,"WEB":"www.bicloo.nantesmetropole.fr","STATUT":null,"TELEPHONE":"01 30 79 33 44","THEME":10,"COMMUNE":"NANTES","LIBCATEGORIE":"Transport partagé","ADRESSE":"Rue Esnoult des Châtelets","LIBTYPE":"Bicloo","_IDOBJ":3997,"TYPE":100301,"CATEGORIE":1003},"geometry":{"type":"Point","coordinates":[-1.54145063364339,47.1966294882289]}},{"type":"Feature","properties":{"geo":{"name":"99 Station Accueil Saint-Jacques"},"_l":[47.1958591605985,-1.53658962887906],"LIBTHEME":"DEPLACEMENT","CODE_POSTAL":44200,"WEB":"www.bicloo.nantesmetropole.fr","STATUT":null,"TELEPHONE":"01 30 79 33 44","THEME":10,"COMMUNE":"NANTES","LIBCATEGORIE":"Transport partagé","ADRESSE":"85 Rue Saint Jacques","LIBTYPE":"Bicloo","_IDOBJ":3998,"TYPE":100301,"CATEGORIE":1003},"geometry":{"type":"Point","coordinates":[-1.53658962887906,47.1958591605985]}},{"type":"Feature","properties":{"geo":{"name":"100 Station Abonnement Gréneraie"},"_l":[47.1999707101929,-1.5346071537874],"LIBTHEME":"DEPLACEMENT","CODE_POSTAL":44200,"WEB":"www.bicloo.nantesmetropole.fr","STATUT":null,"TELEPHONE":"01 30 79 33 44","THEME":10,"COMMUNE":"NANTES","LIBCATEGORIE":"Transport partagé","ADRESSE":"Côte Saint Sébastien","LIBTYPE":"Bicloo","_IDOBJ":3999,"TYPE":100301,"CATEGORIE":1003},"geometry":{"type":"Point","coordinates":[-1.5346071537874,47.1999707101929]}},{"type":"Feature","properties":{"geo":{"name":"96 Station Abonnement Tortière"},"_l":[47.2353448001876,-1.54947343741177],"LIBTHEME":"DEPLACEMENT","CODE_POSTAL":44000,"WEB":"www.bicloo.nantesmetropole.fr","STATUT":null,"TELEPHONE":"01 30 79 33 44","THEME":10,"COMMUNE":"NANTES","LIBCATEGORIE":"Transport partagé","ADRESSE":"Boulevard Eugène Orieux","LIBTYPE":"Bicloo","_IDOBJ":4000,"TYPE":100301,"CATEGORIE":1003},"geometry":{"type":"Point","coordinates":[-1.54947343741177,47.2353448001876]}},{"type":"Feature","properties":{"geo":{"name":"95 Station Abonnement Michelet"},"_l":[47.2350837066755,-1.55638870204855],"LIBTHEME":"DEPLACEMENT","CODE_POSTAL":44300,"WEB":"www.bicloo.nantesmetropole.fr","STATUT":null,"TELEPHONE":"01 30 79 33 44","THEME":10,"COMMUNE":"NANTES","LIBCATEGORIE":"Transport partagé","ADRESSE":"38 Boulevard Michelet","LIBTYPE":"Bicloo","_IDOBJ":4001,"TYPE":100301,"CATEGORIE":1003},"geometry":{"type":"Point","coordinates":[-1.55638870204855,47.2350837066755]}},{"type":"Feature","properties":{"geo":{"name":"94 Station Abonnement Petit Port"},"_l":[47.2432626440766,-1.55638098635507],"LIBTHEME":"DEPLACEMENT","CODE_POSTAL":44300,"WEB":"www.bicloo.nantesmetropole.fr","STATUT":null,"TELEPHONE":"01 30 79 33 44","THEME":10,"COMMUNE":"NANTES","LIBCATEGORIE":"Transport partagé","ADRESSE":"Place du Huit Mai 1945","LIBTYPE":"Bicloo","_IDOBJ":4002,"TYPE":100301,"CATEGORIE":1003},"geometry":{"type":"Point","coordinates":[-1.55638098635507,47.2432626440766]}},{"type":"Feature","properties":{"geo":{"name":"93 Station Abonnement Facultés"},"_l":[47.2463232883454,-1.5553383498054],"LIBTHEME":"DEPLACEMENT","CODE_POSTAL":44300,"WEB":"www.bicloo.nantesmetropole.fr","STATUT":null,"TELEPHONE":"01 30 79 33 44","THEME":10,"COMMUNE":"NANTES","LIBCATEGORIE":"Transport partagé","ADRESSE":"Boulevard Guy Mollet","LIBTYPE":"Bicloo","_IDOBJ":4003,"TYPE":100301,"CATEGORIE":1003},"geometry":{"type":"Point","coordinates":[-1.5553383498054,47.2463232883454]}},{"type":"Feature","properties":{"geo":{"name":"97 Station Accueil Saint-Donatien"},"_l":[47.2291287626691,-1.5404024174378],"LIBTHEME":"DEPLACEMENT","CODE_POSTAL":44000,"WEB":"www.bicloo.nantesmetropole.fr","STATUT":null,"TELEPHONE":"01 30 79 33 44","THEME":10,"COMMUNE":"NANTES","LIBCATEGORIE":"Transport partagé","ADRESSE":"69 Rue Général Buat","LIBTYPE":"Bicloo","_IDOBJ":4004,"TYPE":100301,"CATEGORIE":1003},"geometry":{"type":"Point","coordinates":[-1.5404024174378,47.2291287626691]}},{"type":"Feature","properties":{"geo":{"name":"98 Station Abonnement Huit Mai"},"_l":[47.1891485324905,-1.55093306486444],"LIBTHEME":"DEPLACEMENT","CODE_POSTAL":44400,"WEB":"www.bicloo.nantesmetropole.fr","STATUT":null,"TELEPHONE":"01 30 79 33 44","THEME":10,"COMMUNE":"REZE","LIBCATEGORIE":"Transport partagé","ADRESSE":"Avenue de la Libération","LIBTYPE":"Bicloo","_IDOBJ":4005,"TYPE":100301,"CATEGORIE":1003},"geometry":{"type":"Point","coordinates":[-1.55093306486444,47.1891485324905]}},{"type":"Feature","properties":{"geo":{"name":"Aire de covoiturage Piano'cktail"},"_l":[47.1743921106395,-1.60539271713277],"LIBTHEME":"DEPLACEMENT","CODE_POSTAL":44340,"WEB":"www.covoiturage-nantesmetropole.fr","STATUT":null,"TELEPHONE":"08 11 13 01 44","THEME":10,"COMMUNE":"BOUGUENAIS","LIBCATEGORIE":"Aire de covoiturage","ADRESSE":"Rue Ginsheim Gustavsburg","LIBTYPE":null,"_IDOBJ":4010,"TYPE":null,"CATEGORIE":1006},"geometry":{"type":"Point","coordinates":[-1.60539271713277,47.1743921106395]}},{"type":"Feature","properties":{"geo":{"name":"Aire de covoiturage Le Paradis"},"_l":[47.2058433058368,-1.751615681513],"LIBTHEME":"DEPLACEMENT","CODE_POSTAL":44220,"WEB":"www.covoiturage-nantesmetropole.fr","STATUT":null,"TELEPHONE":"08 11 13 01 44","THEME":10,"COMMUNE":"COUERON","LIBCATEGORIE":"Aire de covoiturage","ADRESSE":"RD 91","LIBTYPE":null,"_IDOBJ":4011,"TYPE":null,"CATEGORIE":1006},"geometry":{"type":"Point","coordinates":[-1.751615681513,47.2058433058368]}},{"type":"Feature","properties":{"geo":{"name":"Aire de covoiturage Le Vélodrôme"},"_l":[47.2114911474736,-1.73553587146421],"LIBTHEME":"DEPLACEMENT","CODE_POSTAL":44220,"WEB":"www.covoiturage-nantesmetropole.fr","STATUT":null,"TELEPHONE":"08 11 13 01 44","THEME":10,"COMMUNE":"COUERON","LIBCATEGORIE":"Aire de covoiturage","ADRESSE":"Boulevard Francois Blancho","LIBTYPE":null,"_IDOBJ":4012,"TYPE":null,"CATEGORIE":1006},"geometry":{"type":"Point","coordinates":[-1.73553587146421,47.2114911474736]}},{"type":"Feature","properties":{"geo":{"name":"Aire de covoiturage Les Ormeaux"},"_l":[47.1558857839796,-1.68247122952125],"LIBTHEME":"DEPLACEMENT","CODE_POSTAL":44830,"WEB":"www.covoiturage-nantesmetropole.fr","STATUT":null,"TELEPHONE":"08 11 13 01 44","THEME":10,"COMMUNE":"BOUAYE","LIBCATEGORIE":"Aire de covoiturage","ADRESSE":"Esplanade de l'Edit de Nantes","LIBTYPE":null,"_IDOBJ":4013,"TYPE":null,"CATEGORIE":1006},"geometry":{"type":"Point","coordinates":[-1.68247122952125,47.1558857839796]}},{"type":"Feature","properties":{"geo":{"name":"Aire de covoiturage Georges Brassens"},"_l":[47.1833082568459,-1.6759732987008],"LIBTHEME":"DEPLACEMENT","CODE_POSTAL":44620,"WEB":"www.covoiturage-nantesmetropole.fr","STATUT":null,"TELEPHONE":"08 11 13 01 44","THEME":10,"COMMUNE":"LA-MONTAGNE","LIBCATEGORIE":"Aire de covoiturage","ADRESSE":"Rue de la Gaudinière","LIBTYPE":null,"_IDOBJ":4014,"TYPE":null,"CATEGORIE":1006},"geometry":{"type":"Point","coordinates":[-1.6759732987008,47.1833082568459]}},{"type":"Feature","properties":{"geo":{"name":"Aire de covoiturage La Herdrie"},"_l":[47.1981364148521,-1.4545741556611],"LIBTHEME":"DEPLACEMENT","CODE_POSTAL":44115,"WEB":"www.covoiturage-nantesmetropole.fr","STATUT":null,"TELEPHONE":"08 11 13 01 44","THEME":10,"COMMUNE":"BASSE-GOULAINE","LIBCATEGORIE":"Aire de covoiturage","ADRESSE":"Route du Loroux Bottereau","LIBTYPE":null,"_IDOBJ":4015,"TYPE":null,"CATEGORIE":1006},"geometry":{"type":"Point","coordinates":[-1.4545741556611,47.1981364148521]}},{"type":"Feature","properties":{"geo":{"name":"Aire de covoiturage Pas Enchantés"},"_l":[47.2103889373405,-1.5039410584835],"LIBTHEME":"DEPLACEMENT","CODE_POSTAL":44230,"WEB":"www.covoiturage-nantesmetropole.fr","STATUT":null,"TELEPHONE":"08 11 13 01 44","THEME":10,"COMMUNE":"ST-SEBASTIEN","LIBCATEGORIE":"Aire de covoiturage","ADRESSE":"Boulevard des Pas Enchantés","LIBTYPE":null,"_IDOBJ":4016,"TYPE":null,"CATEGORIE":1006},"geometry":{"type":"Point","coordinates":[-1.5039410584835,47.2103889373405]}},{"type":"Feature","properties":{"geo":{"name":"Aire de covoiturage Les 3 Brasseurs"},"_l":[47.1909311959939,-1.48944982933608],"LIBTHEME":"DEPLACEMENT","CODE_POSTAL":44230,"WEB":"www.covoiturage-nantesmetropole.fr","STATUT":null,"TELEPHONE":"08 11 13 01 44","THEME":10,"COMMUNE":"ST-SEBASTIEN","LIBCATEGORIE":"Aire de covoiturage","ADRESSE":"Rue Marie Curie","LIBTYPE":null,"_IDOBJ":4017,"TYPE":null,"CATEGORIE":1006},"geometry":{"type":"Point","coordinates":[-1.48944982933608,47.1909311959939]}},{"type":"Feature","properties":{"geo":{"name":"Aire de covoiturage La Charmelière"},"_l":[47.2948276010662,-1.47381722266676],"LIBTHEME":"DEPLACEMENT","CODE_POSTAL":44470,"WEB":"www.covoiturage-nantesmetropole.fr","STATUT":null,"TELEPHONE":"08 11 13 01 44","THEME":10,"COMMUNE":"CARQUEFOU","LIBCATEGORIE":"Aire de covoiturage","ADRESSE":"RD 37","LIBTYPE":null,"_IDOBJ":4018,"TYPE":null,"CATEGORIE":1006},"geometry":{"type":"Point","coordinates":[-1.47381722266676,47.2948276010662]}},{"type":"Feature","properties":{"geo":{"name":"Aire de covoiturage La Croix de Mauves"},"_l":[47.3002260614374,-1.39840430261237],"LIBTHEME":"DEPLACEMENT","CODE_POSTAL":44470,"WEB":"www.covoiturage-nantesmetropole.fr","STATUT":null,"TELEPHONE":"08 11 13 01 44","THEME":10,"COMMUNE":"MAUVES-SUR-LOIRE","LIBCATEGORIE":"Aire de covoiturage","ADRESSE":"RD 31","LIBTYPE":null,"_IDOBJ":4019,"TYPE":null,"CATEGORIE":1006},"geometry":{"type":"Point","coordinates":[-1.39840430261237,47.3002260614374]}},{"type":"Feature","properties":{"geo":{"name":"Station Bretagne"},"_l":[47.2174899073883,-1.55963354318143],"LIBTHEME":"DEPLACEMENT","CODE_POSTAL":44000,"WEB":"www.imarguerite.com","STATUT":null,"TELEPHONE":"02 40 58 44 14","THEME":10,"COMMUNE":"NANTES","LIBCATEGORIE":"Transport partagé","ADRESSE":"Place de Bretagne","LIBTYPE":"Marguerite","_IDOBJ":4020,"TYPE":100302,"CATEGORIE":1003},"geometry":{"type":"Point","coordinates":[-1.55963354318143,47.2174899073883]}},{"type":"Feature","properties":{"geo":{"name":"Station 50 Otages"},"_l":[47.2184474307694,-1.55759693321303],"LIBTHEME":"DEPLACEMENT","CODE_POSTAL":44000,"WEB":"www.imarguerite.com","STATUT":null,"TELEPHONE":"02 40 58 44 14","THEME":10,"COMMUNE":"NANTES","LIBCATEGORIE":"Transport partagé","ADRESSE":"Rue Didienne","LIBTYPE":"Marguerite","_IDOBJ":4021,"TYPE":100302,"CATEGORIE":1003},"geometry":{"type":"Point","coordinates":[-1.55759693321303,47.2184474307694]}},{"type":"Feature","properties":{"geo":{"name":"Station Hôtel de Ville"},"_l":[47.2176490515034,-1.55407383358279],"LIBTHEME":"DEPLACEMENT","CODE_POSTAL":44000,"WEB":"www.imarguerite.com","STATUT":null,"TELEPHONE":"02 40 58 44 14","THEME":10,"COMMUNE":"NANTES","LIBCATEGORIE":"Transport partagé","ADRESSE":"Rue Fanny Peccot","LIBTYPE":"Marguerite","_IDOBJ":4022,"TYPE":100302,"CATEGORIE":1003},"geometry":{"type":"Point","coordinates":[-1.55407383358279,47.2176490515034]}},{"type":"Feature","properties":{"geo":{"name":"Station Aristide Briand"},"_l":[47.2172290515068,-1.5624656224159],"LIBTHEME":"DEPLACEMENT","CODE_POSTAL":44000,"WEB":"www.imarguerite.com","STATUT":null,"TELEPHONE":"02 40 58 44 14","THEME":10,"COMMUNE":"NANTES","LIBCATEGORIE":"Transport partagé","ADRESSE":"Place Aristide Briand","LIBTYPE":"Marguerite","_IDOBJ":4023,"TYPE":100302,"CATEGORIE":1003},"geometry":{"type":"Point","coordinates":[-1.5624656224159,47.2172290515068]}},{"type":"Feature","properties":{"geo":{"name":"Station Commerce"},"_l":[47.2123927720913,-1.55794606610268],"LIBTHEME":"DEPLACEMENT","CODE_POSTAL":44000,"WEB":"www.imarguerite.com","STATUT":null,"TELEPHONE":"02 40 58 44 14","THEME":10,"COMMUNE":"NANTES","LIBCATEGORIE":"Transport partagé","ADRESSE":"Place de la Petite Hollande","LIBTYPE":"Marguerite","_IDOBJ":4024,"TYPE":100302,"CATEGORIE":1003},"geometry":{"type":"Point","coordinates":[-1.55794606610268,47.2123927720913]}},{"type":"Feature","properties":{"geo":{"name":"Station Musée d'Histoire Naturelle"},"_l":[47.2124896929622,-1.56438071337637],"LIBTHEME":"DEPLACEMENT","CODE_POSTAL":44000,"WEB":"www.imarguerite.com","STATUT":null,"TELEPHONE":"02 40 58 44 14","THEME":10,"COMMUNE":"NANTES","LIBCATEGORIE":"Transport partagé","ADRESSE":"Rue Lesage","LIBTYPE":"Marguerite","_IDOBJ":4025,"TYPE":100302,"CATEGORIE":1003},"geometry":{"type":"Point","coordinates":[-1.56438071337637,47.2124896929622]}},{"type":"Feature","properties":{"geo":{"name":"Station Baco"},"_l":[47.2125436084857,-1.55292426920598],"LIBTHEME":"DEPLACEMENT","CODE_POSTAL":44000,"WEB":"www.imarguerite.com","STATUT":null,"TELEPHONE":"02 40 58 44 14","THEME":10,"COMMUNE":"NANTES","LIBCATEGORIE":"Transport partagé","ADRESSE":"Allée de la Maison Rouge","LIBTYPE":"Marguerite","_IDOBJ":4026,"TYPE":100302,"CATEGORIE":1003},"geometry":{"type":"Point","coordinates":[-1.55292426920598,47.2125436084857]}},{"type":"Feature","properties":{"geo":{"name":"Station CIO"},"_l":[47.211224204201,-1.54530733424582],"LIBTHEME":"DEPLACEMENT","CODE_POSTAL":44000,"WEB":"www.imarguerite.com","STATUT":null,"TELEPHONE":"02 40 58 44 14","THEME":10,"COMMUNE":"NANTES","LIBCATEGORIE":"Transport partagé","ADRESSE":"Rue de Mayence","LIBTYPE":"Marguerite","_IDOBJ":4027,"TYPE":100302,"CATEGORIE":1003},"geometry":{"type":"Point","coordinates":[-1.54530733424582,47.211224204201]}},{"type":"Feature","properties":{"geo":{"name":"Station Cité des Congrès"},"_l":[47.2132409347,-1.54452831608963],"LIBTHEME":"DEPLACEMENT","CODE_POSTAL":44000,"WEB":"www.imarguerite.com","STATUT":null,"TELEPHONE":"02 40 58 44 14","THEME":10,"COMMUNE":"NANTES","LIBCATEGORIE":"Transport partagé","ADRESSE":"Rue de Valmy","LIBTYPE":"Marguerite","_IDOBJ":4028,"TYPE":100302,"CATEGORIE":1003},