{"type":"FeatureCollection","features":[{"type":"Feature","properties":{"title":"Parking ouvrage Médiathèque","Code postal":44000,"Site Internet":"www.parkings-nantes.fr","Téléphone":"02 51 84 94 51","Adresse":"Rue Neuve des Capucins","Commune":"NANTES","icon":"parking"},"geometry":{"type":"Point","coordinates":[-1.5623381759623,47.2108708271003]}},{"type":"Feature","properties":{"title":"Gare SNCF de Doulon","Code postal":44300,"Site Internet":"www.gares-connexions.com","Téléphone":"36 35","Adresse":"Rue des Perrines","Commune":"NANTES","icon":"parking"},"geometry":{"type":"Point","coordinates":[-1.51724402726267,47.2285285048663]}},{"type":"Feature","properties":{"title":"Gare SNCF de Chantenay","Code postal":44100,"Site Internet":"www.gares-connexions.com","Téléphone":"36 35","Adresse":"Rue de la Gare de Chantenay","Commune":"NANTES","icon":"parking"},"geometry":{"type":"Point","coordinates":[-1.59435499316903,47.1972022454039]}},{"type":"Feature","properties":{"title":"Parking ouvrage Gare Nord","Code postal":44000,"Site Internet":"www.resaplace.com","Téléphone":"08 25 88 88 26","Adresse":"Cours John Kennedy","Commune":"NANTES","icon":"parking"},"geometry":{"type":"Point","coordinates":[-1.54498433411572,47.2166890401729]}},{"type":"Feature","properties":{"title":"Gare SNCF de Nantes Nord - Direction régionale","Code postal":44000,"Site Internet":"www.gares-connexions.com","Téléphone":"36 35","Adresse":"Boulevard de Stalingrad","Commune":"NANTES","icon":"parking"},"geometry":{"type":"Point","coordinates":[-1.54205106482655,47.2174911129885]}},{"type":"Feature","properties":{"title":"Gare Fluviale Bateaux Nantais","Code postal":44000,"Site Internet":"www.bateaux-nantais.fr","Téléphone":"02 40 14 51 14","Adresse":"15 Place Waldeck Rousseau","Commune":"NANTES","icon":"parking"},"geometry":{"type":"Point","coordinates":[-1.5516367391695,47.2279684766427]}},{"type":"Feature","properties":{"title":"Parking ouvrage Decré-Bouffay","Code postal":44000,"Site Internet":"www.parkings-nantes.fr","Téléphone":"02 51 84 94 51","Adresse":"18 Rue du Moulin","Commune":"NANTES","icon":"parking"},"geometry":{"type":"Point","coordinates":[-1.55400463227177,47.2166626199643]}},{"type":"Feature","properties":{"title":"Parking ouvrage Graslin","Code postal":44000,"Site Internet":"www.parkings-nantes.fr","Téléphone":"02 51 84 94 51","Adresse":"Rue Scribe","Commune":"NANTES","icon":"parking"},"geometry":{"type":"Point","coordinates":[-1.56257181621741,47.2143102105068]}},{"type":"Feature","properties":{"title":"Parking ouvrage Tour Bretagne","Code postal":44000,"Site Internet":"www.parkings-nantes.fr","Téléphone":"02 51 84 94 51","Adresse":"4 Place de Bretagne","Commune":"NANTES","icon":"parking"},"geometry":{"type":"Point","coordinates":[-1.55825001902681,47.2178428948398]}},{"type":"Feature","properties":{"title":"Gare Routière Baco Eurolines","Code postal":44000,"Site Internet":"www.eurolines.fr","Téléphone":"08 92 89 90 91","Adresse":"Allée de la Maison Rouge","Commune":"NANTES","icon":"parking"},"geometry":{"type":"Point","coordinates":[-1.55276077185068,47.2127402501474]}},{"type":"Feature","properties":{"title":"Parking ouvrage Commerce","Code postal":44000,"Site Internet":"www.parkings-nantes.fr","Téléphone":"02 51 84 94 51","Adresse":"Place du Commerce","Commune":"NANTES","icon":"parking"},"geometry":{"type":"Point","coordinates":[-1.55771321969051,47.2131202858024]}},{"type":"Feature","properties":{"title":"Gare SNCF de Nantes Sud","Code postal":44000,"Site Internet":"www.gares-connexions.com","Téléphone":"36 35","Adresse":"2 Rue de Lourmel","Commune":"NANTES","icon":"parking"},"geometry":{"type":"Point","coordinates":[-1.54155846026517,47.216448854427]}},{"type":"Feature","properties":{"title":"Parking ouvrage Aristide Briand","Code postal":44000,"Site Internet":"www.vincipark.com","Téléphone":"08 10 26 30 00","Adresse":"Place Aristide Briand","Commune":"NANTES","icon":"parking"},"geometry":{"type":"Point","coordinates":[-1.56293641808053,47.2170936048579]}},{"type":"Feature","properties":{"title":"Parking ouvrage Cité des Congrès","Code postal":44000,"Site Internet":"www.parkings-nantes.fr","Téléphone":"02 51 84 94 51","Adresse":"Avenue Jean Claude Bonduelle","Commune":"NANTES","icon":"parking"},"geometry":{"type":"Point","coordinates":[-1.54397127716684,47.2129016709023]}},{"type":"Feature","properties":{"title":"Parking ouvrage Gare Sud 1","Code postal":44000,"Site Internet":"www.resaplace.com","Téléphone":"08 25 88 88 26","Adresse":"Rue de Lourmel","Commune":"NANTES","icon":"parking"},"geometry":{"type":"Point","coordinates":[-1.54103682846398,47.2161496359544]}},{"type":"Feature","properties":{"title":"Parking ouvrage Talensac","Code postal":44000,"Site Internet":"www.parkings-nantes.fr","Téléphone":"02 51 84 94 51","Adresse":"Rue Le Nôtre","Commune":"NANTES","icon":"parking"},"geometry":{"type":"Point","coordinates":[-1.55835729990237,47.2202559810468]}},{"type":"Feature","properties":{"title":"Parc relais tramway Recteur Schmitt 1","Code postal":44300,"Site Internet":"www.tan.fr","Téléphone":"02 40 44 44 44","Adresse":"Rue Recteur Schmitt","Commune":"NANTES","icon":"parking"},"geometry":{"type":"Point","coordinates":[-1.55290310437924,47.2517352538688]}},{"type":"Feature","properties":{"title":"Capitainerie du Port Atlantique Nantes Saint Nazaire","Code postal":44100,"Site Internet":"www.nantes.port.fr","Téléphone":"02 40 44 20 53","Adresse":"Quai Ernest Renaud","Commune":"NANTES","icon":"parking"},"geometry":{"type":"Point","coordinates":[-1.57398139134178,47.2054007823477]}},{"type":"Feature","properties":{"title":"Port Autonome de Nantes Saint Nazaire","Code postal":44100,"Site Internet":"www.nantes.port.fr","Téléphone":"02 40 44 20 20","Adresse":"18 Quai Ernest Renaud","Commune":"NANTES","icon":"parking"},"geometry":{"type":"Point","coordinates":[-1.57471135472788,47.2055111148953]}},{"type":"Feature","properties":{"title":"Port de l'Erdre","Code postal":44000,"Site Internet":"www.nge-nantes.fr","Téléphone":"02 40 37 04 62","Adresse":"Quai de Versailles","Commune":"NANTES","icon":"parking"},"geometry":{"type":"Point","coordinates":[-1.55372459801084,47.2252035773148]}},{"type":"Feature","properties":{"title":"Service Maritime et Navigation Ecluse Saint Félix","Code postal":44000,"Site Internet":"www.equipement.gouv.fr","Téléphone":"02 40 71 02 19","Adresse":"Quai Ferdinand Favre","Commune":"NANTES","icon":"parking"},"geometry":{"type":"Point","coordinates":[-1.54089899952201,47.2125286072856]}},{"type":"Feature","properties":{"title":"Gare SNCF de Basse Indre St-Herblain","Code postal":44800,"Site Internet":"www.gares-connexions.com","Téléphone":"36 35","Adresse":"Rue de la Gare","Commune":"ST-HERBLAIN","icon":"parking"},"geometry":{"type":"Point","coordinates":[-1.66031284128023,47.2040832390443]}},{"type":"Feature","properties":{"title":"Aéroport Nantes Atlantique","Code postal":44340,"Site Internet":"www.nantes.aeroport.fr","Téléphone":"02 40 84 80 00","Adresse":"Rue Clément Ader","Commune":"BOUGUENAIS","icon":"parking"},"geometry":{"type":"Point","coordinates":[-1.60178206983725,47.1575191481928]}},{"type":"Feature","properties":{"title":"Bacs de Loire entre Basse-Indre et Indret","Code postal":44610,"Site Internet":"www.loire-atlantique.fr","Téléphone":"02 40 86 01 29","Adresse":"Quai Besnard","Commune":"INDRE","icon":"parking"},"geometry":{"type":"Point","coordinates":[-1.67361043471387,47.1974591309304]}},{"type":"Feature","properties":{"title":"Gare SNCF de Bouaye","Code postal":44830,"Site Internet":"www.ter-sncf.com","Téléphone":"36 35","Adresse":"Allée Louis Armand","Commune":"BOUAYE","icon":"parking"},"geometry":{"type":"Point","coordinates":[-1.68110358820185,47.1380452446435]}},{"type":"Feature","properties":{"title":"Gare SNCF de Couëron","Code postal":44220,"Site Internet":"www.gares-connexions.com","Téléphone":"36 35","Adresse":"Rue de la Gare","Commune":"COUERON","icon":"parking"},"geometry":{"type":"Point","coordinates":[-1.72359939991892,47.2219441875147]}},{"type":"Feature","properties":{"title":"Bacs de Loire entre Couëron et Le Pellerin","Code postal":44220,"Site Internet":"www.loire-atlantique.fr","Téléphone":"02 40 86 01 29","Adresse":"RD 91","Commune":"COUERON","icon":"parking"},"geometry":{"type":"Point","coordinates":[-1.75212411426107,47.2059462443778]}},{"type":"Feature","properties":{"title":"Gare SNCF de Rezé Pont-Rousseau","Code postal":44400,"Site Internet":"www.gares-connexions.com","Téléphone":"36 35","Adresse":"Rue de la Gare","Commune":"REZE","icon":"parking"},"geometry":{"type":"Point","coordinates":[-1.54939210542755,47.193331595479]}},{"type":"Feature","properties":{"title":"Gare SNCF de Thouaré-sur-Loire","Code postal":44470,"Site Internet":"www.gares-connexions.com","Téléphone":"36 35","Adresse":"Place de la République","Commune":"THOUARE-SUR-LOIRE","icon":"parking"},"geometry":{"type":"Point","coordinates":[-1.44096386071447,47.2651201184653]}},{"type":"Feature","properties":{"title":"Gare SNCF de Mauves-sur-Loire","Code postal":44470,"Site Internet":"www.voyages-sncf.com","Téléphone":"36 35","Adresse":"2 Place de la Gare","Commune":"MAUVES-SUR-LOIRE","icon":"parking"},"geometry":{"type":"Point","coordinates":[-1.38930347898703,47.2930081697889]}},{"type":"Feature","properties":{"title":"Gare SNCF de Vertou","Code postal":44120,"Site Internet":"www.gares-connexions.com","Téléphone":"36 35","Adresse":"Impasse de la Gare","Commune":"VERTOU","icon":"parking"},"geometry":{"type":"Point","coordinates":[-1.47803194855925,47.1861434794643]}},{"type":"Feature","properties":{"title":"Port de Trentemoult","Code postal":44400,"Site Internet":"www.nge-nantes.fr","Téléphone":"02 51 84 94 51","Adresse":"Allée Claude Choëmet","Commune":"REZE","icon":"parking"},"geometry":{"type":"Point","coordinates":[-1.57837788591499,47.1955772998858]}},{"type":"Feature","properties":{"title":"Port de Couëron","Code postal":44220,"Site Internet":"www.nge-nantes.fr","Téléphone":"02 51 84 94 51","Adresse":"Quai Gambetta","Commune":"COUERON","icon":"parking"},"geometry":{"type":"Point","coordinates":[-1.72995922379383,47.2091256884984]}},{"type":"Feature","properties":{"title":"Parc relais tramway Frachon","Code postal":44800,"Site Internet":"www.tan.fr","Téléphone":"02 40 44 44 44","Adresse":"Boulevard Salvador Allende","Commune":"ST-HERBLAIN","icon":"parking"},"geometry":{"type":"Point","coordinates":[-1.62163336178234,47.2186961365515]}},{"type":"Feature","properties":{"title":"Parc relais tramway Le Cardo","Code postal":44700,"Site Internet":"www.tan.fr","Téléphone":"02 40 44 44 44","Adresse":"Esplanade du Cardo","Commune":"ORVAULT","icon":"parking"},"geometry":{"type":"Point","coordinates":[-1.58451198079141,47.2625020936155]}},{"type":"Feature","properties":{"title":"Parc relais tramway François Mitterrand","Code postal":44800,"Site Internet":"www.tan.fr","Téléphone":"02 40 44 44 44","Adresse":"Rue Virginia Woolf","Commune":"ST-HERBLAIN","icon":"parking"},"geometry":{"type":"Point","coordinates":[-1.63948414305523,47.22170620087]}},{"type":"Feature","properties":{"title":"Parc relais tramway Recteur Schmitt 2","Code postal":44300,"Site Internet":"www.tan.fr","Téléphone":"02 40 44 44 44","Adresse":"Rue Recteur Schmitt","Commune":"NANTES","icon":"parking"},"geometry":{"type":"Point","coordinates":[-1.55247038464754,47.2520277017386]}},{"type":"Feature","properties":{"title":"Parc relais tramway La Beaujoire","Code postal":44300,"Site Internet":"www.tan.fr","Téléphone":"02 40 44 44 44","Adresse":"Rue Colette","Commune":"NANTES","icon":"parking"},"geometry":{"type":"Point","coordinates":[-1.52739847057661,47.2594833036504]}},{"type":"Feature","properties":{"title":"Parc relais tramway 8 Mai","Code postal":44400,"Site Internet":"www.tan.fr","Téléphone":"02 40 44 44 44","Adresse":"Avenue André Malraux","Commune":"REZE","icon":"parking"},"geometry":{"type":"Point","coordinates":[-1.55143945054574,47.1900337520995]}},{"type":"Feature","properties":{"title":"Parc relais tramway Trocardière","Code postal":44400,"Site Internet":"www.tan.fr","Téléphone":"02 40 44 44 44","Adresse":"Avenue Léon Blum","Commune":"REZE","icon":"parking"},"geometry":{"type":"Point","coordinates":[-1.57109558940531,47.1832927458839]}},{"type":"Feature","properties":{"title":"Parc relais tramway René Cassin","Code postal":44300,"Site Internet":"www.tan.fr","Téléphone":"02 40 44 44 44","Adresse":"Route de la Chapelle Sur Erdre","Commune":"NANTES","icon":"parking"},"geometry":{"type":"Point","coordinates":[-1.57499790750312,47.2639509260101]}},{"type":"Feature","properties":{"title":"Parc relais tramway Pirmil","Code postal":44200,"Site Internet":"www.tan.fr","Téléphone":"02 40 44 44 44","Adresse":"Rue Esnoult des Châtelets","Commune":"NANTES","icon":"parking"},"geometry":{"type":"Point","coordinates":[-1.54153359455402,47.1973586776381]}},{"type":"Feature","properties":{"title":"Parc relais tramway Goudy","Code postal":44200,"Site Internet":"www.tan.fr","Téléphone":"02 40 44 44 44","Adresse":"Rue Gabriel Goudy","Commune":"NANTES","icon":"parking"},"geometry":{"type":"Point","coordinates":[-1.5410477469437,47.1960989467374]}},{"type":"Feature","properties":{"title":"Parc relais TER Frêne Rond","Code postal":44230,"Site Internet":"www.tan.fr","Téléphone":"02 40 44 44 44","Adresse":"Rue de l'Ouche Quinet","Commune":"ST-SEBASTIEN","icon":"parking"},"geometry":{"type":"Point","coordinates":[-1.49618578979617,47.1906228420922]}},{"type":"Feature","properties":{"title":"Parc relais TER Gare de Vertou Nord","Code postal":44120,"Site Internet":"www.tan.fr","Téléphone":"02 40 44 44 44","Adresse":"Impasse de la Gare","Commune":"VERTOU","icon":"parking"},"geometry":{"type":"Point","coordinates":[-1.47916185458301,47.1864023763705]}},{"type":"Feature","properties":{"title":"Parc relais TER Gare de Vertou Sud","Code postal":44120,"Site Internet":"www.tan.fr","Téléphone":"02 40 44 44 44","Adresse":"Rue du Bois Rigaud","Commune":"VERTOU","icon":"parking"},"geometry":{"type":"Point","coordinates":[-1.4785719721858,47.1856830197378]}},{"type":"Feature","properties":{"title":"Parc relais tramway Plaisance","Code postal":44800,"Site Internet":"www.tan.fr","Téléphone":"02 40 44 44 44","Adresse":"Route de Vannes","Commune":"ST-HERBLAIN","icon":"parking"},"geometry":{"type":"Point","coordinates":[-1.59344052396589,47.2405326620207]}},{"type":"Feature","properties":{"title":"Gare SNCF de St-Sébastien Frêne Rond","Code postal":44230,"Site Internet":"www.gares-connexions.com","Téléphone":"36 35","Adresse":"Rue de l'Ouche Quinet","Commune":"ST-SEBASTIEN","icon":"parking"},"geometry":{"type":"Point","coordinates":[-1.4958313646506,47.1906163481095]}},{"type":"Feature","properties":{"title":"Parc en enclos Gloriette 1","Code postal":44000,"Site Internet":"www.parkings-nantes.fr","Téléphone":"02 51 84 94 51","Adresse":"Allée de l'Ile Gloriette","Commune":"NANTES","icon":"parking"},"geometry":{"type":"Point","coordinates":[-1.55843872950464,47.2111796553233]}},{"type":"Feature","properties":{"title":"Parc en enclos Hôtel Dieu","Code postal":44000,"Site Internet":"www.parkings-nantes.fr","Téléphone":"02 51 84 94 51","Adresse":"Chaussée de la Madeleine","Commune":"NANTES","icon":"parking"},"geometry":{"type":"Point","coordinates":[-1.55198311230427,47.2110570860299]}},{"type":"Feature","properties":{"title":"Parc en enclos Baco-LU 2 côté CHU","Code postal":44000,"Site Internet":"www.parkings-nantes.fr","Téléphone":"02 51 84 94 51","Adresse":"Allée Baco","Commune":"NANTES","icon":"parking"},"geometry":{"type":"Point","coordinates":[-1.55160425745185,47.2131509800273]}},{"type":"Feature","properties":{"title":"Parc relais TER Gare des Pas Enchantés","Code postal":44230,"Site Internet":"www.tan.fr","Téléphone":"02 40 44 44 44","Adresse":"Rue de la Loire","Commune":"ST-SEBASTIEN","icon":"parking"},"geometry":{"type":"Point","coordinates":[-1.51299644307533,47.2082290545652]}},{"type":"Feature","properties":{"title":"Gare SNCF de St-Sébastien Pas Enchantés","Code postal":44230,"Site Internet":"www.gares-connexions.com","Téléphone":"36 35","Adresse":"Rue du Docteur Paul Michaux","Commune":"ST-SEBASTIEN","icon":"parking"},"geometry":{"type":"Point","coordinates":[-1.51111306351385,47.2070087740385]}},{"type":"Feature","properties":{"title":"Parc en enclos Château","Code postal":44000,"Site Internet":"www.parkings-nantes.fr","Téléphone":"02 51 84 94 51","Adresse":"Rue Henri IV","Commune":"NANTES","icon":"parking"},"geometry":{"type":"Point","coordinates":[-1.54785044968527,47.2169899609793]}},{"type":"Feature","properties":{"title":"Parc en enclos Gare Sud 3","Code postal":44000,"Site Internet":"www.resaplace.com","Téléphone":"08 25 88 88 26","Adresse":"Rue Marcel Paul","Commune":"NANTES","icon":"parking"},"geometry":{"type":"Point","coordinates":[-1.53789482834948,47.216135859474]}},{"type":"Feature","properties":{"title":"Parc en enclos Les Fonderies","Code postal":44200,"Site Internet":null,"Téléphone":null,"Adresse":"Rue de la Porte Gellée","Commune":"NANTES","icon":"parking"},"geometry":{"type":"Point","coordinates":[-1.54433295436521,47.2049704647258]}},{"type":"Feature","properties":{"title":"Parc relais TER Gare de Couëron","Code postal":44220,"Site Internet":"www.tan.fr","Téléphone":"02 40 44 44 44","Adresse":"Rue de la Gare","Commune":"COUERON","icon":"parking"},"geometry":{"type":"Point","coordinates":[-1.72363750160792,47.2217771934083]}},{"type":"Feature","properties":{"title":"Parc relais tramway Neustrie 2","Code postal":44340,"Site Internet":"www.tan.fr","Téléphone":"02 40 44 44 44","Adresse":"Rue de la Neustrie","Commune":"BOUGUENAIS","icon":"parking"},"geometry":{"type":"Point","coordinates":[-1.59339969648243,47.176672451111]}},{"type":"Feature","properties":{"title":"Parc relais navibus Trentemoult-Roquios","Code postal":44400,"Site Internet":"www.tan.fr","Téléphone":"02 40 44 44 44","Adresse":"Quai Surcouf","Commune":"REZE","icon":"parking"},"geometry":{"type":"Point","coordinates":[-1.57778393206355,47.1952525112789]}},{"type":"Feature","properties":{"title":"Parc relais TER Gare de Basse-Indre Saint-Herblain","Code postal":44800,"Site Internet":"www.tan.fr","Téléphone":"02 40 44 44 44","Adresse":"Rue de la Gare","Commune":"ST-HERBLAIN","icon":"parking"},"geometry":{"type":"Point","coordinates":[-1.66103809646199,47.2041579741319]}},{"type":"Feature","properties":{"title":"Parc relais tramway Neustrie 1","Code postal":44340,"Site Internet":"www.tan.fr","Téléphone":"02 40 44 44 44","Adresse":"Chemin de la Neustrie","Commune":"BOUGUENAIS","icon":"parking"},"geometry":{"type":"Point","coordinates":[-1.59309648041537,47.1754532342509]}},{"type":"Feature","properties":{"title":"Parc Relais TER de Thouaré-sur_Loire","Code postal":44470,"Site Internet":"www.tan.fr","Téléphone":"02 40 44 44 44","Adresse":"Rue des Ponts","Commune":"THOUARE-SUR-LOIRE","icon":"parking"},"geometry":{"type":"Point","coordinates":[-1.4413893536783,47.2647119908848]}},{"type":"Feature","properties":{"title":"Parc relais TER Gare de Mauves-sur-Loire","Code postal":44470,"Site Internet":"www.tan.fr","Téléphone":"02 40 44 44 44","Adresse":"2 Place de la Gare","Commune":"MAUVES-SUR-LOIRE","icon":"parking"},"geometry":{"type":"Point","coordinates":[-1.388904886686,47.2932583339329]}},{"type":"Feature","properties":{"title":"Parc relais TER Gare de Bouaye","Code postal":44830,"Site Internet":"www.tan.fr","Téléphone":"02 40 44 44 44","Adresse":"Allée Louis Armand","Commune":"BOUAYE","icon":"parking"},"geometry":{"type":"Point","coordinates":[-1.68257543659362,47.1383223686803]}},{"type":"Feature","properties":{"title":"Parc relais navibus Trentemoult-Dépôt","Code postal":44400,"Site Internet":"www.tan.fr","Téléphone":"02 40 44 44 44","Adresse":"Rue Ordronneau","Commune":"REZE","icon":"parking"},"geometry":{"type":"Point","coordinates":[-1.58068768637466,47.1919649895095]}},{"type":"Feature","properties":{"title":"Parc relais tramway Morlière Paquelais","Code postal":44700,"Site Internet":"www.tan.fr","Téléphone":"02 40 44 44 44","Adresse":"Avenue de la Paquelais","Commune":"ORVAULT","icon":"parking"},"geometry":{"type":"Point","coordinates":[-1.60283874722482,47.2478235218625]}},{"type":"Feature","properties":{"title":"Parc relais tramway Orvault Morlière","Code postal":44700,"Site Internet":"www.tan.fr","Téléphone":"02 40 44 44 44","Adresse":"Avenue de la Morlière","Commune":"ORVAULT","icon":"parking"},"geometry":{"type":"Point","coordinates":[-1.60304946676259,47.2467766477065]}},{"type":"Feature","properties":{"title":"Parc relais tramway Beauséjour","Code postal":44100,"Site Internet":"www.tan.fr","Téléphone":"02 40 44 44 44","Adresse":"Route de Vannes","Commune":"NANTES","icon":"parking"},"geometry":{"type":"Point","coordinates":[-1.5873437488368,47.2384135213971]}},{"type":"Feature","properties":{"title":"Parc en enclos Gare Sud 2","Code postal":44000,"Site Internet":"www.resaplace.com","Téléphone":"08 25 88 88 26","Adresse":"Quai Malakoff","Commune":"NANTES","icon":"parking"},"geometry":{"type":"Point","coordinates":[-1.54134337584288,47.2142340366163]}},{"type":"Feature","properties":{"title":"Parc en enclos Gare Sud 2 limité 1h","Code postal":44000,"Site Internet":"www.resaplace.com","Téléphone":"08 25 88 88 26","Adresse":"Quai Malakoff","Commune":"NANTES","icon":"parking"},"geometry":{"type":"Point","coordinates":[-1.54267513884661,47.2152021232956]}},{"type":"Feature","properties":{"title":"Parc relais busway Porte de Vertou","Code postal":44120,"Site Internet":"www.tan.fr","Téléphone":"02 40 44 44 44","Adresse":"Boulevard Auguste Priou","Commune":"VERTOU","icon":"parking"},"geometry":{"type":"Point","coordinates":[-1.50516017764927,47.1801752959869]}},{"type":"Feature","properties":{"title":"Parc relais busway Gréneraie","Code postal":44200,"Site Internet":"www.tan.fr","Téléphone":"02 40 44 44 44","Adresse":"Route de Saint Sébastien","Commune":"NANTES","icon":"parking"},"geometry":{"type":"Point","coordinates":[-1.53333362324729,47.2001390392692]}},{"type":"Feature","properties":{"title":"Parc relais busway Bourdonnières 1","Code postal":44200,"Site Internet":"www.tan.fr","Téléphone":"02 40 44 44 44","Adresse":"Boulevard de Vendée","Commune":"NANTES","icon":"parking"},"geometry":{"type":"Point","coordinates":[-1.52115429456528,47.186255590967]}},{"type":"Feature","properties":{"title":"Parc relais busway Chapeau Verni","Code postal":44230,"Site Internet":"www.tan.fr","Téléphone":"02 40 44 44 44","Adresse":"Route de Clisson","Commune":"ST-SEBASTIEN","icon":"parking"},"geometry":{"type":"Point","coordinates":[-1.51151075562911,47.1894575221521]}},{"type":"Feature","properties":{"title":"Parc relais TER Gare de Pont-Rousseau","Code postal":44400,"Site Internet":"www.tan.fr","Téléphone":"02 40 44 44 44","Adresse":"Avenue de la Libération","Commune":"REZE","icon":"parking"},"geometry":{"type":"Point","coordinates":[-1.54828253376638,47.1925010229049]}},{"type":"Feature","properties":{"title":"Parc relais tramway Bignon","Code postal":44700,"Site Internet":"www.tan.fr","Téléphone":"02 40 44 44 44","Adresse":"Rue des Verts Prés","Commune":"ORVAULT","icon":"parking"},"geometry":{"type":"Point","coordinates":[-1.59820022515513,47.2489752466115]}},{"type":"Feature","properties":{"title":"Parc en enclos Bellamy","Code postal":44000,"Site Internet":"www.parkings-nantes.fr","Téléphone":"02 51 84 94 51","Adresse":"Impasse de la Courtine","Commune":"NANTES","icon":"parking"},"geometry":{"type":"Point","coordinates":[-1.55769369256355,47.2223604161017]}},{"type":"Feature","properties":{"title":"Parc en enclos CHU","Code postal":44000,"Site Internet":"www.parkings-nantes.fr","Téléphone":"02 51 84 94 51","Adresse":"Quai de Tourville","Commune":"NANTES","icon":"parking"},"geometry":{"type":"Point","coordinates":[-1.55725023399242,47.2093619715999]}},{"type":"Feature","properties":{"title":"Parking ouvrage Cathédrale","Code postal":44000,"Site Internet":"www.parkings-nantes.fr","Téléphone":"02 51 84 94 51","Adresse":"Rue Sully","Commune":"NANTES","icon":"parking"},"geometry":{"type":"Point","coordinates":[-1.55105616832611,47.2208133510721]}},{"type":"Feature","properties":{"title":"Parc relais busway Maraîchers","Code postal":44120,"Site Internet":"www.tan.fr","Téléphone":"02 40 44 44 44","Adresse":"Rue de la Grand' Maison","Commune":"VERTOU","icon":"parking"},"geometry":{"type":"Point","coordinates":[-1.51067420037066,47.1851690235263]}},{"type":"Feature","properties":{"title":"1 Station Abonnement Préfecture","Code postal":44000,"Site Internet":"www.bicloo.nantesmetropole.fr","Téléphone":"01 30 79 33 44","Adresse":"5 Quai Ceineray","Commune":"NANTES","icon":"parking"},"geometry":{"type":"Point","coordinates":[-1.55417604861584,47.2201950669957]}},{"type":"Feature","properties":{"title":"2 Station Accueil Hôtel de Ville","Code postal":44000,"Site Internet":"www.bicloo.nantesmetropole.fr","Téléphone":"01 30 79 33 44","Adresse":"29 Rue de Strasbourg","Commune":"NANTES","icon":"parking"},"geometry":{"type":"Point","coordinates":[-1.55354426853678,47.2185640015645]}},{"type":"Feature","properties":{"title":"3 Station Accueil Strasbourg","Code postal":44000,"Site Internet":"www.bicloo.nantesmetropole.fr","Téléphone":"01 30 79 33 44","Adresse":"Place Tirant Lo Blanc","Commune":"NANTES","icon":"parking"},"geometry":{"type":"Point","coordinates":[-1.55161756498412,47.216532854728]}},{"type":"Feature","properties":{"title":"4 Station Accueil Moulin","Code postal":44000,"Site Internet":"www.bicloo.nantesmetropole.fr","Téléphone":"01 30 79 33 44","Adresse":"18 Rue du Moulin","Commune":"NANTES","icon":"parking"},"geometry":{"type":"Point","coordinates":[-1.55442584710721,47.2166468712003]}},{"type":"Feature","properties":{"title":"5 Station Accueil Brossard","Code postal":44000,"Site Internet":"www.bicloo.nantesmetropole.fr","Téléphone":"01 30 79 33 44","Adresse":"12 Allée Duquesne","Commune":"NANTES","icon":"parking"},"geometry":{"type":"Point","coordinates":[-1.5563270902907,47.2188225831247]}},{"type":"Feature","properties":{"title":"6 Station Abonnement Place du Cirque","Code postal":44000,"Site Internet":"www.bicloo.nantesmetropole.fr","Téléphone":"01 30 79 33 44","Adresse":"7 Allée Duquesne","Commune":"NANTES","icon":"parking"},"geometry":{"type":"Point","coordinates":[-1.55686962933674,47.2176522877325]}},{"type":"Feature","properties":{"title":"7 Station Accueil Barillerie","Code postal":44000,"Site Internet":"www.bicloo.nantesmetropole.fr","Téléphone":"01 30 79 33 44","Adresse":"2 Allée Penthiévre","Commune":"NANTES","icon":"parking"},"geometry":{"type":"Point","coordinates":[-1.5561003799956,47.2154096299385]}},{"type":"Feature","properties":{"title":"8 Station Abonnement Boucherie","Code postal":44000,"Site Internet":"www.bicloo.nantesmetropole.fr","Téléphone":"01 30 79 33 44","Adresse":"Rue de la Boucherie","Commune":"NANTES","icon":"parking"},"geometry":{"type":"Point","coordinates":[-1.55709068678671,47.2162081426351]}},{"type":"Feature","properties":{"title":"9 Station Accueil Guépin","Code postal":44000,"Site Internet":"www.bicloo.nantesmetropole.fr","Téléphone":"01 30 79 33 44","Adresse":"2 Rue du Calvaire","Commune":"NANTES","icon":"parking"},"geometry":{"type":"Point","coordinates":[-1.55915573787153,47.2158294340716]}},{"type":"Feature","properties":{"title":"11 Station Accueil Calvaire","Code postal":44000,"Site Internet":"www.bicloo.nantesmetropole.fr","Téléphone":"01 30 79 33 44","Adresse":"Place des Volontaires de la Défense Passive","Commune":"NANTES","icon":"parking"},"geometry":{"type":"Point","coordinates":[-1.56060630687651,47.2155991819633]}},{"type":"Feature","properties":{"title":"12 Station Abonnement et Bonus Place Delorme","Code postal":44000,"Site Internet":"www.bicloo.nantesmetropole.fr","Téléphone":"01 30 79 33 44","Adresse":"Boulevard Gabriel Guist'Hau","Commune":"NANTES","icon":"parking"},"geometry":{"type":"Point","coordinates":[-1.56396356682832,47.2151581344299]}},{"type":"Feature","properties":{"title":"13 Station Abonnement et Bonus Bretagne Sud","Code postal":44000,"Site Internet":"www.bicloo.nantesmetropole.fr","Téléphone":"01 30 79 33 44","Adresse":"1 Rue Pierre Chéreau","Commune":"NANTES","icon":"parking"},"geometry":{"type":"Point","coordinates":[-1.55915731787571,47.2167500594478]}},{"type":"Feature","properties":{"title":"14 Station Accueil Saint-Félix","Code postal":44000,"Site Internet":"www.bicloo.nantesmetropole.fr","Téléphone":"01 30 79 33 44","Adresse":"Boulevard Amiral Courbet","Commune":"NANTES","icon":"parking"},"geometry":{"type":"Point","coordinates":[-1.55623411620874,47.2306076047205]}},{"type":"Feature","properties":{"title":"15 Station Accueil Place Aristide Briand","Code postal":44000,"Site Internet":"www.bicloo.nantesmetropole.fr","Téléphone":"01 30 79 33 44","Adresse":"Place Aristide Briand","Commune":"NANTES","icon":"parking"},"geometry":{"type":"Point","coordinates":[-1.56300550348212,47.2171962876433]}},{"type":"Feature","properties":{"title":"16 Station Accueil Place Edouard Normand","Code postal":44000,"Site Internet":"www.bicloo.nantesmetropole.fr","Téléphone":"01 30 79 33 44","Adresse":"Place Edouard Normand","Commune":"NANTES","icon":"parking"},"geometry":{"type":"Point","coordinates":[-1.56349473337675,47.2190280325433]}},{"type":"Feature","properties":{"title":"17 Station Accueil Sainte Elisabeth","Code postal":44000,"Site Internet":"www.bicloo.nantesmetropole.fr","Téléphone":"01 30 79 33 44","Adresse":"3 Place Sainte Elisabeth","Commune":"NANTES","icon":"parking"},"geometry":{"type":"Point","coordinates":[-1.56158876841816,47.219225442242]}},{"type":"Feature","properties":{"title":"18 Station Abonnement et Bonus Place Viarme","Code postal":44000,"Site Internet":"www.bicloo.nantesmetropole.fr","Téléphone":"01 30 79 33 44","Adresse":"23 Place Viarme","Commune":"NANTES","icon":"parking"},"geometry":{"type":"Point","coordinates":[-1.56332698114374,47.2214408780072]}},{"type":"Feature","properties":{"title":"19 Station Accueil Saint Similien","Code postal":44000,"Site Internet":"www.bicloo.nantesmetropole.fr","Téléphone":"01 30 79 33 44","Adresse":"1 Place Saint Similien","Commune":"NANTES","icon":"parking"},"geometry":{"type":"Point","coordinates":[-1.55892890964265,47.219835952652]}},{"type":"Feature","properties":{"title":"20 Station Abonnement Bellamy","Code postal":44000,"Site Internet":"www.bicloo.nantesmetropole.fr","Téléphone":"01 30 79 33 44","Adresse":"29 Rue Paul Bellamy","Commune":"NANTES","icon":"parking"},"geometry":{"type":"Point","coordinates":[-1.55765985443575,47.223348795628]}},{"type":"Feature","properties":{"title":"21 Station Accueil Marché Talensac Sud","Code postal":44000,"Site Internet":"www.bicloo.nantesmetropole.fr","Téléphone":"01 30 79 33 44","Adresse":"Rue de Talensac","Commune":"NANTES","icon":"parking"},"geometry":{"type":"Point","coordinates":[-1.55649477179845,47.221154818394]}},{"type":"Feature","properties":{"title":"22 Station Accueil Moquechien","Code postal":44000,"Site Internet":"www.bicloo.nantesmetropole.fr","Téléphone":"01 30 79 33 44","Adresse":"8 Rue Moquechien","Commune":"NANTES","icon":"parking"},"geometry":{"type":"Point","coordinates":[-1.55558297927192,47.2203790474815]}},{"type":"Feature","properties":{"title":"23 Station Accueil Buat","Code postal":44000,"Site Internet":"www.bicloo.nantesmetropole.fr","Téléphone":"01 30 79 33 44","Adresse":"101 Rue Général Buat","Commune":"NANTES","icon":"parking"},"geometry":{"type":"Point","coordinates":[-1.54242264341268,47.2271569726]}},{"type":"Feature","properties":{"title":"24 Station Accueil Versailles","Code postal":44000,"Site Internet":"www.bicloo.nantesmetropole.fr","Téléphone":"01 30 79 33 44","Adresse":"Quai de Versailles","Commune":"NANTES","icon":"parking"},"geometry":{"type":"Point","coordinates":[-1.55372803210723,47.2244233838765]}},{"type":"Feature","properties":{"title":"25 Station Abonnement Dalby","Code postal":44000,"Site Internet":"www.bicloo.nantesmetropole.fr","Téléphone":"01 30 79 33 44","Adresse":"Boulevard Ernest Dalby","Commune":"NANTES","icon":"parking"},"geometry":{"type":"Point","coordinates":[-1.53010845738847,47.2236126488755]}},{"type":"Feature","properties":{"title":"27 Station Accueil Guist'hau Nord","Code postal":44000,"Site Internet":"www.bicloo.nantesmetropole.fr","Téléphone":"01 30 79 33 44","Adresse":"44 Boulevard Gabriel Guist'Hau","Commune":"NANTES","icon":"parking"},"geometry":{"type":"Point","coordinates":[-1.56926720618524,47.2179401852254]}},{"type":"Feature","properties":{"title":"26 Station Abonnement et Bonus Guist'hau Sud","Code postal":44000,"Site Internet":"www.bicloo.nantesmetropole.fr","Téléphone":"01 30 79 33 44","Adresse":"26T Boulevard Gabriel Guist'Hau","Commune":"NANTES","icon":"parking"},"geometry":{"type":"Point","coordinates":[-1.56702335731262,47.2168394453051]}},{"type":"Feature","properties":{"title":"28 Station Accueil Place Edit de Nantes","Code postal":44100,"Site Internet":"www.bicloo.nantesmetropole.fr","Téléphone":"01 30 79 33 44","Adresse":"Place de l'Edit de Nantes","Commune":"NANTES","icon":"parking"},"geometry":{"type":"Point","coordinates":[-1.56761075012927,47.2144590279511]}},{"type":"Feature","properties":{"title":"29 Station Accueil Duguay Trouin","Code postal":44000,"Site Internet":"www.bicloo.nantesmetropole.fr","Téléphone":"01 30 79 33 44","Adresse":"7 Allée Duguay Trouin","Commune":"NANTES","icon":"parking"},"geometry":{"type":"Point","coordinates":[-1.55528850840637,47.2134615787904]}},{"type":"Feature","properties":{"title":"30 Station Abonnement Commerce","Code postal":44000,"Site Internet":"www.bicloo.nantesmetropole.fr","Téléphone":"01 30 79 33 44","Adresse":"Allée Brancas","Commune":"NANTES","icon":"parking"},"geometry":{"type":"Point","coordinates":[-1.55738072263822,47.2131450294256]}},{"type":"Feature","properties":{"title":"31 Station Accueil Bourse","Code postal":44000,"Site Internet":"www.bicloo.nantesmetropole.fr","Téléphone":"01 30 79 33 44","Adresse":"Allée de la Bourse","Commune":"NANTES","icon":"parking"},"geometry":{"type":"Point","coordinates":[-1.55910527758924,47.2120943808486]}},{"type":"Feature","properties":{"title":"32 Station Accueil Rubens","Code postal":44000,"Site Internet":"www.bicloo.nantesmetropole.fr","Téléphone":"01 30 79 33 44","Adresse":"Rue Rubens","Commune":"NANTES","icon":"parking"},"geometry":{"type":"Point","coordinates":[-1.56028729072365,47.2143514409189]}},{"type":"Feature","properties":{"title":"33 Station Accueil Racine","Code postal":44000,"Site Internet":"www.bicloo.nantesmetropole.fr","Téléphone":"01 30 79 33 44","Adresse":"5 Rue Racine","Commune":"NANTES","icon":"parking"},"geometry":{"type":"Point","coordinates":[-1.5631877058962,47.2134832603266]}},{"type":"Feature","properties":{"title":"34 Station Abonnement Médiathèque","Code postal":44000,"Site Internet":"www.bicloo.nantesmetropole.fr","Téléphone":"01 30 79 33 44","Adresse":"24 Quai de la Fosse","Commune":"NANTES","icon":"parking"},"geometry":{"type":"Point","coordinates":[-1.5618418449525,47.2109126549257]}},{"type":"Feature","properties":{"title":"35 Station Abonnement Jean V","Code postal":44000,"Site Internet":"www.bicloo.nantesmetropole.fr","Téléphone":"01 30 79 33 44","Adresse":"Place Jean V","Commune":"NANTES","icon":"parking"},"geometry":{"type":"Point","coordinates":[-1.56556289207478,47.212180370735]}},{"type":"Feature","properties":{"title":"36 Station Accueil Alger","Code postal":44100,"Site Internet":"www.bicloo.nantesmetropole.fr","Téléphone":"01 30 79 33 44","Adresse":"5 Rue d'Alger","Commune":"NANTES","icon":"parking"},"geometry":{"type":"Point","coordinates":[-1.5666743136651,47.210705238574]}},{"type":"Feature","properties":{"title":"37 Station Accueil Feydeau","Code postal":44000,"Site Internet":"www.bicloo.nantesmetropole.fr","Téléphone":"01 30 79 33 44","Adresse":"Rue Gaston Veil","Commune":"NANTES","icon":"parking"},"geometry":{"type":"Point","coordinates":[-1.55688248342545,47.2114728989176]}},{"type":"Feature","properties":{"title":"38 Station Abonnement Place Ricordeau","Code postal":44000,"Site Internet":"www.bicloo.nantesmetropole.fr","Téléphone":"01 30 79 33 44","Adresse":"Chaussée de la Madeleine","Commune":"NANTES","icon":"parking"},"geometry":{"type":"Point","coordinates":[-1.55313666650746,47.2120904234566]}},{"type":"Feature","properties":{"title":"39 Station Accueil Quai Moncousu","Code postal":44000,"Site Internet":"www.bicloo.nantesmetropole.fr","Téléphone":"01 30 79 33 44","Adresse":"10 Quai Moncousu","Commune":"NANTES","icon":"parking"},"geometry":{"type":"Point","coordinates":[-1.555248414263,47.2093654560619]}},{"type":"Feature","properties":{"title":"40 Station Accueil Madeleine","Code postal":44000,"Site Internet":"www.bicloo.nantesmetropole.fr","Téléphone":"01 30 79 33 44","Adresse":"2 Quai Moncousu","Commune":"NANTES","icon":"parking"},"geometry":{"type":"Point","coordinates":[-1.5504304749082,47.208815874652]}},{"type":"Feature","properties":{"title":"41 Station Accueil Chantier Naval","Code postal":44100,"Site Internet":"www.bicloo.nantesmetropole.fr","Téléphone":"01 30 79 33 44","Adresse":"Rue Mathurin Brissonneau","Commune":"NANTES","icon":"parking"},"geometry":{"type":"Point","coordinates":[-1.56954316224266,47.2083688395591]}},{"type":"Feature","properties":{"title":"42 Station Abonnement Gare Maritime","Code postal":44100,"Site Internet":"www.bicloo.nantesmetropole.fr","Téléphone":"01 30 79 33 44","Adresse":"Quai Ernest Renaud","Commune":"NANTES","icon":"parking"},"geometry":{"type":"Point","coordinates":[-1.57262953237793,47.2066090811753]}},{"type":"Feature","properties":{"title":"43 Station Abonnement Machines de l'Ile","Code postal":44200,"Site Internet":"www.bicloo.nantesmetropole.fr","Téléphone":"01 30 79 33 44","Adresse":"2 Boulevard Léon Bureau","Commune":"NANTES","icon":"parking"},"geometry":{"type":"Point","coordinates":[-1.56482580615095,47.2069302605475]}},{"type":"Feature","properties":{"title":"44 Station Accueil Palais de Justice","Code postal":44200,"Site Internet":"www.bicloo.nantesmetropole.fr","Téléphone":"01 30 79 33 44","Adresse":"19 Quai François Mitterrand","Commune":"NANTES","icon":"parking"},"geometry":{"type":"Point","coordinates":[-1.56124245373142,47.2083631782056]}},{"type":"Feature","properties":{"title":"45 Station Accueil Prairie au Duc","Code postal":44200,"Site Internet":"www.bicloo.nantesmetropole.fr","Téléphone":"01 30 79 33 44","Adresse":"Boulevard de la Prairie au Duc","Commune":"NANTES","icon":"parking"},"geometry":{"type":"Point","coordinates":[-1.55888284017234,47.2047848192062]}},{"type":"Feature","properties":{"title":"46 Station Accueil Place République","Code postal":44200,"Site Internet":"www.bicloo.nantesmetropole.fr","Téléphone":"01 30 79 33 44","Adresse":"3 Place de la République","Commune":"NANTES","icon":"parking"},"geometry":{"type":"Point","coordinates":[-1.55519386163571,47.2054012265916]}},{"type":"Feature","properties":{"title":"47 Station Abonnement Martyrs Nantais","Code postal":44200,"Site Internet":"www.bicloo.nantesmetropole.fr","Téléphone":"01 30 79 33 44","Adresse":"21 Boulevard Gaston Doumergue","Commune":"NANTES","icon":"parking"},"geometry":{"type":"Point","coordinates":[-1.54817985054706,47.207035364629]}},{"type":"Feature","properties":{"title":"48 Station Abonnement Verdun","Code postal":44000,"Site Internet":"www.bicloo.nantesmetropole.fr","Téléphone":"01 30 79 33 44","Adresse":"17 Rue de Verdun","Commune":"NANTES","icon":"parking"},"geometry":{"type":"Point","coordinates":[-1.55186817651381,47.217516769716]}},{"type":"Feature","properties":{"title":"49 Station Accueil Duchesse Anne","Code postal":44000,"Site Internet":"www.bicloo.nantesmetropole.fr","Téléphone":"01 30 79 33 44","Adresse":"Rue Henri IV","Commune":"NANTES","icon":"parking"},"geometry":{"type":"Point","coordinates":[-1.54707722079028,47.2165287485861]}},{"type":"Feature","properties":{"title":"50 Station Abonnement Château","Code postal":44000,"Site Internet":"www.bicloo.nantesmetropole.fr","Téléphone":"01 30 79 33 44","Adresse":"2 Rue des Etats","Commune":"NANTES","icon":"parking"},"geometry":{"type":"Point","coordinates":[-1.55027600234498,47.2151359323236]}},{"type":"Feature","properties":{"title":"52 Station Accueil Baco","Code postal":44000,"Site Internet":"www.bicloo.nantesmetropole.fr","Téléphone":"01 30 79 33 44","Adresse":"Allée Baco","Commune":"NANTES","icon":"parking"},"geometry":{"type":"Point","coordinates":[-1.54876893751898,47.2143388426474]}},{"type":"Feature","properties":{"title":"53 Station Accueil Olivettes","Code postal":44000,"Site Internet":"www.bicloo.nantesmetropole.fr","Téléphone":"01 30 79 33 44","Adresse":"10 Rue des Olivettes","Commune":"NANTES","icon":"parking"},"geometry":{"type":"Point","coordinates":[-1.54995935107843,47.2117494265765]}},{"type":"Feature","properties":{"title":"54 Station Abonnement Cité Internationale des Congrès","Code postal":44000,"Site Internet":"www.bicloo.nantesmetropole.fr","Téléphone":"01 30 79 33 44","Adresse":"Rue de Jemmapes","Commune":"NANTES","icon":"parking"},"geometry":{"type":"Point","coordinates":[-1.54502748383111,47.2131685540285]}},{"type":"Feature","properties":{"title":"55 Station Accueil Magellan","Code postal":44000,"Site Internet":"www.bicloo.nantesmetropole.fr","Téléphone":"01 30 79 33 44","Adresse":"11 Rue de Belfort","Commune":"NANTES","icon":"parking"},"geometry":{"type":"Point","coordinates":[-1.54424826339243,47.2106839754833]}},{"type":"Feature","properties":{"title":"56 Station Accueil Vincent Gache","Code postal":44200,"Site Internet":"www.bicloo.nantesmetropole.fr","Téléphone":"01 30 79 33 44","Adresse":"9 Rue François Albert","Commune":"NANTES","icon":"parking"},"geometry":{"type":"Point","coordinates":[-1.54185096726864,47.2068847351676]}},{"type":"Feature","properties":{"title":"57 Station Abonnement Gaëtan Rondeau","Code postal":44200,"Site Internet":"www.bicloo.nantesmetropole.fr","Téléphone":"01 30 79 33 44","Adresse":"20 Rue Gaëtan Rondeau","Commune":"NANTES","icon":"parking"},"geometry":{"type":"Point","coordinates":[-1.53760013962524,47.2054072118627]}},{"type":"Feature","properties":{"title":"58 Station Accueil Palais des Sports","Code postal":44200,"Site Internet":"www.bicloo.nantesmetropole.fr","Téléphone":"01 30 79 33 44","Adresse":"21 Rue René Viviani","Commune":"NANTES","icon":"parking"},"geometry":{"type":"Point","coordinates":[-1.53599916068622,47.2084771961567]}},{"type":"Feature","properties":{"title":"59 Station Accueil Stade Saupin","Code postal":44000,"Site Internet":"www.bicloo.nantesmetropole.fr","Téléphone":"01 30 79 33 44","Adresse":"35 Quai Malakoff","Commune":"NANTES","icon":"parking"},"geometry":{"type":"Point","coordinates":[-1.53963958134972,47.2139780010056]}},{"type":"Feature","properties":{"title":"60 Station Abonnement Gare Sud","Code postal":44000,"Site Internet":"www.bicloo.nanresmetropole.fr","Téléphone":"01 30 79 33 44","Adresse":"12 Rue de Lourmel","Commune":"NANTES","icon":"parking"},"geometry":{"type":"Point","coordinates":[-1.54286596091712,47.2159307421474]}},{"type":"Feature","properties":{"title":"61 Station Accueil LU Lieu Unique","Code postal":44000,"Site Internet":"www.bicloo.nantesmetropole.fr","Téléphone":"01 30 79 33 44","Adresse":"Quai Malakoff","Commune":"NANTES","icon":"parking"},"geometry":{"type":"Point","coordinates":[-1.54592421117785,47.2156027850142]}},{"type":"Feature","properties":{"title":"62 Station Abonnement Gare Nord","Code postal":44000,"Site Internet":"www.bicloo.nantesmetropole.fr","Téléphone":"01 30 79 33 44","Adresse":"1 Place Charles le Roux","Commune":"NANTES","icon":"parking"},"geometry":{"type":"Point","coordinates":[-1.54224096840209,47.2181414046142]}},{"type":"Feature","properties":{"title":"63 Station Accueil Jardins des Plantes","Code postal":44000,"Site Internet":"www.bicloo.nantesmetropole.fr","Téléphone":"01 30 79 33 44","Adresse":"6 Rue Stanislas Baudry","Commune":"NANTES","icon":"parking"},"geometry":{"type":"Point","coordinates":[-1.54476410962437,47.2199317719337]}},{"type":"Feature","properties":{"title":"64 Station Abonnement et Bonus Saint Clément","Code postal":44000,"Site Internet":"www.bicloo.nantesmetropole.fr","Téléphone":"01 30 79 33 44","Adresse":"37 Rue Maréchal Joffre","Commune":"NANTES","icon":"parking"},"geometry":{"type":"Point","coordinates":[-1.54717172480906,47.2217983948072]}},{"type":"Feature","properties":{"title":"65 Station Accueil Sully","Code postal":44000,"Site Internet":"www.bicloo.nantesmetropole.fr","Téléphone":"01 30 79 33 44","Adresse":"7 Cours Sully","Commune":"NANTES","icon":"parking"},"geometry":{"type":"Point","coordinates":[-1.5516848391931,47.2225988184658]}},{"type":"Feature","properties":{"title":"66 Station Accueil Chanzy","Code postal":44000,"Site Internet":"www.bicloo.nantesmetropole.fr","Téléphone":"01 30 79 33 44","Adresse":"Avenue Chanzy","Commune":"NANTES","icon":"parking"},"geometry":{"type":"Point","coordinates":[-1.54801802179078,47.2254413947716]}},{"type":"Feature","properties":{"title":"67 Station Accueil Place Waldeck Rousseau","Code postal":44000,"Site Internet":"www.bicloo.nantesmetropole.fr","Téléphone":"01 30 79 33 44","Adresse":"Place Waldeck Rousseau","Commune":"NANTES","icon":"parking"},"geometry":{"type":"Point","coordinates":[-1.55216613912966,47.2277863381608]}},{"type":"Feature","properties":{"title":"68 Station Accueil Livet","Code postal":44000,"Site Internet":"www.bicloo.nanresmetropole.fr","Téléphone":"01 30 79 33 44","Adresse":"65 Rue Dufour","Commune":"NANTES","icon":"parking"},"geometry":{"type":"Point","coordinates":[-1.54521632095855,47.2240954955051]}},{"type":"Feature","properties":{"title":"69 Station Accueil Manufacture","Code postal":44000,"Site Internet":"www.bicloo.nantesmetropole.fr","Téléphone":"01 30 79 33 44","Adresse":"11 Boulevard de Stalingrad","Commune":"NANTES","icon":"parking"},"geometry":{"type":"Point","coordinates":[-1.53586535019784,47.2192276992993]}},{"type":"Feature","properties":{"title":"70 Station Abonnement et Bonus Foch Cathédrale","Code postal":44000,"Site Internet":"www.bicloo.nantesmetropole.fr","Téléphone":"01 30 79 33 44","Adresse":"Rue de l'Evêché","Commune":"NANTES","icon":"parking"},"geometry":{"type":"Point","coordinates":[-1.55048013677801,47.2186945659362]}},{"type":"Feature","properties":{"title":"71 Station Abonnement et Bonus Marché Talensac Nord","Code postal":44000,"Site Internet":"www.bicloo.nantesmetropole.fr","Téléphone":"01 30 79 33 44","Adresse":"17 Rue de Bel Air","Commune":"NANTES","icon":"parking"},"geometry":{"type":"Point","coordinates":[-1.55906934287743,47.2219103419541]}},{"type":"Feature","properties":{"title":"73 Station Accueil Sarradin","Code postal":44000,"Site Internet":"www.bicloo.nantesmetropole.fr","Téléphone":"01 30 79 33 44","Adresse":"4 Place Emile Sarradin","Commune":"NANTES","icon":"parking"},"geometry":{"type":"Point","coordinates":[-1.57050717785263,47.2208837667212]}},{"type":"Feature","properties":{"title":"74 Station Accueil Place Canclaux","Code postal":44100,"Site Internet":"www.bicloo.nantesmetropole.fr","Téléphone":"01 30 79 33 44","Adresse":"8 Place Canclaux","Commune":"NANTES","icon":"parking"},"geometry":{"type":"Point","coordinates":[-1.57500608192678,47.2143716842925]}},{"type":"Feature","properties":{"title":"75 Station Accueil Lamoricière","Code postal":44100,"Site Internet":"www.bicloo.nantesmetropole.fr","Téléphone":"01 30 79 33 44","Adresse":"Rue Lamoricière","Commune":"NANTES","icon":"parking"},"geometry":{"type":"Point","coordinates":[-1.57139899840128,47.212365614395]}},{"type":"Feature","properties":{"title":"76 Station Accueil Place René Bouhier","Code postal":44100,"Site Internet":"www.bicloo.nantesmetropole.fr","Téléphone":"01 30 79 33 44","Adresse":"8 Place René Bouhier","Commune":"NANTES","icon":"parking"},"geometry":{"type":"Point","coordinates":[-1.57058928666779,47.2094420409641]}},{"type":"Feature","properties":{"title":"77 Station Accueil Ecole d'Architecture","Code postal":44200,"Site Internet":"www.bicloo.nantesmetropole.fr","Téléphone":"01 30 79 33 44","Adresse":"Quai François Mitterrand","Commune":"NANTES","icon":"parking"},"geometry":{"type":"Point","coordinates":[-1.55755125966966,47.2076169020017]}},{"type":"Feature","properties":{"title":"78 Station Accueil De Gaulle","Code postal":44200,"Site Internet":"www.bicloo.nantesmetropole.fr","Téléphone":"01 30 79 33 44","Adresse":"Boulevard Général de Gaulle","Commune":"NANTES","icon":"parking"},"geometry":{"type":"Point","coordinates":[-1.54056873329161,47.2084603783954]}},{"type":"Feature","properties":{"title":"79 Station Accueil Malakoff","Code postal":44000,"Site Internet":"www.bicloo.nantesmetropole.fr","Téléphone":"01 30 79 33 44","Adresse":"13 Quai Malakoff","Commune":"NANTES","icon":"parking"},"geometry":{"type":"Point","coordinates":[-1.53642071591634,47.2132345266324]}},{"type":"Feature","properties":{"title":"Parc relais tramway Marcel Paul","Code postal":44800,"Site Internet":"www.tan.fr","Téléphone":"02 40 44 44 44","Adresse":"Boulevard Marcel Paul","Commune":"ST-HERBLAIN","icon":"parking"},"geometry":{"type":"Point","coordinates":[-1.61800834963946,47.2459045698135]}},{"type":"Feature","properties":{"title":"Parc relais tramway Grande Ouche","Code postal":44340,"Site Internet":"www.tan.fr","Téléphone":"02 40 44 44 44","Adresse":"Rue de la Grande Ouche","Commune":"BOUGUENAIS","icon":"parking"},"geometry":{"type":"Point","coordinates":[-1.57947203525665,47.1819948350479]}},{"type":"Feature","properties":{"title":"Parc relais busway Bourdonnières 2","Code postal":44200,"Site Internet":"www.tan.fr","Téléphone":"02 40 44 44 44","Adresse":"Rue des Bourdonnières","Commune":"NANTES","icon":"parking"},"geometry":{"type":"Point","coordinates":[-1.52315133155692,47.1867242428305]}},{"type":"Feature","properties":{"title":"87 Station Accueil Anatole-France","Code postal":44000,"Site Internet":"www.bicloo.nantesmetropole.fr","Téléphone":"01 30 79 33 44","Adresse":"34 Rue Alexandre Dumas","Commune":"NANTES","icon":"parking"},"geometry":{"type":"Point","coordinates":[-1.57139236049388,47.2236164437223]}},{"type":"Feature","properties":{"title":"86 Station Accueil Hauts-Pavés","Code postal":44000,"Site Internet":"www.bicloo.nantesmetropole.fr","Téléphone":"01 30 79 33 44","Adresse":"Rue des Hauts Pavés","Commune":"NANTES","icon":"parking"},"geometry":{"type":"Point","coordinates":[-1.56752047182291,47.2254822618338]}},{"type":"Feature","properties":{"title":"88 Station Accueil Mellinet","Code postal":44100,"Site Internet":"www.bicloo.nantesmetropole.fr","Téléphone":"01 30 79 33 44","Adresse":"1 Boulevard Allard","Commune":"NANTES","icon":"parking"},"geometry":{"type":"Point","coordinates":[-1.57712676541886,47.211489622114]}},{"type":"Feature","properties":{"title":"89 Station Accueil Saint-Aignan","Code postal":44100,"Site Internet":"www.bicloo.nantesmetropole.fr","Téléphone":"01 30 79 33 44","Adresse":"65 Boulevard Saint Aignan","Commune":"NANTES","icon":"parking"},"geometry":{"type":"Point","coordinates":[-1.57871509661417,47.2074440639466]}},{"type":"Feature","properties":{"title":"80 Station Accueil Victor-Hugo","Code postal":44200,"Site Internet":"www.bicloo.nantesmetropole.fr","Téléphone":"01 30 79 33 44","Adresse":"Boulevard Victor Hugo","Commune":"NANTES","icon":"parking"},"geometry":{"type":"Point","coordinates":[-1.55156732506795,47.2040143599928]}},{"type":"Feature","properties":{"title":"81 Station Abonnement Mangin","Code postal":44200,"Site Internet":"www.bicloo.nantesmetropole.fr","Téléphone":"01 30 79 33 44","Adresse":"8 Place Victor Mangin","Commune":"NANTES","icon":"parking"},"geometry":{"type":"Point","coordinates":[-1.54549762740334,47.2010219272]}},{"type":"Feature","properties":{"title":"82 Station Accueil Sébilleau","Code postal":44200,"Site Internet":"www.bicloo.nantesmetropole.fr","Téléphone":"01 30 79 33 44","Adresse":"Rue Docteur Jules Sébilleau","Commune":"NANTES","icon":"parking"},"geometry":{"type":"Point","coordinates":[-1.53313636292619,47.2067685846983]}},{"type":"Feature","properties":{"title":"83 Station Abonnement Millerand","Code postal":44200,"Site Internet":"www.bicloo.nantesmetropole.fr","Téléphone":"01 30 79 33 44","Adresse":"9 Boulevard Alexandre Millerand","Commune":"NANTES","icon":"parking"},"geometry":{"type":"Point","coordinates":[-1.53016141349475,47.208217819463]}},{"type":"Feature","properties":{"title":"84 Station Accueil Région","Code postal":44200,"Site Internet":"www.bicloo.nantesmetropole.fr","Téléphone":"01 30 79 33 44","Adresse":"Place Gaston Defferre","Commune":"NANTES","icon":"parking"},"geometry":{"type":"Point","coordinates":[-1.52595127548116,47.2107532371851]}},{"type":"Feature","properties":{"title":"Parc en enclos Courte Durée Gare Nord","Code postal":44000,"Site Internet":"www.resaplace.com","Téléphone":"08 25 88 88 26","Adresse":"Cours John Kennedy","Commune":"NANTES","icon":"parking"},"geometry":{"type":"Point","coordinates":[-1.54347875084443,47.2172647322169]}},{"type":"Feature","properties":{"title":"Parking ouvrage Les Machines","Code postal":44200,"Site Internet":"www.resaplace.com","Téléphone":"08 25 88 88 26","Adresse":"Rue Arthur III","Commune":"NANTES","icon":"parking"},"geometry":{"type":"Point","coordinates":[-1.56272779236372,47.2059006220645]}},{"type":"Feature","properties":{"title":"85 Station Accueil et Bonus Bel Air","Code postal":44000,"Site Internet":"www.bicloo.nantesmetropole.fr","Téléphone":"01 30 79 33 44","Adresse":"102 Rue Paul Bellamy","Commune":"NANTES","icon":"parking"},"geometry":{"type":"Point","coordinates":[-1.56004122137593,47.2264060339437]}},{"type":"Feature","properties":{"title":"10 Station Accueil Picasso","Code postal":44000,"Site Internet":"www.bicloo.nantesmetropole.fr","Téléphone":"01 30 79 33 44","Adresse":"Mail Pablo Picasso","Commune":"NANTES","icon":"parking"},"geometry":{"type":"Point","coordinates":[-1.53422912101255,47.2163435868477]}},{"type":"Feature","properties":{"title":"51 Station Abonnement Berlin","Code postal":44000,"Site Internet":"www.bicloo.nantesmetropole.fr","Téléphone":"01 30 79 33 44","Adresse":"Boulevard de Sarrebruck","Commune":"NANTES","icon":"parking"},"geometry":{"type":"Point","coordinates":[-1.53007250061588,47.2143914699763]}},{"type":"Feature","properties":{"title":"Parking ouvrage Gare Sud 4","Code postal":44000,"Site Internet":"www.resaplace.com","Téléphone":"08 25 88 88 26","Adresse":"24 Mail Pablo Picasso","Commune":"NANTES","icon":"parking"},"geometry":{"type":"Point","coordinates":[-1.53793389528195,47.2151033663183]}},{"type":"Feature","properties":{"title":"Pac en enclos Viviani","Code postal":44200,"Site Internet":"www.parkings-nantes.fr","Téléphone":"02 51 84 94 51","Adresse":"Rue René Viviani","Commune":"NANTES","icon":"parking"},"geometry":{"type":"Point","coordinates":[-1.53619706978924,47.2087756042897]}},{"type":"Feature","properties":{"title":"92 Station Abonnement Rond Point Rennes","Code postal":44000,"Site Internet":"www.bicloo.nantesmetropole.fr","Téléphone":"01 30 79 33 44","Adresse":"Rond-Point de Rennes","Commune":"NANTES","icon":"parking"},"geometry":{"type":"Point","coordinates":[-1.56601698077602,47.2330917037559]}},{"type":"Feature","properties":{"title":"91 Station Abonnement Rond Point Vannes","Code postal":44000,"Site Internet":"www.bicloo.nantesmetropole.fr","Téléphone":"01 30 79 33 44","Adresse":"63B Boulevard Lelasseur","Commune":"NANTES","icon":"parking"},"geometry":{"type":"Point","coordinates":[-1.57201209125591,47.229675345348]}},{"type":"Feature","properties":{"title":"90 Station Abonnement Procé","Code postal":44000,"Site Internet":"www.bicloo.nantesmetropole.fr","Téléphone":"01 30 79 33 44","Adresse":"Boulevard Gaston Serpette","Commune":"NANTES","icon":"parking"},"geometry":{"type":"Point","coordinates":[-1.57658356660229,47.2243215861999]}},{"type":"Feature","properties":{"title":"102 Station Abonnement Gare Pont Rousseau","Code postal":44400,"Site Internet":"www.bicloo.nantesmetropole.fr","Téléphone":"01 30 79 33 44","Adresse":"Rue de la Gare","Commune":"REZE","icon":"parking"},"geometry":{"type":"Point","coordinates":[-1.54900545446362,47.1931492766954]}},{"type":"Feature","properties":{"title":"101 Station Abonnement Pirmil","Code postal":44200,"Site Internet":"www.bicloo.nantesmetropole.fr","Téléphone":"01 30 79 33 44","Adresse":"Rue Esnoult des Châtelets","Commune":"NANTES","icon":"parking"},"geometry":{"type":"Point","coordinates":[-1.54145063364339,47.1966294882289]}},{"type":"Feature","properties":{"title":"99 Station Accueil Saint-Jacques","Code postal":44200,"Site Internet":"www.bicloo.nantesmetropole.fr","Téléphone":"01 30 79 33 44","Adresse":"85 Rue Saint Jacques","Commune":"NANTES","icon":"parking"},"geometry":{"type":"Point","coordinates":[-1.53658962887906,47.1958591605985]}},{"type":"Feature","properties":{"title":"100 Station Abonnement Gréneraie","Code postal":44200,"Site Internet":"www.bicloo.nantesmetropole.fr","Téléphone":"01 30 79 33 44","Adresse":"Côte Saint Sébastien","Commune":"NANTES","icon":"parking"},"geometry":{"type":"Point","coordinates":[-1.5346071537874,47.1999707101929]}},{"type":"Feature","properties":{"title":"96 Station Abonnement Tortière","Code postal":44000,"Site Internet":"www.bicloo.nantesmetropole.fr","Téléphone":"01 30 79 33 44","Adresse":"Boulevard Eugène Orieux","Commune":"NANTES","icon":"parking"},"geometry":{"type":"Point","coordinates":[-1.54947343741177,47.2353448001876]}},{"type":"Feature","properties":{"title":"95 Station Abonnement Michelet","Code postal":44300,"Site Internet":"www.bicloo.nantesmetropole.fr","Téléphone":"01 30 79 33 44","Adresse":"38 Boulevard Michelet","Commune":"NANTES","icon":"parking"},"geometry":{"type":"Point","coordinates":[-1.55638870204855,47.2350837066755]}},{"type":"Feature","properties":{"title":"94 Station Abonnement Petit Port","Code postal":44300,"Site Internet":"www.bicloo.nantesmetropole.fr","Téléphone":"01 30 79 33 44","Adresse":"Place du Huit Mai 1945","Commune":"NANTES","icon":"parking"},"geometry":{"type":"Point","coordinates":[-1.55638098635507,47.2432626440766]}},{"type":"Feature","properties":{"title":"93 Station Abonnement Facultés","Code postal":44300,"Site Internet":"www.bicloo.nantesmetropole.fr","Téléphone":"01 30 79 33 44","Adresse":"Boulevard Guy Mollet","Commune":"NANTES","icon":"parking"},"geometry":{"type":"Point","coordinates":[-1.5553383498054,47.2463232883454]}},{"type":"Feature","properties":{"title":"97 Station Accueil Saint-Donatien","Code postal":44000,"Site Internet":"www.bicloo.nantesmetropole.fr","Téléphone":"01 30 79 33 44","Adresse":"69 Rue Général Buat","Commune":"NANTES","icon":"parking"},"geometry":{"type":"Point","coordinates":[-1.5404024174378,47.2291287626691]}},{"type":"Feature","properties":{"title":"98 Station Abonnement Huit Mai","Code postal":44400,"Site Internet":"www.bicloo.nantesmetropole.fr","Téléphone":"01 30 79 33 44","Adresse":"Avenue de la Libération","Commune":"REZE","icon":"parking"},"geometry":{"type":"Point","coordinates":[-1.55093306486444,47.1891485324905]}},{"type":"Feature","properties":{"title":"Aire de covoiturage Piano'cktail","Code postal":44340,"Site Internet":"www.covoiturage-nantesmetropole.fr","Téléphone":"08 11 13 01 44","Adresse":"Rue Ginsheim Gustavsburg","Commune":"BOUGUENAIS","icon":"parking"},"geometry":{"type":"Point","coordinates":[-1.60539271713277,47.1743921106395]}},{"type":"Feature","properties":{"title":"Aire de covoiturage Le Paradis","Code postal":44220,"Site Internet":"www.covoiturage-nantesmetropole.fr","Téléphone":"08 11 13 01 44","Adresse":"RD 91","Commune":"COUERON","icon":"parking"},"geometry":{"type":"Point","coordinates":[-1.751615681513,47.2058433058368]}},{"type":"Feature","properties":{"title":"Aire de covoiturage Le Vélodrôme","Code postal":44220,"Site Internet":"www.covoiturage-nantesmetropole.fr","Téléphone":"08 11 13 01 44","Adresse":"Boulevard Francois Blancho","Commune":"COUERON","icon":"parking"},"geometry":{"type":"Point","coordinates":[-1.73553587146421,47.2114911474736]}},{"type":"Feature","properties":{"title":"Aire de covoiturage Les Ormeaux","Code postal":44830,"Site Internet":"www.covoiturage-nantesmetropole.fr","Téléphone":"08 11 13 01 44","Adresse":"Esplanade de l'Edit de Nantes","Commune":"BOUAYE","icon":"parking"},"geometry":{"type":"Point","coordinates":[-1.68247122952125,47.1558857839796]}},{"type":"Feature","properties":{"title":"Aire de covoiturage Georges Brassens","Code postal":44620,"Site Internet":"www.covoiturage-nantesmetropole.fr","Téléphone":"08 11 13 01 44","Adresse":"Rue de la Gaudinière","Commune":"LA-MONTAGNE","icon":"parking"},"geometry":{"type":"Point","coordinates":[-1.6759732987008,47.1833082568459]}},{"type":"Feature","properties":{"title":"Aire de covoiturage La Herdrie","Code postal":44115,"Site Internet":"www.covoiturage-nantesmetropole.fr","Téléphone":"08 11 13 01 44","Adresse":"Route du Loroux Bottereau","Commune":"BASSE-GOULAINE","icon":"parking"},"geometry":{"type":"Point","coordinates":[-1.4545741556611,47.1981364148521]}},{"type":"Feature","properties":{"title":"Aire de covoiturage Pas Enchantés","Code postal":44230,"Site Internet":"www.covoiturage-nantesmetropole.fr","Téléphone":"08 11 13 01 44","Adresse":"Boulevard des Pas Enchantés","Commune":"ST-SEBASTIEN","icon":"parking"},"geometry":{"type":"Point","coordinates":[-1.5039410584835,47.2103889373405]}},{"type":"Feature","properties":{"title":"Aire de covoiturage Les 3 Brasseurs","Code postal":44230,"Site Internet":"www.covoiturage-nantesmetropole.fr","Téléphone":"08 11 13 01 44","Adresse":"Rue Marie Curie","Commune":"ST-SEBASTIEN","icon":"parking"},"geometry":{"type":"Point","coordinates":[-1.48944982933608,47.1909311959939]}},{"type":"Feature","properties":{"title":"Aire de covoiturage La Charmelière","Code postal":44470,"Site Internet":"www.covoiturage-nantesmetropole.fr","Téléphone":"08 11 13 01 44","Adresse":"RD 37","Commune":"CARQUEFOU","icon":"parking"},"geometry":{"type":"Point","coordinates":[-1.47381722266676,47.2948276010662]}},{"type":"Feature","properties":{"title":"Aire de covoiturage La Croix de Mauves","Code postal":44470,"Site Internet":"www.covoiturage-nantesmetropole.fr","Téléphone":"08 11 13 01 44","Adresse":"RD 31","Commune":"MAUVES-SUR-LOIRE","icon":"parking"},"geometry":{"type":"Point","coordinates":[-1.39840430261237,47.3002260614374]}},{"type":"Feature","properties":{"title":"Station Bretagne","Code postal":44000,"Site Internet":"www.imarguerite.com","Téléphone":"02 40 58 44 14","Adresse":"Place de Bretagne","Commune":"NANTES","icon":"parking"},"geometry":{"type":"Point","coordinates":[-1.55963354318143,47.2174899073883]}},{"type":"Feature","properties":{"title":"Station 50 Otages","Code postal":44000,"Site Internet":"www.imarguerite.com","Téléphone":"02 40 58 44 14","Adresse":"Rue Didienne","Commune":"NANTES","icon":"parking"},"geometry":{"type":"Point","coordinates":[-1.55759693321303,47.2184474307694]}},{"type":"Feature","properties":{"title":"Station Hôtel de Ville","Code postal":44000,"Site Internet":"www.imarguerite.com","Téléphone":"02 40 58 44 14","Adresse":"Rue Fanny Peccot","Commune":"NANTES","icon":"parking"},"geometry":{"type":"Point","coordinates":[-1.55407383358279,47.2176490515034]}},{"type":"Feature","properties":{"title":"Station Aristide Briand","Code postal":44000,"Site Internet":"www.imarguerite.com","Téléphone":"02 40 58 44 14","Adresse":"Place Aristide Briand","Commune":"NANTES","icon":"parking"},"geometry":{"type":"Point","coordinates":[-1.5624656224159,47.2172290515068]}},{"type":"Feature","properties":{"title":"Station Commerce","Code postal":44000,"Site Internet":"www.imarguerite.com","Téléphone":"02 40 58 44 14","Adresse":"Place de la Petite Hollande","Commune":"NANTES","icon":"parking"},"geometry":{"type":"Point","coordinates":[-1.55794606610268,47.2123927720913]}},{"type":"Feature","properties":{"title":"Station Musée d'Histoire Naturelle","Code postal":44000,"Site Internet":"www.imarguerite.com","Téléphone":"02 40 58 44 14","Adresse":"Rue Lesage","Commune":"NANTES","icon":"parking"},"geometry":{"type":"Point","coordinates":[-1.56438071337637,47.2124896929622]}},{"type":"Feature","properties":{"title":"Station Baco","Code postal":44000,"Site Internet":"www.imarguerite.com","Téléphone":"02 40 58 44 14","Adresse":"Allée de la Maison Rouge","Commune":"NANTES","icon":"parking"},"geometry":{"type":"Point","coordinates":[-1.55292426920598,47.2125436084857]}},{"type":"Feature","properties":{"title":"Station CIO","Code postal":44000,"Site Internet":"www.imarguerite.com","Téléphone":"02 40 58 44 14","Adresse":"Rue de Mayence","Commune":"NANTES","icon":"parking"},"geometry":{"type":"Point","coordinates":[-1.54530733424582,47.211224204201]}},{"type":"Feature","properties":{"title":"Station Cité des Congrès","Code postal":44000,"Site Internet":"www.imarguerite.com","Téléphone":"02 40 58 44 14","Adresse":"Rue de Valmy","Commune":"NANTES","icon":"parking"},"geometry":{"type":"Point","coordinates":[-1.54452831608963,47.2132409347]}},{"type":"Feature","properties":{"title":"Station Gare SNCF Sud","Code postal":44000,"Site Internet":"www.imarguerite.com","Téléphone":"02 40 58 44 14","Adresse":"Quai Malakoff","Commune":"NANTES","icon":"parking"},"geometry":{"type":"Point","coordinates":[-1.54185994912442,47.2149069334244]}},{"type":"Feature","properties":{"title":"Station Manufacture","Code postal":44000,"Site Internet":"www.imarguerite.com","Téléphone":"02 40 58 44 14","Adresse":"Boulevard de Stalingrad","Commune":"NANTES","icon":"parking"},"geometry":{"type":"Point","coordinates":[-1.53586498523079,47.219107562114]}},{"type":"Feature","properties":{"title":"Station Rond Point de Paris","Code postal":44300,"Site Internet":"www.imarguerite.com","Téléphone":"02 40 58 44 14","Adresse":"Rond-Point de Paris","Commune":"NANTES","icon":"parking"},"geometry":{"type":"Point","coordinates":[-1.53529009313813,47.2344561541767]}},{"type":"Feature","properties":{"title":"Station Ecole d'Architecture","Code postal":44200,"Site Internet":"www.imarguerite.com","Téléphone":"02 40 58 44 14","Adresse":"Place François II","Commune":"NANTES","icon":"parking"},"geometry":{"type":"Point","coordinates":[-1.55657046348583,47.2064491542021]}},{"type":"Feature","properties":{"title":"Station Mangin","Code postal":44200,"Site Internet":"www.imarguerite.com","Téléphone":"02 40 58 44 14","Adresse":"Boulevard Victor Hugo","Commune":"NANTES","icon":"parking"},"geometry":{"type":"Point","coordinates":[-1.54518063963327,47.2012759690694]}},{"type":"Feature","properties":{"title":"Station Chantiers Navals","Code postal":44100,"Site Internet":"www.imarguerite.com","Téléphone":"02 40 58 44 14","Adresse":"Rue Charles Brunellière","Commune":"NANTES","icon":"parking"},"geometry":{"type":"Point","coordinates":[-1.56838861516619,47.2090844722945]}},{"type":"Feature","properties":{"title":"Station Mairie de Chantenay","Code postal":44100,"Site Internet":"www.imarguerite.com","Téléphone":"02 40 58 44 14","Adresse":"Boulevard de la Liberté","Commune":"NANTES","icon":"parking"},"geometry":{"type":"Point","coordinates":[-1.58787125667645,47.2065168340528]}},{"type":"Feature","properties":{"title":"Station Zola","Code postal":44100,"Site Internet":"www.imarguerite.com","Téléphone":"02 40 58 44 14","Adresse":"Rue des Renardières","Commune":"NANTES","icon":"parking"},"geometry":{"type":"Point","coordinates":[-1.58739165581353,47.214077429887]}},{"type":"Feature","properties":{"title":"Station Sainte Thérèse","Code postal":44100,"Site Internet":"www.imarguerite.com","Téléphone":"02 40 58 44 14","Adresse":"Boulevard Boulay Paty","Commune":"NANTES","icon":"parking"},"geometry":{"type":"Point","coordinates":[-1.57724775456618,47.2322056559262]}},{"type":"Feature","properties":{"title":"Station Duchesse Anne","Code postal":44000,"Site Internet":"www.imarguerite.com","Téléphone":"02 40 58 44 14","Adresse":"Rue Henri IV","Commune":"NANTES","icon":"parking"},"geometry":{"type":"Point","coordinates":[-1.54717075568781,47.2165024497787]}},{"type":"Feature","properties":{"title":"Gare Routière Baco Lila","Code postal":44000,"Site Internet":"www.loire-atlantique.fr/lila","Téléphone":"08 25 08 71 56","Adresse":"13 Allée de la Maison Rouge","Commune":"NANTES","icon":"parking"},"geometry":{"type":"Point","coordinates":[-1.55276994885937,47.2126755417774]}},{"type":"Feature","properties":{"title":"Gare Routière Pirmil Lila","Code postal":44200,"Site Internet":"www.loire-atlantique.fr/lila","Téléphone":"08 25 08 71 56","Adresse":"Rue Esnoult des Châtelets","Commune":"NANTES","icon":"parking"},"geometry":{"type":"Point","coordinates":[-1.54267335074876,47.1963923435608]}},{"type":"Feature","properties":{"title":"Gare Routière Beauséjour Lila","Code postal":44100,"Site Internet":"www.loire-atlantique.fr/lila","Téléphone":"08 25 08 71 56","Adresse":"Route de Vannes","Commune":"NANTES","icon":"parking"},"geometry":{"type":"Point","coordinates":[-1.58686060715571,47.2380795016075]}},{"type":"Feature","properties":{"title":"Gare Routière Cardo Lila","Code postal":44700,"Site Internet":"www.loire-atlantique.fr","Téléphone":"08 25 08 71 56","Adresse":"Esplanade du Cardo","Commune":"ORVAULT","icon":"parking"},"geometry":{"type":"Point","coordinates":[-1.58415510201614,47.2617996203739]}},{"type":"Feature","properties":{"title":"Gare Routière Haluchère Lila","Code postal":44300,"Site Internet":"www.loire-atlantique.fr/lila","Téléphone":"08 25 08 71 56","Adresse":"Boulevard Jules Verne","Commune":"NANTES","icon":"parking"},"geometry":{"type":"Point","coordinates":[-1.52143188594155,47.2480211629729]}},{"type":"Feature","properties":{"title":"103 Station Mobile","Code postal":44200,"Site Internet":"www.bicloo.nantesmetropole.fr","Téléphone":"01 30 79 33 44","Adresse":"Quai Fernand Crouan","Commune":"NANTES","icon":"parking"},"geometry":{"type":"Point","coordinates":[-1.56970373529113,47.2059145067047]}},{"type":"Feature","properties":{"title":"Station Canclaux","Code postal":44100,"Site Internet":"www.imarguerite.com","Téléphone":"02 40 58 44 14","Adresse":"Place Canclaux","Commune":"NANTES","icon":"parking"},"geometry":{"type":"Point","coordinates":[-1.5748272514646,47.2141712241294]}},{"type":"Feature","properties":{"title":"Station Rezé Mairie","Code postal":44400,"Site Internet":"www.imarguerite.com","Téléphone":"02 40 58 44 14","Adresse":"Place Saint Pierre","Commune":"REZE","icon":"parking"},"geometry":{"type":"Point","coordinates":[-1.57041911066494,47.1912719943743]}},{"type":"Feature","properties":{"title":"Aire de covoiturage Sautron","Code postal":44880,"Site Internet":"www.covoiturage-nantesmetropole.fr","Téléphone":"08 11 13 01 44","Adresse":"51 Rue de la Vallée","Commune":"SAUTRON","icon":"parking"},"geometry":{"type":"Point","coordinates":[-1.67112545623475,47.2680407186535]}},{"type":"Feature","properties":{"title":"Parc en enclos Chantiers Navals","Code postal":44100,"Site Internet":"www.parkings-nantes.fr","Téléphone":"02 51 84 94 51","Adresse":"Quai de la Fosse","Commune":"NANTES","icon":"parking"},"geometry":{"type":"Point","coordinates":[-1.56891560955727,47.2082893195233]}},{"type":"Feature","properties":{"title":"Parc en enclos Gloriette 2","Code postal":44000,"Site Internet":"www.parkings-nantes.fr","Téléphone":"02 51 84 94 51","Adresse":"Rue Albert de Mun","Commune":"NANTES","icon":"parking"},"geometry":{"type":"Point","coordinates":[-1.56028436884679,47.2102736871054]}},{"type":"Feature","properties":{"title":"Parc relais tramway Santos Dumont","Code postal":44300,"Site Internet":"www.tan.fr","Téléphone":"02 40 44 44 44","Adresse":"Rue des Renards","Commune":"NANTES","icon":"parking"},"geometry":{"type":"Point","coordinates":[-1.56822710791259,47.2593236730243]}},{"type":"Feature","properties":{"title":"72 Station Accueil Bellamy Gué-Moreau","Code postal":44000,"Site Internet":"www.bicloo.nantesmetropole.fr","Téléphone":"01 30 79 33 44","Adresse":"Rue Paul Bellamy","Commune":"NANTES","icon":"parking"},"geometry":{"type":"Point","coordinates":[-1.56192014921017,47.2286141235376]}},{"type":"Feature","properties":{"title":"Aire de covoiturage La Métaierie Rouge","Code postal":44240,"Site Internet":"www.covoiturage-nantesmetropole.fr","Téléphone":"08 11 13 01 44","Adresse":"VC 5","Commune":"LA-CHAPELLE-SUR-ERDRE","icon":"parking"},"geometry":{"type":"Point","coordinates":[-1.54638397050348,47.2744422259447]}},{"type":"Feature","properties":{"title":"Aire de covoiturage Norauto Atlantis","Code postal":44800,"Site Internet":"www.covoiturage-nantesmetropole.fr","Téléphone":"08 11 13 01 44","Adresse":"Rue Océane","Commune":"ST-HERBLAIN","icon":"parking"},"geometry":{"type":"Point","coordinates":[-1.62624641113902,47.2257239248911]}},{"type":"Feature","properties":{"title":"Aire de covoiturage Carrefour Beaujoire","Code postal":44300,"Site Internet":"www.covoiturage-nantesmetropole.fr","Téléphone":"08 11 13 01 44","Adresse":"1 Avenue Flora Tristan","Commune":"NANTES","icon":"parking"},"geometry":{"type":"Point","coordinates":[-1.50983215080644,47.2578779098455]}},{"type":"Feature","properties":{"title":"Parc relais tramway Ranzay","Code postal":44300,"Site Internet":"www.tan.fr","Téléphone":"02 40 44 44 44","Adresse":"Route de Saint Joseph","Commune":"NANTES","icon":"parking"},"geometry":{"type":"Point","coordinates":[-1.53313665411229,47.2543632744444]}},{"type":"Feature","properties":{"title":"Parc relais tram-train Haluchère 1","Code postal":44300,"Site Internet":"www.tan.fr","Téléphone":"02 40 44 44 44","Adresse":"Rue du Ranzai","Commune":"NANTES","icon":"parking"},"geometry":{"type":"Point","coordinates":[-1.52283117372235,47.2484503442291]}},{"type":"Feature","properties":{"title":"Parc en enclos Baco-LU 1 côté gare","Code postal":44000,"Site Internet":"www.parkings-nantes.fr","Téléphone":"02 51 84 94 51","Adresse":"Allée Baco","Commune":"NANTES","icon":"parking"},"geometry":{"type":"Point","coordinates":[-1.54898882844897,47.2143324211276]}},{"type":"Feature","properties":{"title":"Station Versailles","Code postal":44000,"Site Internet":null,"Téléphone":null,"Adresse":"Quai de Versailles","Commune":"NANTES","icon":"parking"},"geometry":{"type":"Point","coordinates":[-1.55558569228364,47.226783599264]}},{"type":"Feature","properties":{"title":"Parc Relais Chronobus Boulevard de la Baule","Code postal":44800,"Site Internet":null,"Téléphone":null,"Adresse":"Rue de la Garotterie","Commune":"ST-HERBLAIN","icon":"parking"},"geometry":{"type":"Point","coordinates":[-1.60730578679594,47.2225815561042]}},{"type":"Feature","properties":{"title":"Parc Relais TER/Chronobus Gare de Chantenay","Code postal":44100,"Site Internet":null,"Téléphone":null,"Adresse":"Rue de la Gare de Chantenay","Commune":"NANTES","icon":"parking"},"geometry":{"type":"Point","coordinates":[-1.59463484972795,47.1975346063468]}},{"type":"Feature","properties":{"title":"Parc Relais tramway Neustrie 3","Code postal":44340,"Site Internet":null,"Téléphone":null,"Adresse":"Rue de la Neustrie","Commune":"BOUGUENAIS","icon":"parking"},"geometry":{"type":"Point","coordinates":[-1.59164987334643,47.1773452531518]}},{"type":"Feature","properties":{"title":"Parc Relais Chronobus Chantrerie - Grandes Ecoles","Code postal":44300,"Site Internet":null,"Téléphone":null,"Adresse":"Route de Gachet","Commune":"NANTES","icon":"parking"},"geometry":{"type":"Point","coordinates":[-1.5184745954479,47.2810941460666]}},{"type":"Feature","properties":{"title":"Parc Relais Chronobus Planchonnais","Code postal":44980,"Site Internet":null,"Téléphone":null,"Adresse":"Rue de la Planchonnais","Commune":"SAINTE-LUCE-SUR-LOIRE","icon":"parking"},"geometry":{"type":"Point","coordinates":[-1.47497405146538,47.2531977445948]}},{"type":"Feature","properties":{"title":"Parc Relais TER/Chronobus La Noë","Code postal":44470,"Site Internet":null,"Téléphone":null,"Adresse":"Rue des Ponts","Commune":"THOUARE-SUR-LOIRE","icon":"parking"},"geometry":{"type":"Point","coordinates":[-1.43902005915263,47.2661206435125]}},{"type":"Feature","properties":{"title":"Parc Relais Chronobus Pré Poulain","Code postal":44470,"Site Internet":null,"Téléphone":null,"Adresse":"Rue de Beaulieu","Commune":"THOUARE-SUR-LOIRE","icon":"parking"},"geometry":{"type":"Point","coordinates":[-1.44604469439019,47.2732941971647]}},{"type":"Feature","properties":{"title":"Aire de covoiturage de la Mairie de Saint-Léger-Les-Vignes","Code postal":44710,"Site Internet":null,"Téléphone":null,"Adresse":"Rue de Nantes","Commune":"SAINT-LEGER-LES-VIGNES","icon":"parking"},"geometry":{"type":"Point","coordinates":[-1.72710127303152,47.1367028327517]}},{"type":"Feature","properties":{"title":"Aire de covoiturage Frachon","Code postal":44800,"Site Internet":null,"Téléphone":null,"Adresse":"Boulevard Salvador Allende","Commune":"ST-HERBLAIN","icon":"parking"},"geometry":{"type":"Point","coordinates":[-1.62157240555264,47.2184797159027]}},{"type":"Feature","properties":{"title":"Aire de covoiturage de la Planchonnais","Code postal":44980,"Site Internet":null,"Téléphone":null,"Adresse":"Rue de la Planchonnais","Commune":"SAINTE-LUCE-SUR-LOIRE","icon":"parking"},"geometry":{"type":"Point","coordinates":[-1.47507408048735,47.2529809902532]}},{"type":"Feature","properties":{"title":"Aire de covoiturage Mendès France","Code postal":44400,"Site Internet":null,"Téléphone":null,"Adresse":"Boulevard Mendès France","Commune":"REZE","icon":"parking"},"geometry":{"type":"Point","coordinates":[-1.52992740329385,47.1771971887698]}},{"type":"Feature","properties":{"title":"Parking ouvrage Feydeau","Code postal":44000,"Site Internet":null,"Téléphone":null,"Adresse":"Parvis Neptune","Commune":"NANTES","icon":"parking"},"geometry":{"type":"Point","coordinates":[-1.55255878352104,47.2140752998708]}},{"type":"Feature","properties":{"title":"Parc relais tram-train Babinière","Code postal":44240,"Site Internet":null,"Téléphone":null,"Adresse":"Avenue de la Babinière","Commune":"LA-CHAPELLE-SUR-ERDRE","icon":"parking"},"geometry":{"type":"Point","coordinates":[-1.54622476875122,47.2595965577586]}},{"type":"Feature","properties":{"title":"Gare tram-train Babinière","Code postal":44240,"Site Internet":null,"Téléphone":null,"Adresse":"Avenue de la Babinière","Commune":"LA-CHAPELLE-SUR-ERDRE","icon":"parking"},"geometry":{"type":"Point","coordinates":[-1.54535373772091,47.2594839275899]}},{"type":"Feature","properties":{"title":"Parc relais tram-train La Chapelle-sur-Erdre Centre","Code postal":44240,"Site Internet":null,"Téléphone":null,"Adresse":"Rue de l'Erdre","Commune":"LA-CHAPELLE-SUR-ERDRE","icon":"parking"},"geometry":{"type":"Point","coordinates":[-1.54771562542556,47.2978015412892]}},{"type":"Feature","properties":{"title":"Gare tram-train La Chapelle-sur-Erdre Centre","Code postal":44240,"Site Internet":null,"Téléphone":null,"Adresse":"Rue de l'Erdre","Commune":"LA-CHAPELLE-SUR-ERDRE","icon":"parking"},"geometry":{"type":"Point","coordinates":[-1.54808020326863,47.2974860226491]}},{"type":"Feature","properties":{"title":"Parc relais tram-train La Chapelle-Aulnay","Code postal":44240,"Site Internet":null,"Téléphone":null,"Adresse":"Avenue du Manoir","Commune":"LA-CHAPELLE-SUR-ERDRE","icon":"parking"},"geometry":{"type":"Point","coordinates":[-1.54104919057664,47.3083888002604]}},{"type":"Feature","properties":{"title":"Gare tram-train La Chapelle-Aulnay","Code postal":44240,"Site Internet":null,"Téléphone":null,"Adresse":"Avenue du Manoir","Commune":"LA-CHAPELLE-SUR-ERDRE","icon":"parking"},"geometry":{"type":"Point","coordinates":[-1.54151123189203,47.3086811231164]}},{"type":"Feature","properties":{"title":"Parc relais tram-train La Chapelle Erdre Active","Code postal":44240,"Site Internet":null,"Téléphone":null,"Adresse":"Rue de la Bérangerais","Commune":"LA-CHAPELLE-SUR-ERDRE","icon":"parking"},"geometry":{"type":"Point","coordinates":[-1.544344098146,47.2831147498899]}},{"type":"Feature","properties":{"title":"Gare tram-train La Chapelle Erdre Active","Code postal":44240,"Site Internet":null,"Téléphone":null,"Adresse":"Rue de la Bérangerais","Commune":"LA-CHAPELLE-SUR-ERDRE","icon":"parking"},"geometry":{"type":"Point","coordinates":[-1.54452233078279,47.2828497270964]}}],"properties":[{"type":"Feature","properties":{"title":"Parking ouvrage Médiathèque","Code postal":44000,"Site Internet":"www.parkings-nantes.fr","Téléphone":"02 51 84 94 51","Adresse":"Rue Neuve des Capucins","Commune":"NANTES","icon":"parking"},"geometry":{"type":"Point","coordinates":[-1.5623381759623,47.2108708271003]}},{"type":"Feature","properties":{"title":"Gare SNCF de Doulon","Code postal":44300,"Site Internet":"www.gares-connexions.com","Téléphone":"36 35","Adresse":"Rue des Perrines","Commune":"NANTES","icon":"parking"},"geometry":{"type":"Point","coordinates":[-1.51724402726267,47.2285285048663]}},{"type":"Feature","properties":{"title":"Gare SNCF de Chantenay","Code postal":44100,"Site Internet":"www.gares-connexions.com","Téléphone":"36 35","Adresse":"Rue de la Gare de Chantenay","Commune":"NANTES","icon":"parking"},"geometry":{"type":"Point","coordinates":[-1.59435499316903,47.1972022454039]}},{"type":"Feature","properties":{"title":"Parking ouvrage Gare Nord","Code postal":44000,"Site Internet":"www.resaplace.com","Téléphone":"08 25 88 88 26","Adresse":"Cours John Kennedy","Commune":"NANTES","icon":"parking"},"geometry":{"type":"Point","coordinates":[-1.54498433411572,47.2166890401729]}},{"type":"Feature","properties":{"title":"Gare SNCF de Nantes Nord - Direction régionale","Code postal":44000,"Site Internet":"www.gares-connexions.com","Téléphone":"36 35","Adresse":"Boulevard de Stalingrad","Commune":"NANTES","icon":"parking"},"geometry":{"type":"Point","coordinates":[-1.54205106482655,47.2174911129885]}},{"type":"Feature","properties":{"title":"Gare Fluviale Bateaux Nantais","Code postal":44000,"Site Internet":"www.bateaux-nantais.fr","Téléphone":"02 40 14 51 14","Adresse":"15 Place Waldeck Rousseau","Commune":"NANTES","icon":"parking"},"geometry":{"type":"Point","coordinates":[-1.5516367391695,47.2279684766427]}},{"type":"Feature","properties":{"title":"Parking ouvrage Decré-Bouffay","Code postal":44000,"Site Internet":"www.parkings-nantes.fr","Téléphone":"02 51 84 94 51","Adresse":"18 Rue du Moulin","Commune":"NANTES","icon":"parking"},"geometry":{"type":"Point","coordinates":[-1.55400463227177,47.2166626199643]}},{"type":"Feature","properties":{"title":"Parking ouvrage Graslin","Code postal":44000,"Site Internet":"www.parkings-nantes.fr","Téléphone":"02 51 84 94 51","Adresse":"Rue Scribe","Commune":"NANTES","icon":"parking"},"geometry":{"type":"Point","coordinates":[-1.56257181621741,47.2143102105068]}},{"type":"Feature","properties":{"title":"Parking ouvrage Tour Bretagne","Code postal":44000,"Site Internet":"www.parkings-nantes.fr","Téléphone":"02 51 84 94 51","Adresse":"4 Place de Bretagne","Commune":"NANTES","icon":"parking"},"geometry":{"type":"Point","coordinates":[-1.55825001902681,47.2178428948398]}},{"type":"Feature","properties":{"title":"Gare Routière Baco Eurolines","Code postal":44000,"Site Internet":"www.eurolines.fr","Téléphone":"08 92 89 90 91","Adresse":"Allée de la Maison Rouge","Commune":"NANTES","icon":"parking"},"geometry":{"type":"Point","coordinates":[-1.55276077185068,47.2127402501474]}},{"type":"Feature","properties":{"title":"Parking ouvrage Commerce","Code postal":44000,"Site Internet":"www.parkings-nantes.fr","Téléphone":"02 51 84 94 51","Adresse":"Place du Commerce","Commune":"NANTES","icon":"parking"},"geometry":{"type":"Point","coordinates":[-1.55771321969051,47.2131202858024]}},{"type":"Feature","properties":{"title":"Gare SNCF de Nantes Sud","Code postal":44000,"Site Internet":"www.gares-connexions.com","Téléphone":"36 35","Adresse":"2 Rue de Lourmel","Commune":"NANTES","icon":"parking"},"geometry":{"type":"Point","coordinates":[-1.54155846026517,47.216448854427]}},{"type":"Feature","properties":{"title":"Parking ouvrage Aristide Briand","Code postal":44000,"Site Internet":"www.vincipark.com","Téléphone":"08 10 26 30 00","Adresse":"Place Aristide Briand","Commune":"NANTES","icon":"parking"},"geometry":{"type":"Point","coordinates":[-1.56293641808053,47.2170936048579]}},{"type":"Feature","properties":{"title":"Parking ouvrage Cité des Congrès","Code postal":44000,"Site Internet":"www.parkings-nantes.fr","Téléphone":"02 51 84 94 51","Adresse":"Avenue Jean Claude Bonduelle","Commune":"NANTES","icon":"parking"},"geometry":{"type":"Point","coordinates":[-1.54397127716684,47.2129016709023]}},{"type":"Feature","properties":{"title":"Parking ouvrage Gare Sud 1","Code postal":44000,"Site Internet":"www.resaplace.com","Téléphone":"08 25 88 88 26","Adresse":"Rue de Lourmel","Commune":"NANTES","icon":"parking"},"geometry":{"type":"Point","coordinates":[-1.54103682846398,47.2161496359544]}},{"type":"Feature","properties":{"title":"Parking ouvrage Talensac","Code postal":44000,"Site Internet":"www.parkings-nantes.fr","Téléphone":"02 51 84 94 51","Adresse":"Rue Le Nôtre","Commune":"NANTES","icon":"parking"},"geometry":{"type":"Point","coordinates":[-1.55835729990237,47.2202559810468]}},{"type":"Feature","properties":{"title":"Parc relais tramway Recteur Schmitt 1","Code postal":44300,"Site Internet":"www.tan.fr","Téléphone":"02 40 44 44 44","Adresse":"Rue Recteur Schmitt","Commune":"NANTES","icon":"parking"},"geometry":{"type":"Point","coordinates":[-1.55290310437924,47.2517352538688]}},{"type":"Feature","properties":{"title":"Capitainerie du Port Atlantique Nantes Saint Nazaire","Code postal":44100,"Site Internet":"www.nantes.port.fr","Téléphone":"02 40 44 20 53","Adresse":"Quai Ernest Renaud","Commune":"NANTES","icon":"parking"},"geometry":{"type":"Point","coordinates":[-1.57398139134178,47.2054007823477]}},{"type":"Feature","properties":{"title":"Port Autonome de Nantes Saint Nazaire","Code postal":44100,"Site Internet":"www.nantes.port.fr","Téléphone":"02 40 44 20 20","Adresse":"18 Quai Ernest Renaud","Commune":"NANTES","icon":"parking"},"geometry":{"type":"Point","coordinates":[-1.57471135472788,47.2055111148953]}},{"type":"Feature","properties":{"title":"Port de l'Erdre","Code postal":44000,"Site Internet":"www.nge-nantes.fr","Téléphone":"02 40 37 04 62","Adresse":"Quai de Versailles","Commune":"NANTES","icon":"parking"},"geometry":{"type":"Point","coordinates":[-1.55372459801084,47.2252035773148]}},{"type":"Feature","properties":{"title":"Service Maritime et Navigation Ecluse Saint Félix","Code postal":44000,"Site Internet":"www.equipement.gouv.fr","Téléphone":"02 40 71 02 19","Adresse":"Quai Ferdinand Favre","Commune":"NANTES","icon":"parking"},"geometry":{"type":"Point","coordinates":[-1.54089899952201,47.2125286072856]}},{"type":"Feature","properties":{"title":"Gare SNCF de Basse Indre St-Herblain","Code postal":44800,"Site Internet":"www.gares-connexions.com","Téléphone":"36 35","Adresse":"Rue de la Gare","Commune":"ST-HERBLAIN","icon":"parking"},"geometry":{"type":"Point","coordinates":[-1.66031284128023,47.2040832390443]}},{"type":"Feature","properties":{"title":"Aéroport Nantes Atlantique","Code postal":44340,"Site Internet":"www.nantes.aeroport.fr","Téléphone":"02 40 84 80 00","Adresse":"Rue Clément Ader","Commune":"BOUGUENAIS","icon":"parking"},"geometry":{"type":"Point","coordinates":[-1.60178206983725,47.1575191481928]}},{"type":"Feature","properties":{"title":"Bacs de Loire entre Basse-Indre et Indret","Code postal":44610,"Site Internet":"www.loire-atlantique.fr","Téléphone":"02 40 86 01 29","Adresse":"Quai Besnard","Commune":"INDRE","icon":"parking"},"geometry":{"type":"Point","coordinates":[-1.67361043471387,47.1974591309304]}},{"type":"Feature","properties":{"title":"Gare SNCF de Bouaye","Code postal":44830,"Site Internet":"www.ter-sncf.com","Téléphone":"36 35","Adresse":"Allée Louis Armand","Commune":"BOUAYE","icon":"parking"},"geometry":{"type":"Point","coordinates":[-1.68110358820185,47.1380452446435]}},{"type":"Feature","properties":{"title":"Gare SNCF de Couëron","Code postal":44220,"Site Internet":"www.gares-connexions.com","Téléphone":"36 35","Adresse":"Rue de la Gare","Commune":"COUERON","icon":"parking"},"geometry":{"type":"Point","coordinates":[-1.72359939991892,47.2219441875147]}},{"type":"Feature","properties":{"title":"Bacs de Loire entre Couëron et Le Pellerin","Code postal":44220,"Site Internet":"www.loire-atlantique.fr","Téléphone":"02 40 86 01 29","Adresse":"RD 91","Commune":"COUERON","icon":"parking"},"geometry":{"type":"Point","coordinates":[-1.75212411426107,47.2059462443778]}},{"type":"Feature","properties":{"title":"Gare SNCF de Rezé Pont-Rousseau","Code postal":44400,"Site Internet":"www.gares-connexions.com","Téléphone":"36 35","Adresse":"Rue de la Gare","Commune":"REZE","icon":"parking"},"geometry":{"type":"Point","coordinates":[-1.54939210542755,47.193331595479]}},{"type":"Feature","properties":{"title":"Gare SNCF de Thouaré-sur-Loire","Code postal":44470,"Site Internet":"www.gares-connexions.com","Téléphone":"36 35","Adresse":"Place de la République","Commune":"THOUARE-SUR-LOIRE","icon":"parking"},"geometry":{"type":"Point","coordinates":[-1.44096386071447,47.2651201184653]}},{"type":"Feature","properties":{"title":"Gare SNCF de Mauves-sur-Loire","Code postal":44470,"Site Internet":"www.voyages-sncf.com","Téléphone":"36 35","Adresse":"2 Place de la Gare","Commune":"MAUVES-SUR-LOIRE","icon":"parking"},"geometry":{"type":"Point","coordinates":[-1.38930347898703,47.2930081697889]}},{"type":"Feature","properties":{"title":"Gare SNCF de Vertou","Code postal":44120,"Site Internet":"www.gares-connexions.com","Téléphone":"36 35","Adresse":"Impasse de la Gare","Commune":"VERTOU","icon":"parking"},"geometry":{"type":"Point","coordinates":[-1.47803194855925,47.1861434794643]}},{"type":"Feature","properties":{"title":"Port de Trentemoult","Code postal":44400,"Site Internet":"www.nge-nantes.fr","Téléphone":"02 51 84 94 51","Adresse":"Allée Claude Choëmet","Commune":"REZE","icon":"parking"},"geometry":{"type":"Point","coordinates":[-1.57837788591499,47.1955772998858]}},{"type":"Feature","properties":{"title":"Port de Couëron","Code postal":44220,"Site Internet":"www.nge-nantes.fr","Téléphone":"02 51 84 94 51","Adresse":"Quai Gambetta","Commune":"COUERON","icon":"parking"},"geometry":{"type":"Point","coordinates":[-1.72995922379383,47.2091256884984]}},{"type":"Feature","properties":{"title":"Parc relais tramway Frachon","Code postal":44800,"Site Internet":"www.tan.fr","Téléphone":"02 40 44 44 44","Adresse":"Boulevard Salvador Allende","Commune":"ST-HERBLAIN","icon":"parking"},"geometry":{"type":"Point","coordinates":[-1.62163336178234,47.2186961365515]}},{"type":"Feature","properties":{"title":"Parc relais tramway Le Cardo","Code postal":44700,"Site Internet":"www.tan.fr","Téléphone":"02 40 44 44 44","Adresse":"Esplanade du Cardo","Commune":"ORVAULT","icon":"parking"},"geometry":{"type":"Point","coordinates":[-1.58451198079141,47.2625020936155]}},{"type":"Feature","properties":{"title":"Parc relais tramway François Mitterrand","Code postal":44800,"Site Internet":"www.tan.fr","Téléphone":"02 40 44 44 44","Adresse":"Rue Virginia Woolf","Commune":"ST-HERBLAIN","icon":"parking"},"geometry":{"type":"Point","coordinates":[-1.63948414305523,47.22170620087]}},{"type":"Feature","properties":{"title":"Parc relais tramway Recteur Schmitt 2","Code postal":44300,"Site Internet":"www.tan.fr","Téléphone":"02 40 44 44 44","Adresse":"Rue Recteur Schmitt","Commune":"NANTES","icon":"parking"},"geometry":{"type":"Point","coordinates":[-1.55247038464754,47.2520277017386]}},{"type":"Feature","properties":{"title":"Parc relais tramway La Beaujoire","Code postal":44300,"Site Internet":"www.tan.fr","Téléphone":"02 40 44 44 44","Adresse":"Rue Colette","Commune":"NANTES","icon":"parking"},"geometry":{"type":"Point","coordinates":[-1.52739847057661,47.2594833036504]}},{"type":"Feature","properties":{"title":"Parc relais tramway 8 Mai","Code postal":44400,"Site Internet":"www.tan.fr","Téléphone":"02 40 44 44 44","Adresse":"Avenue André Malraux","Commune":"REZE","icon":"parking"},"geometry":{"type":"Point","coordinates":[-1.55143945054574,47.1900337520995]}},{"type":"Feature","properties":{"title":"Parc relais tramway Trocardière","Code postal":44400,"Site Internet":"www.tan.fr","Téléphone":"02 40 44 44 44","Adresse":"Avenue Léon Blum","Commune":"REZE","icon":"parking"},"geometry":{"type":"Point","coordinates":[-1.57109558940531,47.1832927458839]}},{"type":"Feature","properties":{"title":"Parc relais tramway René Cassin","Code postal":44300,"Site Internet":"www.tan.fr","Téléphone":"02 40 44 44 44","Adresse":"Route de la Chapelle Sur Erdre","Commune":"NANTES","icon":"parking"},"geometry":{"type":"Point","coordinates":[-1.57499790750312,47.2639509260101]}},{"type":"Feature","properties":{"title":"Parc relais tramway Pirmil","Code postal":44200,"Site Internet":"www.tan.fr","Téléphone":"02 40 44 44 44","Adresse":"Rue Esnoult des Châtelets","Commune":"NANTES","icon":"parking"},"geometry":{"type":"Point","coordinates":[-1.54153359455402,47.1973586776381]}},{"type":"Feature","properties":{"title":"Parc relais tramway Goudy","Code postal":44200,"Site Internet":"www.tan.fr","Téléphone":"02 40 44 44 44","Adresse":"Rue Gabriel Goudy","Commune":"NANTES","icon":"parking"},"geometry":{"type":"Point","coordinates":[-1.5410477469437,47.1960989467374]}},{"type":"Feature","properties":{"title":"Parc relais TER Frêne Rond","Code postal":44230,"Site Internet":"www.tan.fr","Téléphone":"02 40 44 44 44","Adresse":"Rue de l'Ouche Quinet","Commune":"ST-SEBASTIEN","icon":"parking"},"geometry":{"type":"Point","coordinates":[-1.49618578979617,47.1906228420922]}},{"type":"Feature","properties":{"title":"Parc relais TER Gare de Vertou Nord","Code postal":44120,"Site Internet":"www.tan.fr","Téléphone":"02 40 44 44 44","Adresse":"Impasse de la Gare","Commune":"VERTOU","icon":"parking"},"geometry":{"type":"Point","coordinates":[-1.47916185458301,47.1864023763705]}},{"type":"Feature","properties":{"title":"Parc relais TER Gare de Vertou Sud","Code postal":44120,"Site Internet":"www.tan.fr","Téléphone":"02 40 44 44 44","Adresse":"Rue du Bois Rigaud","Commune":"VERTOU","icon":"parking"},"geometry":{"type":"Point","coordinates":[-1.4785719721858,47.1856830197378]}},{"type":"Feature","properties":{"title":"Parc relais tramway Plaisance","Code postal":44800,"Site Internet":"www.tan.fr","Téléphone":"02 40 44 44 44","Adresse":"Route de Vannes","Commune":"ST-HERBLAIN","icon":"parking"},"geometry":{"type":"Point","coordinates":[-1.59344052396589,47.2405326620207]}},{"type":"Feature","properties":{"title":"Gare SNCF de St-Sébastien Frêne Rond","Code postal":44230,"Site Internet":"www.gares-connexions.com","Téléphone":"36 35","Adresse":"Rue de l'Ouche Quinet","Commune":"ST-SEBASTIEN","icon":"parking"},"geometry":{"type":"Point","coordinates":[-1.4958313646506,47.1906163481095]}},{"type":"Feature","properties":{"title":"Parc en enclos Gloriette 1","Code postal":44000,"Site Internet":"www.parkings-nantes.fr","Téléphone":"02 51 84 94 51","Adresse":"Allée de l'Ile Gloriette","Commune":"NANTES","icon":"parking"},"geometry":{"type":"Point","coordinates":[-1.55843872950464,47.2111796553233]}},{"type":"Feature","properties":{"title":"Parc en enclos Hôtel Dieu","Code postal":44000,"Site Internet":"www.parkings-nantes.fr","Téléphone":"02 51 84 94 51","Adresse":"Chaussée de la Madeleine","Commune":"NANTES","icon":"parking"},"geometry":{"type":"Point","coordinates":[-1.55198311230427,47.2110570860299]}},{"type":"Feature","properties":{"title":"Parc en enclos Baco-LU 2 côté CHU","Code postal":44000,"Site Internet":"www.parkings-nantes.fr","Téléphone":"02 51 84 94 51","Adresse":"Allée Baco","Commune":"NANTES","icon":"parking"},"geometry":{"type":"Point","coordinates":[-1.55160425745185,47.2131509800273]}},{"type":"Feature","properties":{"title":"Parc relais TER Gare des Pas Enchantés","Code postal":44230,"Site Internet":"www.tan.fr","Téléphone":"02 40 44 44 44","Adresse":"Rue de la Loire","Commune":"ST-SEBASTIEN","icon":"parking"},"geometry":{"type":"Point","coordinates":[-1.51299644307533,47.2082290545652]}},{"type":"Feature","properties":{"title":"Gare SNCF de St-Sébastien Pas Enchantés","Code postal":44230,"Site Internet":"www.gares-connexions.com","Téléphone":"36 35","Adresse":"Rue du Docteur Paul Michaux","Commune":"ST-SEBASTIEN","icon":"parking"},"geometry":{"type":"Point","coordinates":[-1.51111306351385,47.2070087740385]}},{"type":"Feature","properties":{"title":"Parc en enclos Château","Code postal":44000,"Site Internet":"www.parkings-nantes.fr","Téléphone":"02 51 84 94 51","Adresse":"Rue Henri IV","Commune":"NANTES","icon":"parking"},"geometry":{"type":"Point","coordinates":[-1.54785044968527,47.2169899609793]}},{"type":"Feature","properties":{"title":"Parc en enclos Gare Sud 3","Code postal":44000,"Site Internet":"www.resaplace.com","Téléphone":"08 25 88 88 26","Adresse":"Rue Marcel Paul","Commune":"NANTES","icon":"parking"},"geometry":{"type":"Point","coordinates":[-1.53789482834948,47.216135859474]}},{"type":"Feature","properties":{"title":"Parc en enclos Les Fonderies","Code postal":44200,"Site Internet":null,"Téléphone":null,"Adresse":"Rue de la Porte Gellée","Commune":"NANTES","icon":"parking"},"geometry":{"type":"Point","coordinates":[-1.54433295436521,47.2049704647258]}},{"type":"Feature","properties":{"title":"Parc relais TER Gare de Couëron","Code postal":44220,"Site Internet":"www.tan.fr","Téléphone":"02 40 44 44 44","Adresse":"Rue de la Gare","Commune":"COUERON","icon":"parking"},"geometry":{"type":"Point","coordinates":[-1.72363750160792,47.2217771934083]}},{"type":"Feature","properties":{"title":"Parc relais tramway Neustrie 2","Code postal":44340,"Site Internet":"www.tan.fr","Téléphone":"02 40 44 44 44","Adresse":"Rue de la Neustrie","Commune":"BOUGUENAIS","icon":"parking"},"geometry":{"type":"Point","coordinates":[-1.59339969648243,47.176672451111]}},{"type":"Feature","properties":{"title":"Parc relais navibus Trentemoult-Roquios","Code postal":44400,"Site Internet":"www.tan.fr","Téléphone":"02 40 44 44 44","Adresse":"Quai Surcouf","Commune":"REZE","icon":"parking"},"geometry":{"type":"Point","coordinates":[-1.57778393206355,47.1952525112789]}},{"type":"Feature","properties":{"title":"Parc relais TER Gare de Basse-Indre Saint-Herblain","Code postal":44800,"Site Internet":"www.tan.fr","Téléphone":"02 40 44 44 44","Adresse":"Rue de la Gare","Commune":"ST-HERBLAIN","icon":"parking"},"geometry":{"type":"Point","coordinates":[-1.66103809646199,47.2041579741319]}},{"type":"Feature","properties":{"title":"Parc relais tramway Neustrie 1","Code postal":44340,"Site Internet":"www.tan.fr","Téléphone":"02 40 44 44 44","Adresse":"Chemin de la Neustrie","Commune":"BOUGUENAIS","icon":"parking"},"geometry":{"type":"Point","coordinates":[-1.59309648041537,47.1754532342509]}},{"type":"Feature","properties":{"title":"Parc Relais TER de Thouaré-sur_Loire","Code postal":44470,"Site Internet":"www.tan.fr","Téléphone":"02 40 44 44 44","Adresse":"Rue des Ponts","Commune":"THOUARE-SUR-LOIRE","icon":"parking"},"geometry":{"type":"Point","coordinates":[-1.4413893536783,47.2647119908848]}},{"type":"Feature","properties":{"title":"Parc relais TER Gare de Mauves-sur-Loire","Code postal":44470,"Site Internet":"www.tan.fr","Téléphone":"02 40 44 44 44","Adresse":"2 Place de la Gare","Commune":"MAUVES-SUR-LOIRE","icon":"parking"},"geometry":{"type":"Point","coordinates":[-1.388904886686,47.2932583339329]}},{"type":"Feature","properties":{"title":"Parc relais TER Gare de Bouaye","Code postal":44830,"Site Internet":"www.tan.fr","Téléphone":"02 40 44 44 44","Adresse":"Allée Louis Armand","Commune":"BOUAYE","icon":"parking"},"geometry":{"type":"Point","coordinates":[-1.68257543659362,47.1383223686803]}},{"type":"Feature","properties":{"title":"Parc relais navibus Trentemoult-Dépôt","Code postal":44400,"Site Internet":"www.tan.fr","Téléphone":"02 40 44 44 44","Adresse":"Rue Ordronneau","Commune":"REZE","icon":"parking"},