{"type":"FeatureCollection","features":[{"type":"Feature","properties":{"geo":{"name":"Parc relais tramway Frachon"},"_l":[47.2186961365515,-1.62163336178234],"LIBTHEME":"DEPLACEMENT","CODE_POSTAL":44800,"WEB":"www.tan.fr","STATUT":null,"TELEPHONE":"02 40 44 44 44","THEME":10,"COMMUNE":"ST-HERBLAIN","LIBCATEGORIE":"Parc Relais","ADRESSE":"Boulevard Salvador Allende","LIBTYPE":"Libre","_IDOBJ":3188,"TYPE":100203,"CATEGORIE":1002,"icon":"parcrelais"},"geometry":{"type":"Point","coordinates":[-1.62163336178234,47.2186961365515]}},{"type":"Feature","properties":{"geo":{"name":"Parc relais tramway Recteur Schmitt 2"},"_l":[47.2520277017386,-1.55247038464754],"LIBTHEME":"DEPLACEMENT","CODE_POSTAL":44300,"WEB":"www.tan.fr","STATUT":null,"TELEPHONE":"02 40 44 44 44","THEME":10,"COMMUNE":"NANTES","LIBCATEGORIE":"Parc Relais","ADRESSE":"Rue Recteur Schmitt","LIBTYPE":"Libre","_IDOBJ":3191,"TYPE":100203,"CATEGORIE":1002,"icon":"parcrelais"},"geometry":{"type":"Point","coordinates":[-1.55247038464754,47.2520277017386]}},{"type":"Feature","properties":{"geo":{"name":"Parc relais tramway La Beaujoire"},"_l":[47.2594833036504,-1.52739847057661],"LIBTHEME":"DEPLACEMENT","CODE_POSTAL":44300,"WEB":"www.tan.fr","STATUT":null,"TELEPHONE":"02 40 44 44 44","THEME":10,"COMMUNE":"NANTES","LIBCATEGORIE":"Parc Relais","ADRESSE":"Rue Colette","LIBTYPE":"Enclos","_IDOBJ":3192,"TYPE":100202,"CATEGORIE":1002,"icon":"parcrelais"},"geometry":{"type":"Point","coordinates":[-1.52739847057661,47.2594833036504]}},{"type":"Feature","properties":{"geo":{"name":"Parc relais tramway Trocardière"},"_l":[47.1832927458839,-1.57109558940531],"LIBTHEME":"DEPLACEMENT","CODE_POSTAL":44400,"WEB":"www.tan.fr","STATUT":null,"TELEPHONE":"02 40 44 44 44","THEME":10,"COMMUNE":"REZE","LIBCATEGORIE":"Parc Relais","ADRESSE":"Avenue Léon Blum","LIBTYPE":"Libre","_IDOBJ":3195,"TYPE":100203,"CATEGORIE":1002,"icon":"parcrelais"},"geometry":{"type":"Point","coordinates":[-1.57109558940531,47.1832927458839]}},{"type":"Feature","properties":{"geo":{"name":"Parc relais tramway René Cassin"},"_l":[47.2639509260101,-1.57499790750312],"LIBTHEME":"DEPLACEMENT","CODE_POSTAL":44300,"WEB":"www.tan.fr","STATUT":null,"TELEPHONE":"02 40 44 44 44","THEME":10,"COMMUNE":"NANTES","LIBCATEGORIE":"Parc Relais","ADRESSE":"Route de la Chapelle Sur Erdre","LIBTYPE":"Libre","_IDOBJ":3196,"TYPE":100203,"CATEGORIE":1002,"icon":"parcrelais"},"geometry":{"type":"Point","coordinates":[-1.57499790750312,47.2639509260101]}},{"type":"Feature","properties":{"geo":{"name":"Parc relais tramway Pirmil"},"_l":[47.1973586776381,-1.54153359455402],"LIBTHEME":"DEPLACEMENT","CODE_POSTAL":44200,"WEB":"www.tan.fr","STATUT":null,"TELEPHONE":"02 40 44 44 44","THEME":10,"COMMUNE":"NANTES","LIBCATEGORIE":"Parc Relais","ADRESSE":"Rue Esnoult des Châtelets","LIBTYPE":"Libre","_IDOBJ":3197,"TYPE":100203,"CATEGORIE":1002,"icon":"parcrelais"},"geometry":{"type":"Point","coordinates":[-1.54153359455402,47.1973586776381]}},{"type":"Feature","properties":{"geo":{"name":"Parc relais tramway Goudy"},"_l":[47.1960989467374,-1.5410477469437],"LIBTHEME":"DEPLACEMENT","CODE_POSTAL":44200,"WEB":"www.tan.fr","STATUT":null,"TELEPHONE":"02 40 44 44 44","THEME":10,"COMMUNE":"NANTES","LIBCATEGORIE":"Parc Relais","ADRESSE":"Rue Gabriel Goudy","LIBTYPE":"Enclos","_IDOBJ":3198,"TYPE":100202,"CATEGORIE":1002,"icon":"parcrelais"},"geometry":{"type":"Point","coordinates":[-1.5410477469437,47.1960989467374]}},{"type":"Feature","properties":{"geo":{"name":"Parc relais TER Frêne Rond"},"_l":[47.1906228420922,-1.49618578979617],"LIBTHEME":"DEPLACEMENT","CODE_POSTAL":44230,"WEB":"www.tan.fr","STATUT":null,"TELEPHONE":"02 40 44 44 44","THEME":10,"COMMUNE":"ST-SEBASTIEN","LIBCATEGORIE":"Parc Relais","ADRESSE":"Rue de l'Ouche Quinet","LIBTYPE":"Libre","_IDOBJ":3200,"TYPE":100203,"CATEGORIE":1002,"icon":"parcrelais"},"geometry":{"type":"Point","coordinates":[-1.49618578979617,47.1906228420922]}},{"type":"Feature","properties":{"geo":{"name":"Parc relais TER Gare de Vertou Nord"},"_l":[47.1864023763705,-1.47916185458301],"LIBTHEME":"DEPLACEMENT","CODE_POSTAL":44120,"WEB":"www.tan.fr","STATUT":null,"TELEPHONE":"02 40 44 44 44","THEME":10,"COMMUNE":"VERTOU","LIBCATEGORIE":"Parc Relais","ADRESSE":"Impasse de la Gare","LIBTYPE":"Libre","_IDOBJ":3201,"TYPE":100203,"CATEGORIE":1002,"icon":"parcrelais"},"geometry":{"type":"Point","coordinates":[-1.47916185458301,47.1864023763705]}},{"type":"Feature","properties":{"geo":{"name":"Parc relais TER Gare de Vertou Sud"},"_l":[47.1856830197378,-1.4785719721858],"LIBTHEME":"DEPLACEMENT","CODE_POSTAL":44120,"WEB":"www.tan.fr","STATUT":null,"TELEPHONE":"02 40 44 44 44","THEME":10,"COMMUNE":"VERTOU","LIBCATEGORIE":"Parc Relais","ADRESSE":"Rue du Bois Rigaud","LIBTYPE":"Libre","_IDOBJ":3202,"TYPE":100203,"CATEGORIE":1002,"icon":"parcrelais"},"geometry":{"type":"Point","coordinates":[-1.4785719721858,47.1856830197378]}},{"type":"Feature","properties":{"geo":{"name":"Parc relais tramway Plaisance"},"_l":[47.2405326620207,-1.59344052396589],"LIBTHEME":"DEPLACEMENT","CODE_POSTAL":44800,"WEB":"www.tan.fr","STATUT":null,"TELEPHONE":"02 40 44 44 44","THEME":10,"COMMUNE":"ST-HERBLAIN","LIBCATEGORIE":"Parc Relais","ADRESSE":"Route de Vannes","LIBTYPE":"Libre","_IDOBJ":3227,"TYPE":100203,"CATEGORIE":1002,"icon":"parcrelais"},"geometry":{"type":"Point","coordinates":[-1.59344052396589,47.2405326620207]}},{"type":"Feature","properties":{"geo":{"name":"Parc relais TER Gare des Pas Enchantés"},"_l":[47.2082290545652,-1.51299644307533],"LIBTHEME":"DEPLACEMENT","CODE_POSTAL":44230,"WEB":"www.tan.fr","STATUT":null,"TELEPHONE":"02 40 44 44 44","THEME":10,"COMMUNE":"ST-SEBASTIEN","LIBCATEGORIE":"Parc Relais","ADRESSE":"Rue de la Loire","LIBTYPE":"Libre","_IDOBJ":3552,"TYPE":100203,"CATEGORIE":1002,"icon":"parcrelais"},"geometry":{"type":"Point","coordinates":[-1.51299644307533,47.2082290545652]}},{"type":"Feature","properties":{"geo":{"name":"Parc relais TER Gare de Couëron"},"_l":[47.2217771934083,-1.72363750160792],"LIBTHEME":"DEPLACEMENT","CODE_POSTAL":44220,"WEB":"www.tan.fr","STATUT":null,"TELEPHONE":"02 40 44 44 44","THEME":10,"COMMUNE":"COUERON","LIBCATEGORIE":"Parc Relais","ADRESSE":"Rue de la Gare","LIBTYPE":"Libre","_IDOBJ":3556,"TYPE":100203,"CATEGORIE":1002,"icon":"parcrelais"},"geometry":{"type":"Point","coordinates":[-1.72363750160792,47.2217771934083]}},{"type":"Feature","properties":{"geo":{"name":"Parc relais tramway Neustrie 2"},"_l":[47.176672451111,-1.59339969648243],"LIBTHEME":"DEPLACEMENT","CODE_POSTAL":44340,"WEB":"www.tan.fr","STATUT":null,"TELEPHONE":"02 40 44 44 44","THEME":10,"COMMUNE":"BOUGUENAIS","LIBCATEGORIE":"Parc Relais","ADRESSE":"Rue de la Neustrie","LIBTYPE":"Enclos","_IDOBJ":3558,"TYPE":100202,"CATEGORIE":1002,"icon":"parcrelais"},"geometry":{"type":"Point","coordinates":[-1.59339969648243,47.176672451111]}},{"type":"Feature","properties":{"geo":{"name":"Parc relais navibus Trentemoult-Roquios"},"_l":[47.1952525112789,-1.57778393206355],"LIBTHEME":"DEPLACEMENT","CODE_POSTAL":44400,"WEB":"www.tan.fr","STATUT":null,"TELEPHONE":"02 40 44 44 44","THEME":10,"COMMUNE":"REZE","LIBCATEGORIE":"Parc Relais","ADRESSE":"Quai Surcouf","LIBTYPE":"Libre","_IDOBJ":3560,"TYPE":100203,"CATEGORIE":1002,"icon":"parcrelais"},"geometry":{"type":"Point","coordinates":[-1.57778393206355,47.1952525112789]}},{"type":"Feature","properties":{"geo":{"name":"Parc relais TER Gare de Basse-Indre Saint-Herblain"},"_l":[47.2041579741319,-1.66103809646199],"LIBTHEME":"DEPLACEMENT","CODE_POSTAL":44800,"WEB":"www.tan.fr","STATUT":null,"TELEPHONE":"02 40 44 44 44","THEME":10,"COMMUNE":"ST-HERBLAIN","LIBCATEGORIE":"Parc Relais","ADRESSE":"Rue de la Gare","LIBTYPE":"Libre","_IDOBJ":3561,"TYPE":100203,"CATEGORIE":1002,"icon":"parcrelais"},"geometry":{"type":"Point","coordinates":[-1.66103809646199,47.2041579741319]}},{"type":"Feature","properties":{"geo":{"name":"Parc relais tramway Neustrie 1"},"_l":[47.1754532342509,-1.59309648041537],"LIBTHEME":"DEPLACEMENT","CODE_POSTAL":44340,"WEB":"www.tan.fr","STATUT":null,"TELEPHONE":"02 40 44 44 44","THEME":10,"COMMUNE":"BOUGUENAIS","LIBCATEGORIE":"Parc Relais","ADRESSE":"Chemin de la Neustrie","LIBTYPE":"Enclos","_IDOBJ":3562,"TYPE":100202,"CATEGORIE":1002,"icon":"parcrelais"},"geometry":{"type":"Point","coordinates":[-1.59309648041537,47.1754532342509]}},{"type":"Feature","properties":{"geo":{"name":"Parc Relais TER de Thouaré-sur_Loire"},"_l":[47.2647119908848,-1.4413893536783],"LIBTHEME":"DEPLACEMENT","CODE_POSTAL":44470,"WEB":"www.tan.fr","STATUT":null,"TELEPHONE":"02 40 44 44 44","THEME":10,"COMMUNE":"THOUARE-SUR-LOIRE","LIBCATEGORIE":"Parc Relais","ADRESSE":"Rue des Ponts","LIBTYPE":"Libre","_IDOBJ":3564,"TYPE":100203,"CATEGORIE":1002,"icon":"parcrelais"},"geometry":{"type":"Point","coordinates":[-1.4413893536783,47.2647119908848]}},{"type":"Feature","properties":{"geo":{"name":"Parc relais TER Gare de Mauves-sur-Loire"},"_l":[47.2932583339329,-1.388904886686],"LIBTHEME":"DEPLACEMENT","CODE_POSTAL":44470,"WEB":"www.tan.fr","STATUT":null,"TELEPHONE":"02 40 44 44 44","THEME":10,"COMMUNE":"MAUVES-SUR-LOIRE","LIBCATEGORIE":"Parc Relais","ADRESSE":"2 Place de la Gare","LIBTYPE":"Libre","_IDOBJ":3565,"TYPE":100203,"CATEGORIE":1002,"icon":"parcrelais"},"geometry":{"type":"Point","coordinates":[-1.388904886686,47.2932583339329]}},{"type":"Feature","properties":{"geo":{"name":"Parc relais TER Gare de Bouaye"},"_l":[47.1383223686803,-1.68257543659362],"LIBTHEME":"DEPLACEMENT","CODE_POSTAL":44830,"WEB":"www.tan.fr","STATUT":null,"TELEPHONE":"02 40 44 44 44","THEME":10,"COMMUNE":"BOUAYE","LIBCATEGORIE":"Parc Relais","ADRESSE":"Allée Louis Armand","LIBTYPE":"Libre","_IDOBJ":3566,"TYPE":100203,"CATEGORIE":1002,"icon":"parcrelais"},"geometry":{"type":"Point","coordinates":[-1.68257543659362,47.1383223686803]}},{"type":"Feature","properties":{"geo":{"name":"Parc relais navibus Trentemoult-Dépôt"},"_l":[47.1919649895095,-1.58068768637466],"LIBTHEME":"DEPLACEMENT","CODE_POSTAL":44400,"WEB":"www.tan.fr","STATUT":null,"TELEPHONE":"02 40 44 44 44","THEME":10,"COMMUNE":"REZE","LIBCATEGORIE":"Parc Relais","ADRESSE":"Rue Ordronneau","LIBTYPE":"Libre","_IDOBJ":3582,"TYPE":100203,"CATEGORIE":1002,"icon":"parcrelais"},"geometry":{"type":"Point","coordinates":[-1.58068768637466,47.1919649895095]}},{"type":"Feature","properties":{"geo":{"name":"Parc relais tramway Morlière Paquelais"},"_l":[47.2478235218625,-1.60283874722482],"LIBTHEME":"DEPLACEMENT","CODE_POSTAL":44700,"WEB":"www.tan.fr","STATUT":null,"TELEPHONE":"02 40 44 44 44","THEME":10,"COMMUNE":"ORVAULT","LIBCATEGORIE":"Parc Relais","ADRESSE":"Avenue de la Paquelais","LIBTYPE":"Libre","_IDOBJ":3583,"TYPE":100203,"CATEGORIE":1002,"icon":"parcrelais"},"geometry":{"type":"Point","coordinates":[-1.60283874722482,47.2478235218625]}},{"type":"Feature","properties":{"geo":{"name":"Parc relais tramway Beauséjour"},"_l":[47.2384135213971,-1.5873437488368],"LIBTHEME":"DEPLACEMENT","CODE_POSTAL":44100,"WEB":"www.tan.fr","STATUT":null,"TELEPHONE":"02 40 44 44 44","THEME":10,"COMMUNE":"NANTES","LIBCATEGORIE":"Parc Relais","ADRESSE":"Route de Vannes","LIBTYPE":"Libre","_IDOBJ":3586,"TYPE":100203,"CATEGORIE":1002,"icon":"parcrelais"},"geometry":{"type":"Point","coordinates":[-1.5873437488368,47.2384135213971]}},{"type":"Feature","properties":{"geo":{"name":"Parc relais busway Porte de Vertou"},"_l":[47.1801752959869,-1.50516017764927],"LIBTHEME":"DEPLACEMENT","CODE_POSTAL":44120,"WEB":"www.tan.fr","STATUT":null,"TELEPHONE":"02 40 44 44 44","THEME":10,"COMMUNE":"VERTOU","LIBCATEGORIE":"Parc Relais","ADRESSE":"Boulevard Auguste Priou","LIBTYPE":"Enclos","_IDOBJ":3627,"TYPE":100202,"CATEGORIE":1002,"icon":"parcrelais"},"geometry":{"type":"Point","coordinates":[-1.50516017764927,47.1801752959869]}},{"type":"Feature","properties":{"geo":{"name":"Parc relais busway Gréneraie"},"_l":[47.2001390392692,-1.53333362324729],"LIBTHEME":"DEPLACEMENT","CODE_POSTAL":44200,"WEB":"www.tan.fr","STATUT":null,"TELEPHONE":"02 40 44 44 44","THEME":10,"COMMUNE":"NANTES","LIBCATEGORIE":"Parc Relais","ADRESSE":"Route de Saint Sébastien","LIBTYPE":"Enclos","_IDOBJ":3628,"TYPE":100202,"CATEGORIE":1002,"icon":"parcrelais"},"geometry":{"type":"Point","coordinates":[-1.53333362324729,47.2001390392692]}},{"type":"Feature","properties":{"geo":{"name":"Parc relais busway Bourdonnières 1"},"_l":[47.186255590967,-1.52115429456528],"LIBTHEME":"DEPLACEMENT","CODE_POSTAL":44200,"WEB":"www.tan.fr","STATUT":null,"TELEPHONE":"02 40 44 44 44","THEME":10,"COMMUNE":"NANTES","LIBCATEGORIE":"Parc Relais","ADRESSE":"Boulevard de Vendée","LIBTYPE":"Enclos","_IDOBJ":3629,"TYPE":100202,"CATEGORIE":1002,"icon":"parcrelais"},"geometry":{"type":"Point","coordinates":[-1.52115429456528,47.186255590967]}},{"type":"Feature","properties":{"geo":{"name":"Parc relais busway Chapeau Verni"},"_l":[47.1894575221521,-1.51151075562911],"LIBTHEME":"DEPLACEMENT","CODE_POSTAL":44230,"WEB":"www.tan.fr","STATUT":null,"TELEPHONE":"02 40 44 44 44","THEME":10,"COMMUNE":"ST-SEBASTIEN","LIBCATEGORIE":"Parc Relais","ADRESSE":"Route de Clisson","LIBTYPE":"Enclos","_IDOBJ":3630,"TYPE":100202,"CATEGORIE":1002,"icon":"parcrelais"},"geometry":{"type":"Point","coordinates":[-1.51151075562911,47.1894575221521]}},{"type":"Feature","properties":{"geo":{"name":"Parc relais TER Gare de Pont-Rousseau"},"_l":[47.1925010229049,-1.54828253376638],"LIBTHEME":"DEPLACEMENT","CODE_POSTAL":44400,"WEB":"www.tan.fr","STATUT":null,"TELEPHONE":"02 40 44 44 44","THEME":10,"COMMUNE":"REZE","LIBCATEGORIE":"Parc Relais","ADRESSE":"Avenue de la Libération","LIBTYPE":"Enclos","_IDOBJ":3648,"TYPE":100202,"CATEGORIE":1002,"icon":"parcrelais"},"geometry":{"type":"Point","coordinates":[-1.54828253376638,47.1925010229049]}},{"type":"Feature","properties":{"geo":{"name":"Parc relais tramway Bignon"},"_l":[47.2489752466115,-1.59820022515513],"LIBTHEME":"DEPLACEMENT","CODE_POSTAL":44700,"WEB":"www.tan.fr","STATUT":null,"TELEPHONE":"02 40 44 44 44","THEME":10,"COMMUNE":"ORVAULT","LIBCATEGORIE":"Parc Relais","ADRESSE":"Rue des Verts Prés","LIBTYPE":"Libre","_IDOBJ":3649,"TYPE":100203,"CATEGORIE":1002,"icon":"parcrelais"},"geometry":{"type":"Point","coordinates":[-1.59820022515513,47.2489752466115]}},{"type":"Feature","properties":{"geo":{"name":"Parc relais busway Maraîchers"},"_l":[47.1851690235263,-1.51067420037066],"LIBTHEME":"DEPLACEMENT","CODE_POSTAL":44120,"WEB":"www.tan.fr","STATUT":null,"TELEPHONE":"02 40 44 44 44","THEME":10,"COMMUNE":"VERTOU","LIBCATEGORIE":"Parc Relais","ADRESSE":"Rue de la Grand' Maison","LIBTYPE":"Libre","_IDOBJ":3655,"TYPE":100203,"CATEGORIE":1002,"icon":"parcrelais"},"geometry":{"type":"Point","coordinates":[-1.51067420037066,47.1851690235263]}},{"type":"Feature","properties":{"geo":{"name":"Parc relais tramway Marcel Paul"},"_l":[47.2459045698135,-1.61800834963946],"LIBTHEME":"DEPLACEMENT","CODE_POSTAL":44800,"WEB":"www.tan.fr","STATUT":null,"TELEPHONE":"02 40 44 44 44","THEME":10,"COMMUNE":"ST-HERBLAIN","LIBCATEGORIE":"Parc Relais","ADRESSE":"Boulevard Marcel Paul","LIBTYPE":"Enclos","_IDOBJ":3776,"TYPE":100202,"CATEGORIE":1002,"icon":"parcrelais"},"geometry":{"type":"Point","coordinates":[-1.61800834963946,47.2459045698135]}},{"type":"Feature","properties":{"geo":{"name":"Parc relais tramway Grande Ouche"},"_l":[47.1819948350479,-1.57947203525665],"LIBTHEME":"DEPLACEMENT","CODE_POSTAL":44340,"WEB":"www.tan.fr","STATUT":null,"TELEPHONE":"02 40 44 44 44","THEME":10,"COMMUNE":"BOUGUENAIS","LIBCATEGORIE":"Parc Relais","ADRESSE":"Rue de la Grande Ouche","LIBTYPE":"Libre","_IDOBJ":3777,"TYPE":100203,"CATEGORIE":1002,"icon":"parcrelais"},"geometry":{"type":"Point","coordinates":[-1.57947203525665,47.1819948350479]}},{"type":"Feature","properties":{"geo":{"name":"Parc relais busway Bourdonnières 2"},"_l":[47.1867242428305,-1.52315133155692],"LIBTHEME":"DEPLACEMENT","CODE_POSTAL":44200,"WEB":"www.tan.fr","STATUT":null,"TELEPHONE":"02 40 44 44 44","THEME":10,"COMMUNE":"NANTES","LIBCATEGORIE":"Parc Relais","ADRESSE":"Rue des Bourdonnières","LIBTYPE":"Libre","_IDOBJ":3778,"TYPE":100203,"CATEGORIE":1002,"icon":"parcrelais"},"geometry":{"type":"Point","coordinates":[-1.52315133155692,47.1867242428305]}},{"type":"Feature","properties":{"geo":{"name":"Parc relais tramway Santos Dumont"},"_l":[47.2593236730243,-1.56822710791259],"LIBTHEME":"DEPLACEMENT","CODE_POSTAL":44300,"WEB":"www.tan.fr","STATUT":null,"TELEPHONE":"02 40 44 44 44","THEME":10,"COMMUNE":"NANTES","LIBCATEGORIE":"Parc Relais","ADRESSE":"Rue des Renards","LIBTYPE":"Libre","_IDOBJ":4076,"TYPE":100203,"CATEGORIE":1002,"icon":"parcrelais"},"geometry":{"type":"Point","coordinates":[-1.56822710791259,47.2593236730243]}},{"type":"Feature","properties":{"geo":{"name":"Parc relais tramway Ranzay"},"_l":[47.2543632744444,-1.53313665411229],"LIBTHEME":"DEPLACEMENT","CODE_POSTAL":44300,"WEB":"www.tan.fr","STATUT":null,"TELEPHONE":"02 40 44 44 44","THEME":10,"COMMUNE":"NANTES","LIBCATEGORIE":"Parc Relais","ADRESSE":"Route de Saint Joseph","LIBTYPE":"Enclos","_IDOBJ":4100,"TYPE":100202,"CATEGORIE":1002,"icon":"parcrelais"},"geometry":{"type":"Point","coordinates":[-1.53313665411229,47.2543632744444]}},{"type":"Feature","properties":{"geo":{"name":"Parc relais tram-train Haluchère 1"},"_l":[47.2484503442291,-1.52283117372235],"LIBTHEME":"DEPLACEMENT","CODE_POSTAL":44300,"WEB":"www.tan.fr","STATUT":null,"TELEPHONE":"02 40 44 44 44","THEME":10,"COMMUNE":"NANTES","LIBCATEGORIE":"Parc Relais","ADRESSE":"Rue du Ranzai","LIBTYPE":"Enclos","_IDOBJ":4101,"TYPE":100202,"CATEGORIE":1002,"icon":"parcrelais"},"geometry":{"type":"Point","coordinates":[-1.52283117372235,47.2484503442291]}},{"type":"Feature","properties":{"geo":{"name":"Parc Relais Chronobus Boulevard de la Baule"},"_l":[47.2225815561042,-1.60730578679594],"LIBTHEME":"DEPLACEMENT","CODE_POSTAL":44800,"WEB":null,"STATUT":null,"TELEPHONE":null,"THEME":10,"COMMUNE":"ST-HERBLAIN","LIBCATEGORIE":"Parc Relais","ADRESSE":"Rue de la Garotterie","LIBTYPE":"Libre","_IDOBJ":4308,"TYPE":100203,"CATEGORIE":1002,"icon":"parcrelais"},"geometry":{"type":"Point","coordinates":[-1.60730578679594,47.2225815561042]}},{"type":"Feature","properties":{"geo":{"name":"Parc Relais TER/Chronobus Gare de Chantenay"},"_l":[47.1975346063468,-1.59463484972795],"LIBTHEME":"DEPLACEMENT","CODE_POSTAL":44100,"WEB":null,"STATUT":null,"TELEPHONE":null,"THEME":10,"COMMUNE":"NANTES","LIBCATEGORIE":"Parc Relais","ADRESSE":"Rue de la Gare de Chantenay","LIBTYPE":"Libre","_IDOBJ":4309,"TYPE":100203,"CATEGORIE":1002,"icon":"parcrelais"},"geometry":{"type":"Point","coordinates":[-1.59463484972795,47.1975346063468]}},{"type":"Feature","properties":{"geo":{"name":"Parc Relais tramway Neustrie 3"},"_l":[47.1773452531518,-1.59164987334643],"LIBTHEME":"DEPLACEMENT","CODE_POSTAL":44340,"WEB":null,"STATUT":null,"TELEPHONE":null,"THEME":10,"COMMUNE":"BOUGUENAIS","LIBCATEGORIE":"Parc Relais","ADRESSE":"Rue de la Neustrie","LIBTYPE":"Libre","_IDOBJ":4310,"TYPE":100203,"CATEGORIE":1002,"icon":"parcrelais"},"geometry":{"type":"Point","coordinates":[-1.59164987334643,47.1773452531518]}},{"type":"Feature","properties":{"geo":{"name":"Parc Relais Chronobus Chantrerie - Grandes Ecoles"},"_l":[47.2810941460666,-1.5184745954479],"LIBTHEME":"DEPLACEMENT","CODE_POSTAL":44300,"WEB":null,"STATUT":null,"TELEPHONE":null,"THEME":10,"COMMUNE":"NANTES","LIBCATEGORIE":"Parc Relais","ADRESSE":"Route de Gachet","LIBTYPE":"Libre","_IDOBJ":4311,"TYPE":100203,"CATEGORIE":1002,"icon":"parcrelais"},"geometry":{"type":"Point","coordinates":[-1.5184745954479,47.2810941460666]}},{"type":"Feature","properties":{"geo":{"name":"Parc Relais Chronobus Planchonnais"},"_l":[47.2531977445948,-1.47497405146538],"LIBTHEME":"DEPLACEMENT","CODE_POSTAL":44980,"WEB":null,"STATUT":null,"TELEPHONE":null,"THEME":10,"COMMUNE":"SAINTE-LUCE-SUR-LOIRE","LIBCATEGORIE":"Parc Relais","ADRESSE":"Rue de la Planchonnais","LIBTYPE":"Libre","_IDOBJ":4312,"TYPE":100203,"CATEGORIE":1002,"icon":"parcrelais"},"geometry":{"type":"Point","coordinates":[-1.47497405146538,47.2531977445948]}},{"type":"Feature","properties":{"geo":{"name":"Parc Relais TER/Chronobus La Noë"},"_l":[47.2661206435125,-1.43902005915263],"LIBTHEME":"DEPLACEMENT","CODE_POSTAL":44470,"WEB":null,"STATUT":null,"TELEPHONE":null,"THEME":10,"COMMUNE":"THOUARE-SUR-LOIRE","LIBCATEGORIE":"Parc Relais","ADRESSE":"Rue des Ponts","LIBTYPE":"Libre","_IDOBJ":4313,"TYPE":100203,"CATEGORIE":1002,"icon":"parcrelais"},"geometry":{"type":"Point","coordinates":[-1.43902005915263,47.2661206435125]}},{"type":"Feature","properties":{"geo":{"name":"Parc Relais Chronobus Pré Poulain"},"_l":[47.2732941971647,-1.44604469439019],"LIBTHEME":"DEPLACEMENT","CODE_POSTAL":44470,"WEB":null,"STATUT":null,"TELEPHONE":null,"THEME":10,"COMMUNE":"THOUARE-SUR-LOIRE","LIBCATEGORIE":"Parc Relais","ADRESSE":"Rue de Beaulieu","LIBTYPE":"Libre","_IDOBJ":4314,"TYPE":100203,"CATEGORIE":1002,"icon":"parcrelais"},"geometry":{"type":"Point","coordinates":[-1.44604469439019,47.2732941971647]}},{"type":"Feature","properties":{"geo":{"name":"Parc relais tram-train Babinière"},"_l":[47.2595965577586,-1.54622476875122],"LIBTHEME":"DEPLACEMENT","CODE_POSTAL":44240,"WEB":null,"STATUT":null,"TELEPHONE":null,"THEME":10,"COMMUNE":"LA-CHAPELLE-SUR-ERDRE","LIBCATEGORIE":"Parc Relais","ADRESSE":"Avenue de la Babinière","LIBTYPE":"Libre","_IDOBJ":4340,"TYPE":100203,"CATEGORIE":1002,"icon":"parcrelais"},"geometry":{"type":"Point","coordinates":[-1.54622476875122,47.2595965577586]}},{"type":"Feature","properties":{"geo":{"name":"Parc relais tram-train La Chapelle-sur-Erdre Centre"},"_l":[47.2978015412892,-1.54771562542556],"LIBTHEME":"DEPLACEMENT","CODE_POSTAL":44240,"WEB":null,"STATUT":null,"TELEPHONE":null,"THEME":10,"COMMUNE":"LA-CHAPELLE-SUR-ERDRE","LIBCATEGORIE":"Parc Relais","ADRESSE":"Rue de l'Erdre","LIBTYPE":"Libre","_IDOBJ":4342,"TYPE":100203,"CATEGORIE":1002,"icon":"parcrelais"},"geometry":{"type":"Point","coordinates":[-1.54771562542556,47.2978015412892]}},{"type":"Feature","properties":{"geo":{"name":"Gare tram-train La Chapelle-sur-Erdre Centre"},"_l":[47.2974860226491,-1.54808020326863],"LIBTHEME":"DEPLACEMENT","CODE_POSTAL":44240,"WEB":null,"STATUT":null,"TELEPHONE":null,"THEME":10,"COMMUNE":"LA-CHAPELLE-SUR-ERDRE","LIBCATEGORIE":"Parc Relais","ADRESSE":"Rue de l'Erdre","LIBTYPE":"Libre","_IDOBJ":4343,"TYPE":100203,"CATEGORIE":1002,"icon":"parcrelais"},"geometry":{"type":"Point","coordinates":[-1.54808020326863,47.2974860226491]}},{"type":"Feature","properties":{"geo":{"name":"Parc relais tram-train La Chapelle-Aulnay"},"_l":[47.3083888002604,-1.54104919057664],"LIBTHEME":"DEPLACEMENT","CODE_POSTAL":44240,"WEB":null,"STATUT":null,"TELEPHONE":null,"THEME":10,"COMMUNE":"LA-CHAPELLE-SUR-ERDRE","LIBCATEGORIE":"Parc Relais","ADRESSE":"Avenue du Manoir","LIBTYPE":"Libre","_IDOBJ":4344,"TYPE":100203,"CATEGORIE":1002,"icon":"parcrelais"},"geometry":{"type":"Point","coordinates":[-1.54104919057664,47.3083888002604]}},{"type":"Feature","properties":{"geo":{"name":"Parc relais tram-train La Chapelle Erdre Active"},"_l":[47.2831147498899,-1.544344098146],"LIBTHEME":"DEPLACEMENT","CODE_POSTAL":44240,"WEB":null,"STATUT":null,"TELEPHONE":null,"THEME":10,"COMMUNE":"LA-CHAPELLE-SUR-ERDRE","LIBCATEGORIE":"Parc Relais","ADRESSE":"Rue de la Bérangerais","LIBTYPE":"Libre","_IDOBJ":4346,"TYPE":100203,"CATEGORIE":1002,"icon":"parcrelais"},"geometry":{"type":"Point","coordinates":[-1.544344098146,47.2831147498899]}}]}